%time,field.header.seq,field.header.stamp,field.header.frame_id,field.orientation.x,field.orientation.y,field.orientation.z,field.orientation.w,field.orientation_covariance0,field.orientation_covariance1,field.orientation_covariance2,field.orientation_covariance3,field.orientation_covariance4,field.orientation_covariance5,field.orientation_covariance6,field.orientation_covariance7,field.orientation_covariance8,field.angular_velocity.x,field.angular_velocity.y,field.angular_velocity.z,field.angular_velocity_covariance0,field.angular_velocity_covariance1,field.angular_velocity_covariance2,field.angular_velocity_covariance3,field.angular_velocity_covariance4,field.angular_velocity_covariance5,field.angular_velocity_covariance6,field.angular_velocity_covariance7,field.angular_velocity_covariance8,field.linear_acceleration.x,field.linear_acceleration.y,field.linear_acceleration.z,field.linear_acceleration_covariance0,field.linear_acceleration_covariance1,field.linear_acceleration_covariance2,field.linear_acceleration_covariance3,field.linear_acceleration_covariance4,field.linear_acceleration_covariance5,field.linear_acceleration_covariance6,field.linear_acceleration_covariance7,field.linear_acceleration_covariance8
1627577991460274477,23769,1627577991460461617,camera_accel_optical_frame,0.0,0.0,0.0,0.0,-1.0,0.0,0.0,0.0,0.0,0.0,0.0,0.0,0.0,0.0,0.0,0.0,0.01,0.0,0.0,0.0,0.01,0.0,0.0,0.0,0.01,-0.686465501785,-11.0815143585,-0.833565235138,0.01,0.0,0.0,0.0,0.01,0.0,0.0,0.0,0.01
1627577991475963291,23770,1627577991476297140,camera_accel_optical_frame,0.0,0.0,0.0,0.0,-1.0,0.0,0.0,0.0,0.0,0.0,0.0,0.0,0.0,0.0,0.0,0.0,0.01,0.0,0.0,0.0,0.01,0.0,0.0,0.0,0.01,-0.225552946329,-10.2577552795,-0.304006129503,0.01,0.0,0.0,0.0,0.01,0.0,0.0,0.0,0.01
1627577991492183358,23771,1627577991492134333,camera_accel_optical_frame,0.0,0.0,0.0,0.0,-1.0,0.0,0.0,0.0,0.0,0.0,0.0,0.0,0.0,0.0,0.0,0.0,0.01,0.0,0.0,0.0,0.01,0.0,0.0,0.0,0.01,0.0882598459721,-10.2577552795,0.402072638273,0.01,0.0,0.0,0.0,0.01,0.0,0.0,0.0,0.01
1627577991507817894,23772,1627577991507970572,camera_accel_optical_frame,0.0,0.0,0.0,0.0,-1.0,0.0,0.0,0.0,0.0,0.0,0.0,0.0,0.0,0.0,0.0,0.0,0.01,0.0,0.0,0.0,0.01,0.0,0.0,0.0,0.01,0.28439283371,-10.4931154251,0.853178501129,0.01,0.0,0.0,0.0,0.01,0.0,0.0,0.0,0.01
1627577991523850757,23773,1627577991523805618,camera_accel_optical_frame,0.0,0.0,0.0,0.0,-1.0,0.0,0.0,0.0,0.0,0.0,0.0,0.0,0.0,0.0,0.0,0.0,0.01,0.0,0.0,0.0,0.01,0.0,0.0,0.0,0.01,0.362846046686,-9.07115077972,0.411879301071,0.01,0.0,0.0,0.0,0.01,0.0,0.0,0.0,0.01
1627577991539530016,23774,1627577991539639950,camera_accel_optical_frame,0.0,0.0,0.0,0.0,-1.0,0.0,0.0,0.0,0.0,0.0,0.0,0.0,0.0,0.0,0.0,0.0,0.01,0.0,0.0,0.0,0.01,0.0,0.0,0.0,0.01,0.343232750893,-8.38468551636,1.52983736992,0.01,0.0,0.0,0.0,0.01,0.0,0.0,0.0,0.01
1627577991555451014,23775,1627577991555475712,camera_accel_optical_frame,0.0,0.0,0.0,0.0,-1.0,0.0,0.0,0.0,0.0,0.0,0.0,0.0,0.0,0.0,0.0,0.0,0.01,0.0,0.0,0.0,0.01,0.0,0.0,0.0,0.01,0.588398993015,-7.82570648193,0.549172401428,0.01,0.0,0.0,0.0,0.01,0.0,0.0,0.0,0.01
1627577991571300383,23776,1627577991571310043,camera_accel_optical_frame,0.0,0.0,0.0,0.0,-1.0,0.0,0.0,0.0,0.0,0.0,0.0,0.0,0.0,0.0,0.0,0.0,0.01,0.0,0.0,0.0,0.01,0.0,0.0,0.0,0.01,0.686465501785,-9.49283695221,1.93191003799,0.01,0.0,0.0,0.0,0.01,0.0,0.0,0.0,0.01
1627577991587150535,23777,1627577991587146044,camera_accel_optical_frame,0.0,0.0,0.0,0.0,-1.0,0.0,0.0,0.0,0.0,0.0,0.0,0.0,0.0,0.0,0.0,0.0,0.01,0.0,0.0,0.0,0.01,0.0,0.0,0.0,0.01,0.892405152321,-8.58081817627,0.706078767776,0.01,0.0,0.0,0.0,0.01,0.0,0.0,0.0,0.01
1627577991602845723,23778,1627577991602980852,camera_accel_optical_frame,0.0,0.0,0.0,0.0,-1.0,0.0,0.0,0.0,0.0,0.0,0.0,0.0,0.0,0.0,0.0,0.0,0.01,0.0,0.0,0.0,0.01,0.0,0.0,0.0,0.01,0.451105892658,-9.24767112732,1.06892478466,0.01,0.0,0.0,0.0,0.01,0.0,0.0,0.0,0.01
1627577991618488516,23779,1627577991618814945,camera_accel_optical_frame,0.0,0.0,0.0,0.0,-1.0,0.0,0.0,0.0,0.0,0.0,0.0,0.0,0.0,0.0,0.0,0.0,0.01,0.0,0.0,0.0,0.01,0.0,0.0,0.0,0.01,0.706078767776,-8.80637168884,0.147099748254,0.01,0.0,0.0,0.0,0.01,0.0,0.0,0.0,0.01
1627577991634278159,23780,1627577991634648800,camera_accel_optical_frame,0.0,0.0,0.0,0.0,-1.0,0.0,0.0,0.0,0.0,0.0,0.0,0.0,0.0,0.0,0.0,0.0,0.01,0.0,0.0,0.0,0.01,0.0,0.0,0.0,0.01,0.470719188452,-9.40457725525,0.245166242123,0.01,0.0,0.0,0.0,0.01,0.0,0.0,0.0,0.01
1627577991649987011,23781,1627577991650481701,camera_accel_optical_frame,0.0,0.0,0.0,0.0,-1.0,0.0,0.0,0.0,0.0,0.0,0.0,0.0,0.0,0.0,0.0,0.0,0.01,0.0,0.0,0.0,0.01,0.0,0.0,0.0,0.01,0.0882598459721,-9.05153751373,-0.970858335495,0.01,0.0,0.0,0.0,0.01,0.0,0.0,0.0,0.01
1627577991666033255,23782,1627577991666315317,camera_accel_optical_frame,0.0,0.0,0.0,0.0,-1.0,0.0,0.0,0.0,0.0,0.0,0.0,0.0,0.0,0.0,0.0,0.0,0.01,0.0,0.0,0.0,0.01,0.0,0.0,0.0,0.01,0.147099748254,-9.2868976593,-0.833565235138,0.01,0.0,0.0,0.0,0.01,0.0,0.0,0.0,0.01
1627577991681805750,23783,1627577991682152033,camera_accel_optical_frame,0.0,0.0,0.0,0.0,-1.0,0.0,0.0,0.0,0.0,0.0,0.0,0.0,0.0,0.0,0.0,0.0,0.01,0.0,0.0,0.0,0.01,0.0,0.0,0.0,0.01,0.608012259007,-10.5127286911,0.245166242123,0.01,0.0,0.0,0.0,0.01,0.0,0.0,0.0,0.01
1627577991697879212,23784,1627577991697984934,camera_accel_optical_frame,0.0,0.0,0.0,0.0,-1.0,0.0,0.0,0.0,0.0,0.0,0.0,0.0,0.0,0.0,0.0,0.0,0.01,0.0,0.0,0.0,0.01,0.0,0.0,0.0,0.01,0.804145276546,-11.8366260529,1.2748644352,0.01,0.0,0.0,0.0,0.01,0.0,0.0,0.0,0.01
1627577991713645940,23785,1627577991713817358,camera_accel_optical_frame,0.0,0.0,0.0,0.0,-1.0,0.0,0.0,0.0,0.0,0.0,0.0,0.0,0.0,0.0,0.0,0.0,0.01,0.0,0.0,0.0,0.01,0.0,0.0,0.0,0.01,0.38245934248,-11.7973995209,-0.225552946329,0.01,0.0,0.0,0.0,0.01,0.0,0.0,0.0,0.01
1627577991729529897,23786,1627577991729652166,camera_accel_optical_frame,0.0,0.0,0.0,0.0,-1.0,0.0,0.0,0.0,0.0,0.0,0.0,0.0,0.0,0.0,0.0,0.0,0.01,0.0,0.0,0.0,0.01,0.0,0.0,0.0,0.01,0.107873149216,-12.8663244247,0.686465501785,0.01,0.0,0.0,0.0,0.01,0.0,0.0,0.0,0.01
1627577991745308938,23787,1627577991745486498,camera_accel_optical_frame,0.0,0.0,0.0,0.0,-1.0,0.0,0.0,0.0,0.0,0.0,0.0,0.0,0.0,0.0,0.0,0.0,0.01,0.0,0.0,0.0,0.01,0.0,0.0,0.0,0.01,0.402072638273,-11.4345531464,0.107873149216,0.01,0.0,0.0,0.0,0.01,0.0,0.0,0.0,0.01
1627577991761064845,23788,1627577991761322260,camera_accel_optical_frame,0.0,0.0,0.0,0.0,-1.0,0.0,0.0,0.0,0.0,0.0,0.0,0.0,0.0,0.0,0.0,0.0,0.01,0.0,0.0,0.0,0.01,0.0,0.0,0.0,0.01,0.147099748254,-10.64021492,0.343232750893,0.01,0.0,0.0,0.0,0.01,0.0,0.0,0.0,0.01
1627577991777233201,23789,1627577991777155876,camera_accel_optical_frame,0.0,0.0,0.0,0.0,-1.0,0.0,0.0,0.0,0.0,0.0,0.0,0.0,0.0,0.0,0.0,0.0,0.01,0.0,0.0,0.0,0.01,0.0,0.0,0.0,0.01,0.431492596865,-9.34573745728,-0.205939650536,0.01,0.0,0.0,0.0,0.01,0.0,0.0,0.0,0.01
1627577991793323547,23790,1627577991792993069,camera_accel_optical_frame,0.0,0.0,0.0,0.0,-1.0,0.0,0.0,0.0,0.0,0.0,0.0,0.0,0.0,0.0,0.0,0.0,0.01,0.0,0.0,0.0,0.01,0.0,0.0,0.0,0.01,0.245166242123,-8.22777938843,0.784531950951,0.01,0.0,0.0,0.0,0.01,0.0,0.0,0.0,0.01
1627577991809047680,23791,1627577991808830500,camera_accel_optical_frame,0.0,0.0,0.0,0.0,-1.0,0.0,0.0,0.0,0.0,0.0,0.0,0.0,0.0,0.0,0.0,0.0,0.01,0.0,0.0,0.0,0.01,0.0,0.0,0.0,0.01,0.647238910198,-7.35498714447,0.402072638273,0.01,0.0,0.0,0.0,0.01,0.0,0.0,0.0,0.01
1627577991824973375,23792,1627577991824665070,camera_accel_optical_frame,0.0,0.0,0.0,0.0,-1.0,0.0,0.0,0.0,0.0,0.0,0.0,0.0,0.0,0.0,0.0,0.0,0.01,0.0,0.0,0.0,0.01,0.0,0.0,0.0,0.01,0.0686465501785,-8.6886920929,0.205939650536,0.01,0.0,0.0,0.0,0.01,0.0,0.0,0.0,0.01
1627577991841075102,23793,1627577991840501308,camera_accel_optical_frame,0.0,0.0,0.0,0.0,-1.0,0.0,0.0,0.0,0.0,0.0,0.0,0.0,0.0,0.0,0.0,0.0,0.01,0.0,0.0,0.0,0.01,0.0,0.0,0.0,0.01,0.28439283371,-7.86493301392,-0.107873149216,0.01,0.0,0.0,0.0,0.01,0.0,0.0,0.0,0.01
1627577991856491923,23794,1627577991856338739,camera_accel_optical_frame,0.0,0.0,0.0,0.0,-1.0,0.0,0.0,0.0,0.0,0.0,0.0,0.0,0.0,0.0,0.0,0.0,0.01,0.0,0.0,0.0,0.01,0.0,0.0,0.0,0.01,0.186326339841,-9.16921710968,1.37293100357,0.01,0.0,0.0,0.0,0.01,0.0,0.0,0.0,0.01
1627577991872437113,23795,1627577991872172832,camera_accel_optical_frame,0.0,0.0,0.0,0.0,-1.0,0.0,0.0,0.0,0.0,0.0,0.0,0.0,0.0,0.0,0.0,0.0,0.01,0.0,0.0,0.0,0.01,0.0,0.0,0.0,0.01,0.0,-9.11037731171,-0.323619455099,0.01,0.0,0.0,0.0,0.01,0.0,0.0,0.0,0.01
1627577991888503991,23796,1627577991888008118,camera_accel_optical_frame,0.0,0.0,0.0,0.0,-1.0,0.0,0.0,0.0,0.0,0.0,0.0,0.0,0.0,0.0,0.0,0.0,0.01,0.0,0.0,0.0,0.01,0.0,0.0,0.0,0.01,0.0294199492782,-9.7478094101,1.18660461903,0.01,0.0,0.0,0.0,0.01,0.0,0.0,0.0,0.01
1627577991904147850,23797,1627577991903846264,camera_accel_optical_frame,0.0,0.0,0.0,0.0,-1.0,0.0,0.0,0.0,0.0,0.0,0.0,0.0,0.0,0.0,0.0,0.0,0.01,0.0,0.0,0.0,0.01,0.0,0.0,0.0,0.01,0.813951909542,-8.34545898438,1.14737796783,0.01,0.0,0.0,0.0,0.01,0.0,0.0,0.0,0.01
1627577991919880572,23798,1627577991919681072,camera_accel_optical_frame,0.0,0.0,0.0,0.0,-1.0,0.0,0.0,0.0,0.0,0.0,0.0,0.0,0.0,0.0,0.0,0.0,0.01,0.0,0.0,0.0,0.01,0.0,0.0,0.0,0.01,0.931631743908,-9.68896961212,2.2163028717,0.01,0.0,0.0,0.0,0.01,0.0,0.0,0.0,0.01
1627577991936027206,23799,1627577991935515404,camera_accel_optical_frame,0.0,0.0,0.0,0.0,-1.0,0.0,0.0,0.0,0.0,0.0,0.0,0.0,0.0,0.0,0.0,0.0,0.01,0.0,0.0,0.0,0.01,0.0,0.0,0.0,0.01,0.588398993015,-9.68896961212,0.931631743908,0.01,0.0,0.0,0.0,0.01,0.0,0.0,0.0,0.01
1627577991951249738,23800,1627577991951351404,camera_accel_optical_frame,0.0,0.0,0.0,0.0,-1.0,0.0,0.0,0.0,0.0,0.0,0.0,0.0,0.0,0.0,0.0,0.0,0.01,0.0,0.0,0.0,0.01,0.0,0.0,0.0,0.01,0.509945809841,-8.99269771576,1.14737796783,0.01,0.0,0.0,0.0,0.01,0.0,0.0,0.0,0.01
1627577991966925564,23801,1627577991967187166,camera_accel_optical_frame,0.0,0.0,0.0,0.0,-1.0,0.0,0.0,0.0,0.0,0.0,0.0,0.0,0.0,0.0,0.0,0.0,0.01,0.0,0.0,0.0,0.01,0.0,0.0,0.0,0.01,0.627625584602,-9.55167675018,1.22583127022,0.01,0.0,0.0,0.0,0.01,0.0,0.0,0.0,0.01
1627577991983054681,23802,1627577991983021259,camera_accel_optical_frame,0.0,0.0,0.0,0.0,-1.0,0.0,0.0,0.0,0.0,0.0,0.0,0.0,0.0,0.0,0.0,0.0,0.01,0.0,0.0,0.0,0.01,0.0,0.0,0.0,0.01,0.608012259007,-11.6601066589,2.48108243942,0.01,0.0,0.0,0.0,0.01,0.0,0.0,0.0,0.01
1627577991998847846,23803,1627577991998859167,camera_accel_optical_frame,0.0,0.0,0.0,0.0,-1.0,0.0,0.0,0.0,0.0,0.0,0.0,0.0,0.0,0.0,0.0,0.0,0.01,0.0,0.0,0.0,0.01,0.0,0.0,0.0,0.01,0.931631743908,-11.0619010925,1.79461693764,0.01,0.0,0.0,0.0,0.01,0.0,0.0,0.0,0.01
1627577992014563259,23804,1627577992014698267,camera_accel_optical_frame,0.0,0.0,0.0,0.0,-1.0,0.0,0.0,0.0,0.0,0.0,0.0,0.0,0.0,0.0,0.0,0.0,0.01,0.0,0.0,0.0,0.01,0.0,0.0,0.0,0.01,0.647238910198,-11.620880127,2.02997660637,0.01,0.0,0.0,0.0,0.01,0.0,0.0,0.0,0.01
1627577992031100621,23805,1627577992030538082,camera_accel_optical_frame,0.0,0.0,0.0,0.0,-1.0,0.0,0.0,0.0,0.0,0.0,0.0,0.0,0.0,0.0,0.0,0.0,0.01,0.0,0.0,0.0,0.01,0.0,0.0,0.0,0.01,0.568785667419,-11.1011276245,1.79461693764,0.01,0.0,0.0,0.0,0.01,0.0,0.0,0.0,0.01
1627577992046319309,23806,1627577992046378851,camera_accel_optical_frame,0.0,0.0,0.0,0.0,-1.0,0.0,0.0,0.0,0.0,0.0,0.0,0.0,0.0,0.0,0.0,0.0,0.01,0.0,0.0,0.0,0.01,0.0,0.0,0.0,0.01,0.28439283371,-10.1498823166,1.77500355244,0.01,0.0,0.0,0.0,0.01,0.0,0.0,0.0,0.01
1627577992062276845,23807,1627577992062218666,camera_accel_optical_frame,0.0,0.0,0.0,0.0,-1.0,0.0,0.0,0.0,0.0,0.0,0.0,0.0,0.0,0.0,0.0,0.0,0.01,0.0,0.0,0.0,0.01,0.0,0.0,0.0,0.01,0.343232750893,-9.20844459534,1.22583127022,0.01,0.0,0.0,0.0,0.01,0.0,0.0,0.0,0.01
1627577992078093003,23808,1627577992078055620,camera_accel_optical_frame,0.0,0.0,0.0,0.0,-1.0,0.0,0.0,0.0,0.0,0.0,0.0,0.0,0.0,0.0,0.0,0.0,0.01,0.0,0.0,0.0,0.01,0.0,0.0,0.0,0.01,-0.0686465501785,-10.2381420135,0.872791826725,0.01,0.0,0.0,0.0,0.01,0.0,0.0,0.0,0.01
1627577992094051208,23809,1627577992093894243,camera_accel_optical_frame,0.0,0.0,0.0,0.0,-1.0,0.0,0.0,0.0,0.0,0.0,0.0,0.0,0.0,0.0,0.0,0.0,0.01,0.0,0.0,0.0,0.01,0.0,0.0,0.0,0.01,-0.225552946329,-9.85568332672,0.0294199492782,0.01,0.0,0.0,0.0,0.01,0.0,0.0,0.0,0.01
1627577992110205418,23810,1627577992109732151,camera_accel_optical_frame,0.0,0.0,0.0,0.0,-1.0,0.0,0.0,0.0,0.0,0.0,0.0,0.0,0.0,0.0,0.0,0.0,0.01,0.0,0.0,0.0,0.01,0.0,0.0,0.0,0.01,-0.166713044047,-9.7281961441,0.0294199492782,0.01,0.0,0.0,0.0,0.01,0.0,0.0,0.0,0.01
1627577992126057252,23811,1627577992125573635,camera_accel_optical_frame,0.0,0.0,0.0,0.0,-1.0,0.0,0.0,0.0,0.0,0.0,0.0,0.0,0.0,0.0,0.0,0.0,0.01,0.0,0.0,0.0,0.01,0.0,0.0,0.0,0.01,0.166713044047,-10.3950490952,0.990471601486,0.01,0.0,0.0,0.0,0.01,0.0,0.0,0.0,0.01
1627577992141764839,23812,1627577992141412258,camera_accel_optical_frame,0.0,0.0,0.0,0.0,-1.0,0.0,0.0,0.0,0.0,0.0,0.0,0.0,0.0,0.0,0.0,0.0,0.01,0.0,0.0,0.0,0.01,0.0,0.0,0.0,0.01,0.411879301071,-9.66935634613,0.647238910198,0.01,0.0,0.0,0.0,0.01,0.0,0.0,0.0,0.01
1627577992157762974,23813,1627577992157253027,camera_accel_optical_frame,0.0,0.0,0.0,0.0,-1.0,0.0,0.0,0.0,0.0,0.0,0.0,0.0,0.0,0.0,0.0,0.0,0.01,0.0,0.0,0.0,0.01,0.0,0.0,0.0,0.01,0.343232750893,-8.99269771576,0.706078767776,0.01,0.0,0.0,0.0,0.01,0.0,0.0,0.0,0.01
1627577992173363561,23814,1627577992173093557,camera_accel_optical_frame,0.0,0.0,0.0,0.0,-1.0,0.0,0.0,0.0,0.0,0.0,0.0,0.0,0.0,0.0,0.0,0.0,0.01,0.0,0.0,0.0,0.01,0.0,0.0,0.0,0.01,0.706078767776,-8.04145240784,0.343232750893,0.01,0.0,0.0,0.0,0.01,0.0,0.0,0.0,0.01
1627577992189396617,23815,1627577992188934088,camera_accel_optical_frame,0.0,0.0,0.0,0.0,-1.0,0.0,0.0,0.0,0.0,0.0,0.0,0.0,0.0,0.0,0.0,0.0,0.01,0.0,0.0,0.0,0.01,0.0,0.0,0.0,0.01,0.725692093372,-8.22777938843,1.08853816986,0.01,0.0,0.0,0.0,0.01,0.0,0.0,0.0,0.01
1627577992205268025,23816,1627577992204772472,camera_accel_optical_frame,0.0,0.0,0.0,0.0,-1.0,0.0,0.0,0.0,0.0,0.0,0.0,0.0,0.0,0.0,0.0,0.0,0.01,0.0,0.0,0.0,0.01,0.0,0.0,0.0,0.01,0.833565235138,-7.40402078629,0.490332484245,0.01,0.0,0.0,0.0,0.01,0.0,0.0,0.0,0.01
1627577992221299464,23817,1627577992220610857,camera_accel_optical_frame,0.0,0.0,0.0,0.0,-1.0,0.0,0.0,0.0,0.0,0.0,0.0,0.0,0.0,0.0,0.0,0.0,0.01,0.0,0.0,0.0,0.01,0.0,0.0,0.0,0.01,0.431492596865,-7.75706005096,0.38245934248,0.01,0.0,0.0,0.0,0.01,0.0,0.0,0.0,0.01
1627577992236735485,23818,1627577992236450195,camera_accel_optical_frame,0.0,0.0,0.0,0.0,-1.0,0.0,0.0,0.0,0.0,0.0,0.0,0.0,0.0,0.0,0.0,0.0,0.01,0.0,0.0,0.0,0.01,0.0,0.0,0.0,0.01,0.627625584602,-8.04145240784,-0.0882598459721,0.01,0.0,0.0,0.0,0.01,0.0,0.0,0.0,0.01
1627577992252424008,23819,1627577992252290487,camera_accel_optical_frame,0.0,0.0,0.0,0.0,-1.0,0.0,0.0,0.0,0.0,0.0,0.0,0.0,0.0,0.0,0.0,0.0,0.01,0.0,0.0,0.0,0.01,0.0,0.0,0.0,0.01,0.568785667419,-9.1299905777,0.431492596865,0.01,0.0,0.0,0.0,0.01,0.0,0.0,0.0,0.01
1627577992268437226,23820,1627577992268128872,camera_accel_optical_frame,0.0,0.0,0.0,0.0,-1.0,0.0,0.0,0.0,0.0,0.0,0.0,0.0,0.0,0.0,0.0,0.0,0.01,0.0,0.0,0.0,0.01,0.0,0.0,0.0,0.01,0.245166242123,-11.0128679276,-0.509945809841,0.01,0.0,0.0,0.0,0.01,0.0,0.0,0.0,0.01
1627577992284170329,23821,1627577992283967257,camera_accel_optical_frame,0.0,0.0,0.0,0.0,-1.0,0.0,0.0,0.0,0.0,0.0,0.0,0.0,0.0,0.0,0.0,0.0,0.01,0.0,0.0,0.0,0.01,0.0,0.0,0.0,0.01,-0.38245934248,-13.1703310013,-0.588398993015,0.01,0.0,0.0,0.0,0.01,0.0,0.0,0.0,0.01
1627577992300059070,23822,1627577992299807310,camera_accel_optical_frame,0.0,0.0,0.0,0.0,-1.0,0.0,0.0,0.0,0.0,0.0,0.0,0.0,0.0,0.0,0.0,0.0,0.01,0.0,0.0,0.0,0.01,0.0,0.0,0.0,0.01,0.245166242123,-11.9641122818,-1.16699135303,0.01,0.0,0.0,0.0,0.01,0.0,0.0,0.0,0.01
1627577992316183170,23823,1627577992315646410,camera_accel_optical_frame,0.0,0.0,0.0,0.0,-1.0,0.0,0.0,0.0,0.0,0.0,0.0,0.0,0.0,0.0,0.0,0.0,0.01,0.0,0.0,0.0,0.01,0.0,0.0,0.0,0.01,0.872791826725,-12.6603851318,1.2552511692,0.01,0.0,0.0,0.0,0.01,0.0,0.0,0.0,0.01
1627577992331797970,23824,1627577992331485748,camera_accel_optical_frame,0.0,0.0,0.0,0.0,-1.0,0.0,0.0,0.0,0.0,0.0,0.0,0.0,0.0,0.0,0.0,0.0,0.01,0.0,0.0,0.0,0.01,0.0,0.0,0.0,0.01,0.568785667419,-11.3168735504,0.147099748254,0.01,0.0,0.0,0.0,0.01,0.0,0.0,0.0,0.01
1627577992347534361,23825,1627577992347321749,camera_accel_optical_frame,0.0,0.0,0.0,0.0,-1.0,0.0,0.0,0.0,0.0,0.0,0.0,0.0,0.0,0.0,0.0,0.0,0.01,0.0,0.0,0.0,0.01,0.0,0.0,0.0,0.01,0.186326339841,-10.1302690506,-0.38245934248,0.01,0.0,0.0,0.0,0.01,0.0,0.0,0.0,0.01
1627577992363304176,23826,1627577992363160849,camera_accel_optical_frame,0.0,0.0,0.0,0.0,-1.0,0.0,0.0,0.0,0.0,0.0,0.0,0.0,0.0,0.0,0.0,0.0,0.01,0.0,0.0,0.0,0.01,0.0,0.0,0.0,0.01,0.38245934248,-10.2283353806,0.970858335495,0.01,0.0,0.0,0.0,0.01,0.0,0.0,0.0,0.01
1627577992379342815,23827,1627577992378997803,camera_accel_optical_frame,0.0,0.0,0.0,0.0,-1.0,0.0,0.0,0.0,0.0,0.0,0.0,0.0,0.0,0.0,0.0,0.0,0.01,0.0,0.0,0.0,0.01,0.0,0.0,0.0,0.01,0.451105892658,-9.41438388824,0.509945809841,0.01,0.0,0.0,0.0,0.01,0.0,0.0,0.0,0.01
1627577992395364116,23828,1627577992394836903,camera_accel_optical_frame,0.0,0.0,0.0,0.0,-1.0,0.0,0.0,0.0,0.0,0.0,0.0,0.0,0.0,0.0,0.0,0.0,0.01,0.0,0.0,0.0,0.01,0.0,0.0,0.0,0.01,0.304006129503,-9.45361042023,0.725692093372,0.01,0.0,0.0,0.0,0.01,0.0,0.0,0.0,0.01
1627577992411264628,23829,1627577992410674810,camera_accel_optical_frame,0.0,0.0,0.0,0.0,-1.0,0.0,0.0,0.0,0.0,0.0,0.0,0.0,0.0,0.0,0.0,0.0,0.01,0.0,0.0,0.0,0.01,0.0,0.0,0.0,0.01,0.490332484245,-9.49283695221,0.912018418312,0.01,0.0,0.0,0.0,0.01,0.0,0.0,0.0,0.01
1627577992426809052,23830,1627577992426512718,camera_accel_optical_frame,0.0,0.0,0.0,0.0,-1.0,0.0,0.0,0.0,0.0,0.0,0.0,0.0,0.0,0.0,0.0,0.0,0.01,0.0,0.0,0.0,0.01,0.0,0.0,0.0,0.01,0.470719188452,-9.47322368622,0.931631743908,0.01,0.0,0.0,0.0,0.01,0.0,0.0,0.0,0.01
1627577992442693317,23831,1627577992442349672,camera_accel_optical_frame,0.0,0.0,0.0,0.0,-1.0,0.0,0.0,0.0,0.0,0.0,0.0,0.0,0.0,0.0,0.0,0.0,0.01,0.0,0.0,0.0,0.01,0.0,0.0,0.0,0.01,0.147099748254,-10.3165950775,0.509945809841,0.01,0.0,0.0,0.0,0.01,0.0,0.0,0.0,0.01
1627577992459230756,23832,1627577992458186388,camera_accel_optical_frame,0.0,0.0,0.0,0.0,-1.0,0.0,0.0,0.0,0.0,0.0,0.0,0.0,0.0,0.0,0.0,0.0,0.01,0.0,0.0,0.0,0.01,0.0,0.0,0.0,0.01,0.0686465501785,-10.1498823166,0.833565235138,0.01,0.0,0.0,0.0,0.01,0.0,0.0,0.0,0.01
1627577992474668187,23833,1627577992474020004,camera_accel_optical_frame,0.0,0.0,0.0,0.0,-1.0,0.0,0.0,0.0,0.0,0.0,0.0,0.0,0.0,0.0,0.0,0.0,0.01,0.0,0.0,0.0,0.01,0.0,0.0,0.0,0.01,0.00980664975941,-8.80637168884,-0.0294199492782,0.01,0.0,0.0,0.0,0.01,0.0,0.0,0.0,0.01
1627577992490388700,23834,1627577992489856958,camera_accel_optical_frame,0.0,0.0,0.0,0.0,-1.0,0.0,0.0,0.0,0.0,0.0,0.0,0.0,0.0,0.0,0.0,0.0,0.01,0.0,0.0,0.0,0.01,0.0,0.0,0.0,0.01,-0.323619455099,-7.58054018021,0.451105892658,0.01,0.0,0.0,0.0,0.01,0.0,0.0,0.0,0.01
1627577992506745599,23835,1627577992505693674,camera_accel_optical_frame,0.0,0.0,0.0,0.0,-1.0,0.0,0.0,0.0,0.0,0.0,0.0,0.0,0.0,0.0,0.0,0.0,0.01,0.0,0.0,0.0,0.01,0.0,0.0,0.0,0.01,0.00980664975941,-6.65871524811,0.411879301071,0.01,0.0,0.0,0.0,0.01,0.0,0.0,0.0,0.01
1627577992522381595,23836,1627577992521529913,camera_accel_optical_frame,0.0,0.0,0.0,0.0,-1.0,0.0,0.0,0.0,0.0,0.0,0.0,0.0,0.0,0.0,0.0,0.0,0.01,0.0,0.0,0.0,0.01,0.0,0.0,0.0,0.01,0.608012259007,-6.95291471481,1.54945063591,0.01,0.0,0.0,0.0,0.01,0.0,0.0,0.0,0.01
1627577992538469305,23837,1627577992537365675,camera_accel_optical_frame,0.0,0.0,0.0,0.0,-1.0,0.0,0.0,0.0,0.0,0.0,0.0,0.0,0.0,0.0,0.0,0.0,0.01,0.0,0.0,0.0,0.01,0.0,0.0,0.0,0.01,0.509945809841,-7.6001534462,1.79461693764,0.01,0.0,0.0,0.0,0.01,0.0,0.0,0.0,0.01
1627577992553885683,23838,1627577992553201437,camera_accel_optical_frame,0.0,0.0,0.0,0.0,-1.0,0.0,0.0,0.0,0.0,0.0,0.0,0.0,0.0,0.0,0.0,0.0,0.01,0.0,0.0,0.0,0.01,0.0,0.0,0.0,0.01,0.431492596865,-9.16921710968,1.2552511692,0.01,0.0,0.0,0.0,0.01,0.0,0.0,0.0,0.01
1627577992569393413,23839,1627577992569037914,camera_accel_optical_frame,0.0,0.0,0.0,0.0,-1.0,0.0,0.0,0.0,0.0,0.0,0.0,0.0,0.0,0.0,0.0,0.0,0.01,0.0,0.0,0.0,0.01,0.0,0.0,0.0,0.01,0.38245934248,-10.1498823166,2.27514266968,0.01,0.0,0.0,0.0,0.01,0.0,0.0,0.0,0.01
1627577992585401792,23840,1627577992584873199,camera_accel_optical_frame,0.0,0.0,0.0,0.0,-1.0,0.0,0.0,0.0,0.0,0.0,0.0,0.0,0.0,0.0,0.0,0.0,0.01,0.0,0.0,0.0,0.01,0.0,0.0,0.0,0.01,0.509945809841,-10.1498823166,1.39254426956,0.01,0.0,0.0,0.0,0.01,0.0,0.0,0.0,0.01
1627577992601011165,23841,1627577992600708723,camera_accel_optical_frame,0.0,0.0,0.0,0.0,-1.0,0.0,0.0,0.0,0.0,0.0,0.0,0.0,0.0,0.0,0.0,0.0,0.01,0.0,0.0,0.0,0.01,0.0,0.0,0.0,0.01,0.323619455099,-11.2776470184,2.90276837349,0.01,0.0,0.0,0.0,0.01,0.0,0.0,0.0,0.01
1627577992616680446,23842,1627577992616544247,camera_accel_optical_frame,0.0,0.0,0.0,0.0,-1.0,0.0,0.0,0.0,0.0,0.0,0.0,0.0,0.0,0.0,0.0,0.0,0.01,0.0,0.0,0.0,0.01,0.0,0.0,0.0,0.01,-0.0294199492782,-9.81645679474,0.12748645246,0.01,0.0,0.0,0.0,0.01,0.0,0.0,0.0,0.01
1627577992632873460,23843,1627577992632381678,camera_accel_optical_frame,0.0,0.0,0.0,0.0,-1.0,0.0,0.0,0.0,0.0,0.0,0.0,0.0,0.0,0.0,0.0,0.0,0.01,0.0,0.0,0.0,0.01,0.0,0.0,0.0,0.01,-0.0294199492782,-10.2283353806,1.69655036926,0.01,0.0,0.0,0.0,0.01,0.0,0.0,0.0,0.01
1627577992648480718,23844,1627577992648218632,camera_accel_optical_frame,0.0,0.0,0.0,0.0,-1.0,0.0,0.0,0.0,0.0,0.0,0.0,0.0,0.0,0.0,0.0,0.0,0.01,0.0,0.0,0.0,0.01,0.0,0.0,0.0,0.01,0.205939650536,-9.30651092529,0.951245009899,0.01,0.0,0.0,0.0,0.01,0.0,0.0,0.0,0.01
1627577992664616095,23845,1627577992664057016,camera_accel_optical_frame,0.0,0.0,0.0,0.0,-1.0,0.0,0.0,0.0,0.0,0.0,0.0,0.0,0.0,0.0,0.0,0.0,0.01,0.0,0.0,0.0,0.01,0.0,0.0,0.0,0.01,0.0882598459721,-10.9148015976,1.20621788502,0.01,0.0,0.0,0.0,0.01,0.0,0.0,0.0,0.01
1627577992680447576,23846,1627577992679894209,camera_accel_optical_frame,0.0,0.0,0.0,0.0,-1.0,0.0,0.0,0.0,0.0,0.0,0.0,0.0,0.0,0.0,0.0,0.0,0.01,0.0,0.0,0.0,0.01,0.0,0.0,0.0,0.01,0.627625584602,-11.454167366,1.41215753555,0.01,0.0,0.0,0.0,0.01,0.0,0.0,0.0,0.01
1627577992696268649,23847,1627577992695728540,camera_accel_optical_frame,0.0,0.0,0.0,0.0,-1.0,0.0,0.0,0.0,0.0,0.0,0.0,0.0,0.0,0.0,0.0,0.0,0.01,0.0,0.0,0.0,0.01,0.0,0.0,0.0,0.01,1.08853816986,-11.4345531464,1.60829055309,0.01,0.0,0.0,0.0,0.01,0.0,0.0,0.0,0.01
1627577992712124493,23848,1627577992711563826,camera_accel_optical_frame,0.0,0.0,0.0,0.0,-1.0,0.0,0.0,0.0,0.0,0.0,0.0,0.0,0.0,0.0,0.0,0.0,0.01,0.0,0.0,0.0,0.01,0.0,0.0,0.0,0.01,0.833565235138,-12.2190856934,1.63771045208,0.01,0.0,0.0,0.0,0.01,0.0,0.0,0.0,0.01
1627577992727929221,23849,1627577992727399588,camera_accel_optical_frame,0.0,0.0,0.0,0.0,-1.0,0.0,0.0,0.0,0.0,0.0,0.0,0.0,0.0,0.0,0.0,0.0,0.01,0.0,0.0,0.0,0.01,0.0,0.0,0.0,0.01,0.706078767776,-11.3757133484,0.431492596865,0.01,0.0,0.0,0.0,0.01,0.0,0.0,0.0,0.01
1627577992743991152,23850,1627577992743235826,camera_accel_optical_frame,0.0,0.0,0.0,0.0,-1.0,0.0,0.0,0.0,0.0,0.0,0.0,0.0,0.0,0.0,0.0,0.0,0.01,0.0,0.0,0.0,0.01,0.0,0.0,0.0,0.01,0.872791826725,-11.620880127,1.5690639019,0.01,0.0,0.0,0.0,0.01,0.0,0.0,0.0,0.01
1627577992759963140,23851,1627577992759071827,camera_accel_optical_frame,0.0,0.0,0.0,0.0,-1.0,0.0,0.0,0.0,0.0,0.0,0.0,0.0,0.0,0.0,0.0,0.0,0.01,0.0,0.0,0.0,0.01,0.0,0.0,0.0,0.01,1.10815143585,-10.0714292526,0.892405152321,0.01,0.0,0.0,0.0,0.01,0.0,0.0,0.0,0.01
1627577992775476627,23852,1627577992774906635,camera_accel_optical_frame,0.0,0.0,0.0,0.0,-1.0,0.0,0.0,0.0,0.0,0.0,0.0,0.0,0.0,0.0,0.0,0.0,0.01,0.0,0.0,0.0,0.01,0.0,0.0,0.0,0.01,0.745305359364,-9.36535072327,0.804145276546,0.01,0.0,0.0,0.0,0.01,0.0,0.0,0.0,0.01
1627577992792047870,23853,1627577992790741682,camera_accel_optical_frame,0.0,0.0,0.0,0.0,-1.0,0.0,0.0,0.0,0.0,0.0,0.0,0.0,0.0,0.0,0.0,0.0,0.01,0.0,0.0,0.0,0.01,0.0,0.0,0.0,0.01,0.451105892658,-7.42363405228,0.0294199492782,0.01,0.0,0.0,0.0,0.01,0.0,0.0,0.0,0.01
1627577992807221438,23854,1627577992806578636,camera_accel_optical_frame,0.0,0.0,0.0,0.0,-1.0,0.0,0.0,0.0,0.0,0.0,0.0,0.0,0.0,0.0,0.0,0.0,0.01,0.0,0.0,0.0,0.01,0.0,0.0,0.0,0.01,0.225552946329,-5.77611684799,-0.205939650536,0.01,0.0,0.0,0.0,0.01,0.0,0.0,0.0,0.01
1627577992823116531,23855,1627577992822415590,camera_accel_optical_frame,0.0,0.0,0.0,0.0,-1.0,0.0,0.0,0.0,0.0,0.0,0.0,0.0,0.0,0.0,0.0,0.0,0.01,0.0,0.0,0.0,0.01,0.0,0.0,0.0,0.01,0.107873149216,-5.28578424454,-0.686465501785,0.01,0.0,0.0,0.0,0.01,0.0,0.0,0.0,0.01
1627577992839350510,23856,1627577992838250160,camera_accel_optical_frame,0.0,0.0,0.0,0.0,-1.0,0.0,0.0,0.0,0.0,0.0,0.0,0.0,0.0,0.0,0.0,0.0,0.01,0.0,0.0,0.0,0.01,0.0,0.0,0.0,0.01,-0.166713044047,-6.03108978271,-0.931631743908,0.01,0.0,0.0,0.0,0.01,0.0,0.0,0.0,0.01
1627577992855223194,23857,1627577992854085207,camera_accel_optical_frame,0.0,0.0,0.0,0.0,-1.0,0.0,0.0,0.0,0.0,0.0,0.0,0.0,0.0,0.0,0.0,0.0,0.01,0.0,0.0,0.0,0.01,0.0,0.0,0.0,0.01,-0.304006129503,-7.19808101654,-1.73577702045,0.01,0.0,0.0,0.0,0.01,0.0,0.0,0.0,0.01
1627577992870957329,23858,1627577992869922876,camera_accel_optical_frame,0.0,0.0,0.0,0.0,-1.0,0.0,0.0,0.0,0.0,0.0,0.0,0.0,0.0,0.0,0.0,0.0,0.01,0.0,0.0,0.0,0.01,0.0,0.0,0.0,0.01,0.107873149216,-9.32612419128,-0.362846046686,0.01,0.0,0.0,0.0,0.01,0.0,0.0,0.0,0.01
1627577992886501956,23859,1627577992885758638,camera_accel_optical_frame,0.0,0.0,0.0,0.0,-1.0,0.0,0.0,0.0,0.0,0.0,0.0,0.0,0.0,0.0,0.0,0.0,0.01,0.0,0.0,0.0,0.01,0.0,0.0,0.0,0.01,0.304006129503,-10.5911817551,-0.647238910198,0.01,0.0,0.0,0.0,0.01,0.0,0.0,0.0,0.01
1627577992902240207,23860,1627577992901597261,camera_accel_optical_frame,0.0,0.0,0.0,0.0,-1.0,0.0,0.0,0.0,0.0,0.0,0.0,0.0,0.0,0.0,0.0,0.0,0.01,0.0,0.0,0.0,0.01,0.0,0.0,0.0,0.01,0.304006129503,-12.8663244247,0.323619455099,0.01,0.0,0.0,0.0,0.01,0.0,0.0,0.0,0.01
1627577992917972008,23861,1627577992917432785,camera_accel_optical_frame,0.0,0.0,0.0,0.0,-1.0,0.0,0.0,0.0,0.0,0.0,0.0,0.0,0.0,0.0,0.0,0.0,0.01,0.0,0.0,0.0,0.01,0.0,0.0,0.0,0.01,0.647238910198,-13.1899442673,1.06892478466,0.01,0.0,0.0,0.0,0.01,0.0,0.0,0.0,0.01
1627577992933726727,23862,1627577992933269262,camera_accel_optical_frame,0.0,0.0,0.0,0.0,-1.0,0.0,0.0,0.0,0.0,0.0,0.0,0.0,0.0,0.0,0.0,0.0,0.01,0.0,0.0,0.0,0.01,0.0,0.0,0.0,0.01,0.470719188452,-12.2877321243,0.608012259007,0.01,0.0,0.0,0.0,0.01,0.0,0.0,0.0,0.01
1627577992949834852,23863,1627577992949106932,camera_accel_optical_frame,0.0,0.0,0.0,0.0,-1.0,0.0,0.0,0.0,0.0,0.0,0.0,0.0,0.0,0.0,0.0,0.0,0.01,0.0,0.0,0.0,0.01,0.0,0.0,0.0,0.01,0.28439283371,-11.3561000824,1.01008486748,0.01,0.0,0.0,0.0,0.01,0.0,0.0,0.0,0.01
1627577992965495429,23864,1627577992964943409,camera_accel_optical_frame,0.0,0.0,0.0,0.0,-1.0,0.0,0.0,0.0,0.0,0.0,0.0,0.0,0.0,0.0,0.0,0.0,0.01,0.0,0.0,0.0,0.01,0.0,0.0,0.0,0.01,0.362846046686,-8.59062480927,-0.147099748254,0.01,0.0,0.0,0.0,0.01,0.0,0.0,0.0,0.01
1627577992981275335,23865,1627577992980779886,camera_accel_optical_frame,0.0,0.0,0.0,0.0,-1.0,0.0,0.0,0.0,0.0,0.0,0.0,0.0,0.0,0.0,0.0,0.0,0.01,0.0,0.0,0.0,0.01,0.0,0.0,0.0,0.01,0.411879301071,-8.94366455078,2.01036310196,0.01,0.0,0.0,0.0,0.01,0.0,0.0,0.0,0.01
1627577992997536127,23866,1627577992996615887,camera_accel_optical_frame,0.0,0.0,0.0,0.0,-1.0,0.0,0.0,0.0,0.0,0.0,0.0,0.0,0.0,0.0,0.0,0.0,0.01,0.0,0.0,0.0,0.01,0.0,0.0,0.0,0.01,0.686465501785,-7.27653408051,0.362846046686,0.01,0.0,0.0,0.0,0.01,0.0,0.0,0.0,0.01
1627577993013012611,23867,1627577993012454987,camera_accel_optical_frame,0.0,0.0,0.0,0.0,-1.0,0.0,0.0,0.0,0.0,0.0,0.0,0.0,0.0,0.0,0.0,0.0,0.01,0.0,0.0,0.0,0.01,0.0,0.0,0.0,0.01,0.362846046686,-8.5219783783,1.97113656998,0.01,0.0,0.0,0.0,0.01,0.0,0.0,0.0,0.01
1627577993029214549,23868,1627577993028292179,camera_accel_optical_frame,0.0,0.0,0.0,0.0,-1.0,0.0,0.0,0.0,0.0,0.0,0.0,0.0,0.0,0.0,0.0,0.0,0.01,0.0,0.0,0.0,0.01,0.0,0.0,0.0,0.01,0.588398993015,-6.83523511887,0.0,0.01,0.0,0.0,0.0,0.01,0.0,0.0,0.0,0.01
1627577993044995096,23869,1627577993044130087,camera_accel_optical_frame,0.0,0.0,0.0,0.0,-1.0,0.0,0.0,0.0,0.0,0.0,0.0,0.0,0.0,0.0,0.0,0.0,0.01,0.0,0.0,0.0,0.01,0.0,0.0,0.0,0.01,0.411879301071,-9.83607006073,2.98122143745,0.01,0.0,0.0,0.0,0.01,0.0,0.0,0.0,0.01
1627577993060863676,23870,1627577993059967279,camera_accel_optical_frame,0.0,0.0,0.0,0.0,-1.0,0.0,0.0,0.0,0.0,0.0,0.0,0.0,0.0,0.0,0.0,0.0,0.01,0.0,0.0,0.0,0.01,0.0,0.0,0.0,0.01,0.784531950951,-8.22777938843,0.0,0.01,0.0,0.0,0.0,0.01,0.0,0.0,0.0,0.01
1627577993076907932,23871,1627577993075806141,camera_accel_optical_frame,0.0,0.0,0.0,0.0,-1.0,0.0,0.0,0.0,0.0,0.0,0.0,0.0,0.0,0.0,0.0,0.0,0.01,0.0,0.0,0.0,0.01,0.0,0.0,0.0,0.01,0.402072638273,-11.4149398804,2.77528190613,0.01,0.0,0.0,0.0,0.01,0.0,0.0,0.0,0.01
1627577993092701729,23872,1627577993091644049,camera_accel_optical_frame,0.0,0.0,0.0,0.0,-1.0,0.0,0.0,0.0,0.0,0.0,0.0,0.0,0.0,0.0,0.0,0.0,0.01,0.0,0.0,0.0,0.01,0.0,0.0,0.0,0.01,0.509945809841,-10.4146623611,0.509945809841,0.01,0.0,0.0,0.0,0.01,0.0,0.0,0.0,0.01
1627577993108794467,23873,1627577993107481003,camera_accel_optical_frame,0.0,0.0,0.0,0.0,-1.0,0.0,0.0,0.0,0.0,0.0,0.0,0.0,0.0,0.0,0.0,0.0,0.01,0.0,0.0,0.0,0.01,0.0,0.0,0.0,0.01,0.529559075832,-12.2190856934,1.77500355244,0.01,0.0,0.0,0.0,0.01,0.0,0.0,0.0,0.01
1627577993124123684,23874,1627577993123317003,camera_accel_optical_frame,0.0,0.0,0.0,0.0,-1.0,0.0,0.0,0.0,0.0,0.0,0.0,0.0,0.0,0.0,0.0,0.0,0.01,0.0,0.0,0.0,0.01,0.0,0.0,0.0,0.01,0.833565235138,-12.8074846268,1.63771045208,0.01,0.0,0.0,0.0,0.01,0.0,0.0,0.0,0.01
1627577993140188237,23875,1627577993139154434,camera_accel_optical_frame,0.0,0.0,0.0,0.0,-1.0,0.0,0.0,0.0,0.0,0.0,0.0,0.0,0.0,0.0,0.0,0.0,0.01,0.0,0.0,0.0,0.01,0.0,0.0,0.0,0.01,0.627625584602,-12.1210193634,0.12748645246,0.01,0.0,0.0,0.0,0.01,0.0,0.0,0.0,0.01
1627577993156155316,23876,1627577993154992342,camera_accel_optical_frame,0.0,0.0,0.0,0.0,-1.0,0.0,0.0,0.0,0.0,0.0,0.0,0.0,0.0,0.0,0.0,0.0,0.01,0.0,0.0,0.0,0.01,0.0,0.0,0.0,0.01,0.568785667419,-11.483587265,1.12776470184,0.01,0.0,0.0,0.0,0.01,0.0,0.0,0.0,0.01
1627577993171988728,23877,1627577993170829058,camera_accel_optical_frame,0.0,0.0,0.0,0.0,-1.0,0.0,0.0,0.0,0.0,0.0,0.0,0.0,0.0,0.0,0.0,0.0,0.01,0.0,0.0,0.0,0.01,0.0,0.0,0.0,0.01,0.608012259007,-9.36535072327,-0.647238910198,0.01,0.0,0.0,0.0,0.01,0.0,0.0,0.0,0.01
1627577993188525918,23878,1627577993186667681,camera_accel_optical_frame,0.0,0.0,0.0,0.0,-1.0,0.0,0.0,0.0,0.0,0.0,0.0,0.0,0.0,0.0,0.0,0.0,0.01,0.0,0.0,0.0,0.01,0.0,0.0,0.0,0.01,0.470719188452,-9.41438388824,0.813951909542,0.01,0.0,0.0,0.0,0.01,0.0,0.0,0.0,0.01
1627577993203292200,23879,1627577993202505350,camera_accel_optical_frame,0.0,0.0,0.0,0.0,-1.0,0.0,0.0,0.0,0.0,0.0,0.0,0.0,0.0,0.0,0.0,0.0,0.01,0.0,0.0,0.0,0.01,0.0,0.0,0.0,0.01,0.529559075832,-6.93330144882,-0.892405152321,0.01,0.0,0.0,0.0,0.01,0.0,0.0,0.0,0.01
1627577993219020852,23880,1627577993218346834,camera_accel_optical_frame,0.0,0.0,0.0,0.0,-1.0,0.0,0.0,0.0,0.0,0.0,0.0,0.0,0.0,0.0,0.0,0.0,0.01,0.0,0.0,0.0,0.01,0.0,0.0,0.0,0.01,0.411879301071,-7.82570648193,0.509945809841,0.01,0.0,0.0,0.0,0.01,0.0,0.0,0.0,0.01
1627577993235044822,23881,1627577993234182596,camera_accel_optical_frame,0.0,0.0,0.0,0.0,-1.0,0.0,0.0,0.0,0.0,0.0,0.0,0.0,0.0,0.0,0.0,0.0,0.01,0.0,0.0,0.0,0.01,0.0,0.0,0.0,0.01,0.343232750893,-7.61976671219,-0.225552946329,0.01,0.0,0.0,0.0,0.01,0.0,0.0,0.0,0.01
1627577993250770192,23882,1627577993250020981,camera_accel_optical_frame,0.0,0.0,0.0,0.0,-1.0,0.0,0.0,0.0,0.0,0.0,0.0,0.0,0.0,0.0,0.0,0.0,0.01,0.0,0.0,0.0,0.01,0.0,0.0,0.0,0.01,0.509945809841,-8.70830535889,1.65732383728,0.01,0.0,0.0,0.0,0.01,0.0,0.0,0.0,0.01
1627577993266806689,23883,1627577993265857697,camera_accel_optical_frame,0.0,0.0,0.0,0.0,-1.0,0.0,0.0,0.0,0.0,0.0,0.0,0.0,0.0,0.0,0.0,0.0,0.01,0.0,0.0,0.0,0.01,0.0,0.0,0.0,0.01,0.608012259007,-8.38468551636,1.35331761837,0.01,0.0,0.0,0.0,0.01,0.0,0.0,0.0,0.01
1627577993282831326,23884,1627577993281695127,camera_accel_optical_frame,0.0,0.0,0.0,0.0,-1.0,0.0,0.0,0.0,0.0,0.0,0.0,0.0,0.0,0.0,0.0,0.0,0.01,0.0,0.0,0.0,0.01,0.0,0.0,0.0,0.01,0.686465501785,-9.30651092529,2.11823630333,0.01,0.0,0.0,0.0,0.01,0.0,0.0,0.0,0.01
1627577993298476963,23885,1627577993297531605,camera_accel_optical_frame,0.0,0.0,0.0,0.0,-1.0,0.0,0.0,0.0,0.0,0.0,0.0,0.0,0.0,0.0,0.0,0.0,0.01,0.0,0.0,0.0,0.01,0.0,0.0,0.0,0.01,0.509945809841,-9.8949098587,1.22583127022,0.01,0.0,0.0,0.0,0.01,0.0,0.0,0.0,0.01
1627577993314374912,23886,1627577993313367605,camera_accel_optical_frame,0.0,0.0,0.0,0.0,-1.0,0.0,0.0,0.0,0.0,0.0,0.0,0.0,0.0,0.0,0.0,0.0,0.01,0.0,0.0,0.0,0.01,0.0,0.0,0.0,0.01,0.608012259007,-10.64021492,1.52983736992,0.01,0.0,0.0,0.0,0.01,0.0,0.0,0.0,0.01
1627577993330289621,23887,1627577993329205036,camera_accel_optical_frame,0.0,0.0,0.0,0.0,-1.0,0.0,0.0,0.0,0.0,0.0,0.0,0.0,0.0,0.0,0.0,0.0,0.01,0.0,0.0,0.0,0.01,0.0,0.0,0.0,0.01,0.725692093372,-10.83634758,1.06892478466,0.01,0.0,0.0,0.0,0.01,0.0,0.0,0.0,0.01
1627577993346093678,23888,1627577993345041275,camera_accel_optical_frame,0.0,0.0,0.0,0.0,-1.0,0.0,0.0,0.0,0.0,0.0,0.0,0.0,0.0,0.0,0.0,0.0,0.01,0.0,0.0,0.0,0.01,0.0,0.0,0.0,0.01,0.627625584602,-11.2188072205,0.608012259007,0.01,0.0,0.0,0.0,0.01,0.0,0.0,0.0,0.01
1627577993362043231,23889,1627577993360877514,camera_accel_optical_frame,0.0,0.0,0.0,0.0,-1.0,0.0,0.0,0.0,0.0,0.0,0.0,0.0,0.0,0.0,0.0,0.0,0.01,0.0,0.0,0.0,0.01,0.0,0.0,0.0,0.01,0.402072638273,-10.1302690506,0.00980664975941,0.01,0.0,0.0,0.0,0.01,0.0,0.0,0.0,0.01
1627577993377773492,23890,1627577993376715899,camera_accel_optical_frame,0.0,0.0,0.0,0.0,-1.0,0.0,0.0,0.0,0.0,0.0,0.0,0.0,0.0,0.0,0.0,0.0,0.01,0.0,0.0,0.0,0.01,0.0,0.0,0.0,0.01,0.107873149216,-9.59090328217,-0.205939650536,0.01,0.0,0.0,0.0,0.01,0.0,0.0,0.0,0.01
1627577993393545074,23891,1627577993392550707,camera_accel_optical_frame,0.0,0.0,0.0,0.0,-1.0,0.0,0.0,0.0,0.0,0.0,0.0,0.0,0.0,0.0,0.0,0.0,0.01,0.0,0.0,0.0,0.01,0.0,0.0,0.0,0.01,0.166713044047,-9.47322368622,-0.549172401428,0.01,0.0,0.0,0.0,0.01,0.0,0.0,0.0,0.01
1627577993409551632,23892,1627577993408388853,camera_accel_optical_frame,0.0,0.0,0.0,0.0,-1.0,0.0,0.0,0.0,0.0,0.0,0.0,0.0,0.0,0.0,0.0,0.0,0.01,0.0,0.0,0.0,0.01,0.0,0.0,0.0,0.01,0.147099748254,-11.2384204865,0.804145276546,0.01,0.0,0.0,0.0,0.01,0.0,0.0,0.0,0.01
1627577993425359544,23893,1627577993424225092,camera_accel_optical_frame,0.0,0.0,0.0,0.0,-1.0,0.0,0.0,0.0,0.0,0.0,0.0,0.0,0.0,0.0,0.0,0.0,0.01,0.0,0.0,0.0,0.01,0.0,0.0,0.0,0.01,0.205939650536,-9.81645679474,-0.0490332469344,0.01,0.0,0.0,0.0,0.01,0.0,0.0,0.0,0.01
1627577993441501614,23894,1627577993440061092,camera_accel_optical_frame,0.0,0.0,0.0,0.0,-1.0,0.0,0.0,0.0,0.0,0.0,0.0,0.0,0.0,0.0,0.0,0.0,0.01,0.0,0.0,0.0,0.01,0.0,0.0,0.0,0.01,0.166713044047,-10.699054718,1.2748644352,0.01,0.0,0.0,0.0,0.01,0.0,0.0,0.0,0.01
1627577993457457065,23895,1627577993455895901,camera_accel_optical_frame,0.0,0.0,0.0,0.0,-1.0,0.0,0.0,0.0,0.0,0.0,0.0,0.0,0.0,0.0,0.0,0.0,0.01,0.0,0.0,0.0,0.01,0.0,0.0,0.0,0.01,0.627625584602,-11.1207408905,1.16699135303,0.01,0.0,0.0,0.0,0.01,0.0,0.0,0.0,0.01
1627577993473336234,23896,1627577993471729994,camera_accel_optical_frame,0.0,0.0,0.0,0.0,-1.0,0.0,0.0,0.0,0.0,0.0,0.0,0.0,0.0,0.0,0.0,0.0,0.01,0.0,0.0,0.0,0.01,0.0,0.0,0.0,0.01,0.509945809841,-10.64021492,1.41215753555,0.01,0.0,0.0,0.0,0.01,0.0,0.0,0.0,0.01
1627577993488863231,23897,1627577993487565041,camera_accel_optical_frame,0.0,0.0,0.0,0.0,-1.0,0.0,0.0,0.0,0.0,0.0,0.0,0.0,0.0,0.0,0.0,0.0,0.01,0.0,0.0,0.0,0.01,0.0,0.0,0.0,0.01,1.14737796783,-9.16921710968,0.509945809841,0.01,0.0,0.0,0.0,0.01,0.0,0.0,0.0,0.01
1627577993504524600,23898,1627577993503399849,camera_accel_optical_frame,0.0,0.0,0.0,0.0,-1.0,0.0,0.0,0.0,0.0,0.0,0.0,0.0,0.0,0.0,0.0,0.0,0.01,0.0,0.0,0.0,0.01,0.0,0.0,0.0,0.01,0.568785667419,-12.0621795654,1.65732383728,0.01,0.0,0.0,0.0,0.01,0.0,0.0,0.0,0.01
1627577993520372704,23899,1627577993519233704,camera_accel_optical_frame,0.0,0.0,0.0,0.0,-1.0,0.0,0.0,0.0,0.0,0.0,0.0,0.0,0.0,0.0,0.0,0.0,0.01,0.0,0.0,0.0,0.01,0.0,0.0,0.0,0.01,0.225552946329,-11.2580337524,0.147099748254,0.01,0.0,0.0,0.0,0.01,0.0,0.0,0.0,0.01
1627577993535992031,23900,1627577993535066366,camera_accel_optical_frame,0.0,0.0,0.0,0.0,-1.0,0.0,0.0,0.0,0.0,0.0,0.0,0.0,0.0,0.0,0.0,0.0,0.01,0.0,0.0,0.0,0.01,0.0,0.0,0.0,0.01,0.0294199492782,-9.32612419128,-0.38245934248,0.01,0.0,0.0,0.0,0.01,0.0,0.0,0.0,0.01
1627577993551817505,23901,1627577993550901175,camera_accel_optical_frame,0.0,0.0,0.0,0.0,-1.0,0.0,0.0,0.0,0.0,0.0,0.0,0.0,0.0,0.0,0.0,0.0,0.01,0.0,0.0,0.0,0.01,0.0,0.0,0.0,0.01,-0.304006129503,-9.11037731171,-0.872791826725,0.01,0.0,0.0,0.0,0.01,0.0,0.0,0.0,0.01
1627577993567779727,23902,1627577993566736698,camera_accel_optical_frame,0.0,0.0,0.0,0.0,-1.0,0.0,0.0,0.0,0.0,0.0,0.0,0.0,0.0,0.0,0.0,0.0,0.01,0.0,0.0,0.0,0.01,0.0,0.0,0.0,0.01,-0.470719188452,-9.20844459534,-0.706078767776,0.01,0.0,0.0,0.0,0.01,0.0,0.0,0.0,0.01
1627577993583827882,23903,1627577993582573414,camera_accel_optical_frame,0.0,0.0,0.0,0.0,-1.0,0.0,0.0,0.0,0.0,0.0,0.0,0.0,0.0,0.0,0.0,0.0,0.01,0.0,0.0,0.0,0.01,0.0,0.0,0.0,0.01,-0.608012259007,-7.9041595459,-1.2748644352,0.01,0.0,0.0,0.0,0.01,0.0,0.0,0.0,0.01
1627577993599527010,23904,1627577993598409176,camera_accel_optical_frame,0.0,0.0,0.0,0.0,-1.0,0.0,0.0,0.0,0.0,0.0,0.0,0.0,0.0,0.0,0.0,0.0,0.01,0.0,0.0,0.0,0.01,0.0,0.0,0.0,0.01,-0.431492596865,-8.2866191864,-0.931631743908,0.01,0.0,0.0,0.0,0.01,0.0,0.0,0.0,0.01
1627577993615308234,23905,1627577993614246607,camera_accel_optical_frame,0.0,0.0,0.0,0.0,-1.0,0.0,0.0,0.0,0.0,0.0,0.0,0.0,0.0,0.0,0.0,0.0,0.01,0.0,0.0,0.0,0.01,0.0,0.0,0.0,0.01,0.186326339841,-7.75706005096,0.647238910198,0.01,0.0,0.0,0.0,0.01,0.0,0.0,0.0,0.01
1627577993631244973,23906,1627577993630083323,camera_accel_optical_frame,0.0,0.0,0.0,0.0,-1.0,0.0,0.0,0.0,0.0,0.0,0.0,0.0,0.0,0.0,0.0,0.0,0.01,0.0,0.0,0.0,0.01,0.0,0.0,0.0,0.01,0.28439283371,-7.06078767776,0.205939650536,0.01,0.0,0.0,0.0,0.01,0.0,0.0,0.0,0.01
1627577993647202922,23907,1627577993645917654,camera_accel_optical_frame,0.0,0.0,0.0,0.0,-1.0,0.0,0.0,0.0,0.0,0.0,0.0,0.0,0.0,0.0,0.0,0.0,0.01,0.0,0.0,0.0,0.01,0.0,0.0,0.0,0.01,0.225552946329,-8.04145240784,1.06892478466,0.01,0.0,0.0,0.0,0.01,0.0,0.0,0.0,0.01
1627577993663036275,23908,1627577993661755085,camera_accel_optical_frame,0.0,0.0,0.0,0.0,-1.0,0.0,0.0,0.0,0.0,0.0,0.0,0.0,0.0,0.0,0.0,0.0,0.01,0.0,0.0,0.0,0.01,0.0,0.0,0.0,0.01,1.5886772871,-8.22777938843,1.79461693764,0.01,0.0,0.0,0.0,0.01,0.0,0.0,0.0,0.01
1627577993678923152,23909,1627577993677592516,camera_accel_optical_frame,0.0,0.0,0.0,0.0,-1.0,0.0,0.0,0.0,0.0,0.0,0.0,0.0,0.0,0.0,0.0,0.0,0.01,0.0,0.0,0.0,0.01,0.0,0.0,0.0,0.01,0.784531950951,-10.1106557846,1.99074995518,0.01,0.0,0.0,0.0,0.01,0.0,0.0,0.0,0.01
1627577993695353893,23910,1627577993693428993,camera_accel_optical_frame,0.0,0.0,0.0,0.0,-1.0,0.0,0.0,0.0,0.0,0.0,0.0,0.0,0.0,0.0,0.0,0.0,0.01,0.0,0.0,0.0,0.01,0.0,0.0,0.0,0.01,0.725692093372,-9.59090328217,0.608012259007,0.01,0.0,0.0,0.0,0.01,0.0,0.0,0.0,0.01
1627577993710538358,23911,1627577993709265232,camera_accel_optical_frame,0.0,0.0,0.0,0.0,-1.0,0.0,0.0,0.0,0.0,0.0,0.0,0.0,0.0,0.0,0.0,0.0,0.01,0.0,0.0,0.0,0.01,0.0,0.0,0.0,0.01,0.529559075832,-11.503200531,2.73605537415,0.01,0.0,0.0,0.0,0.01,0.0,0.0,0.0,0.01
1627577993726610068,23912,1627577993725101471,camera_accel_optical_frame,0.0,0.0,0.0,0.0,-1.0,0.0,0.0,0.0,0.0,0.0,0.0,0.0,0.0,0.0,0.0,0.0,0.01,0.0,0.0,0.0,0.01,0.0,0.0,0.0,0.01,0.343232750893,-10.659828186,0.970858335495,0.01,0.0,0.0,0.0,0.01,0.0,0.0,0.0,0.01
1627577993742337357,23913,1627577993740937710,camera_accel_optical_frame,0.0,0.0,0.0,0.0,-1.0,0.0,0.0,0.0,0.0,0.0,0.0,0.0,0.0,0.0,0.0,0.0,0.01,0.0,0.0,0.0,0.01,0.0,0.0,0.0,0.01,0.666852176189,-10.2577552795,1.83384346962,0.01,0.0,0.0,0.0,0.01,0.0,0.0,0.0,0.01
1627577993758471870,23914,1627577993756772995,camera_accel_optical_frame,0.0,0.0,0.0,0.0,-1.0,0.0,0.0,0.0,0.0,0.0,0.0,0.0,0.0,0.0,0.0,0.0,0.01,0.0,0.0,0.0,0.01,0.0,0.0,0.0,0.01,-0.264779537916,-10.3950490952,0.647238910198,0.01,0.0,0.0,0.0,0.01,0.0,0.0,0.0,0.01
1627577993774109971,23915,1627577993772610188,camera_accel_optical_frame,0.0,0.0,0.0,0.0,-1.0,0.0,0.0,0.0,0.0,0.0,0.0,0.0,0.0,0.0,0.0,0.0,0.01,0.0,0.0,0.0,0.01,0.0,0.0,0.0,0.01,-0.0686465501785,-10.0714292526,1.43177092075,0.01,0.0,0.0,0.0,0.01,0.0,0.0,0.0,0.01
1627577993789794893,23916,1627577993788445234,camera_accel_optical_frame,0.0,0.0,0.0,0.0,-1.0,0.0,0.0,0.0,0.0,0.0,0.0,0.0,0.0,0.0,0.0,0.0,0.01,0.0,0.0,0.0,0.01,0.0,0.0,0.0,0.01,0.186326339841,-9.14960384369,0.872791826725,0.01,0.0,0.0,0.0,0.01,0.0,0.0,0.0,0.01
1627577993805857737,23917,1627577993804282427,camera_accel_optical_frame,0.0,0.0,0.0,0.0,-1.0,0.0,0.0,0.0,0.0,0.0,0.0,0.0,0.0,0.0,0.0,0.0,0.01,0.0,0.0,0.0,0.01,0.0,0.0,0.0,0.01,0.38245934248,-8.64946556091,1.5690639019,0.01,0.0,0.0,0.0,0.01,0.0,0.0,0.0,0.01
1627577993821644084,23918,1627577993820117474,camera_accel_optical_frame,0.0,0.0,0.0,0.0,-1.0,0.0,0.0,0.0,0.0,0.0,0.0,0.0,0.0,0.0,0.0,0.0,0.01,0.0,0.0,0.0,0.01,0.0,0.0,0.0,0.01,0.549172401428,-8.6690788269,0.647238910198,0.01,0.0,0.0,0.0,0.01,0.0,0.0,0.0,0.01
1627577993837013014,23919,1627577993835953474,camera_accel_optical_frame,0.0,0.0,0.0,0.0,-1.0,0.0,0.0,0.0,0.0,0.0,0.0,0.0,0.0,0.0,0.0,0.0,0.01,0.0,0.0,0.0,0.01,0.0,0.0,0.0,0.01,0.529559075832,-10.0910425186,1.85345685482,0.01,0.0,0.0,0.0,0.01,0.0,0.0,0.0,0.01
1627577993853032767,23920,1627577993851789236,camera_accel_optical_frame,0.0,0.0,0.0,0.0,-1.0,0.0,0.0,0.0,0.0,0.0,0.0,0.0,0.0,0.0,0.0,0.0,0.01,0.0,0.0,0.0,0.01,0.0,0.0,0.0,0.01,0.990471601486,-9.47322368622,1.87307012081,0.01,0.0,0.0,0.0,0.01,0.0,0.0,0.0,0.01
1627577993868750408,23921,1627577993867624283,camera_accel_optical_frame,0.0,0.0,0.0,0.0,-1.0,0.0,0.0,0.0,0.0,0.0,0.0,0.0,0.0,0.0,0.0,0.0,0.01,0.0,0.0,0.0,0.01,0.0,0.0,0.0,0.01,0.833565235138,-9.45361042023,1.85345685482,0.01,0.0,0.0,0.0,0.01,0.0,0.0,0.0,0.01
1627577993884819395,23922,1627577993883458138,camera_accel_optical_frame,0.0,0.0,0.0,0.0,-1.0,0.0,0.0,0.0,0.0,0.0,0.0,0.0,0.0,0.0,0.0,0.0,0.01,0.0,0.0,0.0,0.01,0.0,0.0,0.0,0.01,0.833565235138,-8.26700592041,-0.147099748254,0.01,0.0,0.0,0.0,0.01,0.0,0.0,0.0,0.01
1627577993900552693,23923,1627577993899293900,camera_accel_optical_frame,0.0,0.0,0.0,0.0,-1.0,0.0,0.0,0.0,0.0,0.0,0.0,0.0,0.0,0.0,0.0,0.0,0.01,0.0,0.0,0.0,0.01,0.0,0.0,0.0,0.01,-0.264779537916,-11.1207408905,1.06892478466,0.01,0.0,0.0,0.0,0.01,0.0,0.0,0.0,0.01
1627577993916293635,23924,1627577993915127993,camera_accel_optical_frame,0.0,0.0,0.0,0.0,-1.0,0.0,0.0,0.0,0.0,0.0,0.0,0.0,0.0,0.0,0.0,0.0,0.01,0.0,0.0,0.0,0.01,0.0,0.0,0.0,0.01,0.323619455099,-9.09076404572,-0.853178501129,0.01,0.0,0.0,0.0,0.01,0.0,0.0,0.0,0.01
1627577993932316449,23925,1627577993930963516,camera_accel_optical_frame,0.0,0.0,0.0,0.0,-1.0,0.0,0.0,0.0,0.0,0.0,0.0,0.0,0.0,0.0,0.0,0.0,0.01,0.0,0.0,0.0,0.01,0.0,0.0,0.0,0.01,0.470719188452,-9.78703689575,0.107873149216,0.01,0.0,0.0,0.0,0.01,0.0,0.0,0.0,0.01
1627577993948196179,23926,1627577993946795464,camera_accel_optical_frame,0.0,0.0,0.0,0.0,-1.0,0.0,0.0,0.0,0.0,0.0,0.0,0.0,0.0,0.0,0.0,0.0,0.01,0.0,0.0,0.0,0.01,0.0,0.0,0.0,0.01,-0.00980664975941,-10.5323419571,-0.490332484245,0.01,0.0,0.0,0.0,0.01,0.0,0.0,0.0,0.01
1627577993964085184,23927,1627577993962628841,camera_accel_optical_frame,0.0,0.0,0.0,0.0,-1.0,0.0,0.0,0.0,0.0,0.0,0.0,0.0,0.0,0.0,0.0,0.0,0.01,0.0,0.0,0.0,0.01,0.0,0.0,0.0,0.01,0.588398993015,-9.40457725525,-0.470719188452,0.01,0.0,0.0,0.0,0.01,0.0,0.0,0.0,0.01
1627577993979753418,23928,1627577993978462696,camera_accel_optical_frame,0.0,0.0,0.0,0.0,-1.0,0.0,0.0,0.0,0.0,0.0,0.0,0.0,0.0,0.0,0.0,0.0,0.01,0.0,0.0,0.0,0.01,0.0,0.0,0.0,0.01,0.804145276546,-10.1694955826,-0.107873149216,0.01,0.0,0.0,0.0,0.01,0.0,0.0,0.0,0.01
1627577993995827212,23929,1627577993994306087,camera_accel_optical_frame,0.0,0.0,0.0,0.0,-1.0,0.0,0.0,0.0,0.0,0.0,0.0,0.0,0.0,0.0,0.0,0.0,0.01,0.0,0.0,0.0,0.01,0.0,0.0,0.0,0.01,0.912018418312,-10.8755741119,0.205939650536,0.01,0.0,0.0,0.0,0.01,0.0,0.0,0.0,0.01
1627577994011811507,23930,1627577994010143042,camera_accel_optical_frame,0.0,0.0,0.0,0.0,-1.0,0.0,0.0,0.0,0.0,0.0,0.0,0.0,0.0,0.0,0.0,0.0,0.01,0.0,0.0,0.0,0.01,0.0,0.0,0.0,0.01,0.666852176189,-10.630408287,0.12748645246,0.01,0.0,0.0,0.0,0.01,0.0,0.0,0.0,0.01
1627577994027786471,23931,1627577994025983095,camera_accel_optical_frame,0.0,0.0,0.0,0.0,-1.0,0.0,0.0,0.0,0.0,0.0,0.0,0.0,0.0,0.0,0.0,0.0,0.01,0.0,0.0,0.0,0.01,0.0,0.0,0.0,0.01,0.588398993015,-10.4342756271,0.666852176189,0.01,0.0,0.0,0.0,0.01,0.0,0.0,0.0,0.01
1627577994043553970,23932,1627577994041818857,camera_accel_optical_frame,0.0,0.0,0.0,0.0,-1.0,0.0,0.0,0.0,0.0,0.0,0.0,0.0,0.0,0.0,0.0,0.0,0.01,0.0,0.0,0.0,0.01,0.0,0.0,0.0,0.01,0.647238910198,-9.34573745728,-0.0882598459721,0.01,0.0,0.0,0.0,0.01,0.0,0.0,0.0,0.01
1627577994059385044,23933,1627577994057657719,camera_accel_optical_frame,0.0,0.0,0.0,0.0,-1.0,0.0,0.0,0.0,0.0,0.0,0.0,0.0,0.0,0.0,0.0,0.0,0.01,0.0,0.0,0.0,0.01,0.0,0.0,0.0,0.01,1.14737796783,-8.80637168884,1.81423020363,0.01,0.0,0.0,0.0,0.01,0.0,0.0,0.0,0.01
1627577994075159953,23934,1627577994073494673,camera_accel_optical_frame,0.0,0.0,0.0,0.0,-1.0,0.0,0.0,0.0,0.0,0.0,0.0,0.0,0.0,0.0,0.0,0.0,0.01,0.0,0.0,0.0,0.01,0.0,0.0,0.0,0.01,0.833565235138,-7.17846775055,-0.323619455099,0.01,0.0,0.0,0.0,0.01,0.0,0.0,0.0,0.01
1627577994091163114,23935,1627577994089333296,camera_accel_optical_frame,0.0,0.0,0.0,0.0,-1.0,0.0,0.0,0.0,0.0,0.0,0.0,0.0,0.0,0.0,0.0,0.0,0.01,0.0,0.0,0.0,0.01,0.0,0.0,0.0,0.01,0.490332484245,-7.42363405228,0.411879301071,0.01,0.0,0.0,0.0,0.01,0.0,0.0,0.0,0.01
1627577994106980816,23936,1627577994105167866,camera_accel_optical_frame,0.0,0.0,0.0,0.0,-1.0,0.0,0.0,0.0,0.0,0.0,0.0,0.0,0.0,0.0,0.0,0.0,0.01,0.0,0.0,0.0,0.01,0.0,0.0,0.0,0.01,0.490332484245,-7.65899324417,0.0,0.01,0.0,0.0,0.0,0.01,0.0,0.0,0.0,0.01
1627577994122886111,23937,1627577994121004581,camera_accel_optical_frame,0.0,0.0,0.0,0.0,-1.0,0.0,0.0,0.0,0.0,0.0,0.0,0.0,0.0,0.0,0.0,0.0,0.01,0.0,0.0,0.0,0.01,0.0,0.0,0.0,0.01,0.264779537916,-8.32584571838,0.0,0.01,0.0,0.0,0.0,0.01,0.0,0.0,0.0,0.01
1627577994138849383,23938,1627577994136841297,camera_accel_optical_frame,0.0,0.0,0.0,0.0,-1.0,0.0,0.0,0.0,0.0,0.0,0.0,0.0,0.0,0.0,0.0,0.0,0.01,0.0,0.0,0.0,0.01,0.0,0.0,0.0,0.01,0.470719188452,-9.68896961212,0.608012259007,0.01,0.0,0.0,0.0,0.01,0.0,0.0,0.0,0.01
1627577994154346335,23939,1627577994152677059,camera_accel_optical_frame,0.0,0.0,0.0,0.0,-1.0,0.0,0.0,0.0,0.0,0.0,0.0,0.0,0.0,0.0,0.0,0.0,0.01,0.0,0.0,0.0,0.01,0.0,0.0,0.0,0.01,0.892405152321,-10.2969818115,0.833565235138,0.01,0.0,0.0,0.0,0.01,0.0,0.0,0.0,0.01
1627577994170246056,23940,1627577994168509483,camera_accel_optical_frame,0.0,0.0,0.0,0.0,-1.0,0.0,0.0,0.0,0.0,0.0,0.0,0.0,0.0,0.0,0.0,0.0,0.01,0.0,0.0,0.0,0.01,0.0,0.0,0.0,0.01,0.725692093372,-10.757894516,1.02969825268,0.01,0.0,0.0,0.0,0.01,0.0,0.0,0.0,0.01
1627577994185767210,23941,1627577994184344053,camera_accel_optical_frame,0.0,0.0,0.0,0.0,-1.0,0.0,0.0,0.0,0.0,0.0,0.0,0.0,0.0,0.0,0.0,0.0,0.01,0.0,0.0,0.0,0.01,0.0,0.0,0.0,0.01,0.588398993015,-11.522813797,0.804145276546,0.01,0.0,0.0,0.0,0.01,0.0,0.0,0.0,0.01
1627577994201461256,23942,1627577994200177431,camera_accel_optical_frame,0.0,0.0,0.0,0.0,-1.0,0.0,0.0,0.0,0.0,0.0,0.0,0.0,0.0,0.0,0.0,0.0,0.01,0.0,0.0,0.0,0.01,0.0,0.0,0.0,0.01,-0.264779537916,-12.9840040207,-0.0882598459721,0.01,0.0,0.0,0.0,0.01,0.0,0.0,0.0,0.01
1627577994217565958,23943,1627577994216013908,camera_accel_optical_frame,0.0,0.0,0.0,0.0,-1.0,0.0,0.0,0.0,0.0,0.0,0.0,0.0,0.0,0.0,0.0,0.0,0.01,0.0,0.0,0.0,0.01,0.0,0.0,0.0,0.01,-0.147099748254,-12.9643907547,0.343232750893,0.01,0.0,0.0,0.0,0.01,0.0,0.0,0.0,0.01
1627577994233306973,23944,1627577994231849432,camera_accel_optical_frame,0.0,0.0,0.0,0.0,-1.0,0.0,0.0,0.0,0.0,0.0,0.0,0.0,0.0,0.0,0.0,0.0,0.01,0.0,0.0,0.0,0.01,0.0,0.0,0.0,0.01,0.00980664975941,-12.1210193634,0.931631743908,0.01,0.0,0.0,0.0,0.01,0.0,0.0,0.0,0.01
1627577994249324448,23945,1627577994247682810,camera_accel_optical_frame,0.0,0.0,0.0,0.0,-1.0,0.0,0.0,0.0,0.0,0.0,0.0,0.0,0.0,0.0,0.0,0.0,0.01,0.0,0.0,0.0,0.01,0.0,0.0,0.0,0.01,-0.0882598459721,-11.3561000824,0.147099748254,0.01,0.0,0.0,0.0,0.01,0.0,0.0,0.0,0.01
1627577994265272707,23946,1627577994263518095,camera_accel_optical_frame,0.0,0.0,0.0,0.0,-1.0,0.0,0.0,0.0,0.0,0.0,0.0,0.0,0.0,0.0,0.0,0.0,0.01,0.0,0.0,0.0,0.01,0.0,0.0,0.0,0.01,-0.186326339841,-11.8660459518,1.02969825268,0.01,0.0,0.0,0.0,0.01,0.0,0.0,0.0,0.01
1627577994280801050,23947,1627577994279355288,camera_accel_optical_frame,0.0,0.0,0.0,0.0,-1.0,0.0,0.0,0.0,0.0,0.0,0.0,0.0,0.0,0.0,0.0,0.0,0.01,0.0,0.0,0.0,0.01,0.0,0.0,0.0,0.01,0.0490332469344,-9.16921710968,0.588398993015,0.01,0.0,0.0,0.0,0.01,0.0,0.0,0.0,0.01
1627577994296833068,23948,1627577994295193672,camera_accel_optical_frame,0.0,0.0,0.0,0.0,-1.0,0.0,0.0,0.0,0.0,0.0,0.0,0.0,0.0,0.0,0.0,0.0,0.01,0.0,0.0,0.0,0.01,0.0,0.0,0.0,0.01,0.225552946329,-7.2961473465,0.107873149216,0.01,0.0,0.0,0.0,0.01,0.0,0.0,0.0,0.01
1627577994312695522,23949,1627577994311029673,camera_accel_optical_frame,0.0,0.0,0.0,0.0,-1.0,0.0,0.0,0.0,0.0,0.0,0.0,0.0,0.0,0.0,0.0,0.0,0.01,0.0,0.0,0.0,0.01,0.0,0.0,0.0,0.01,0.0882598459721,-8.54159164429,0.225552946329,0.01,0.0,0.0,0.0,0.01,0.0,0.0,0.0,0.01
1627577994328538246,23950,1627577994326866865,camera_accel_optical_frame,0.0,0.0,0.0,0.0,-1.0,0.0,0.0,0.0,0.0,0.0,0.0,0.0,0.0,0.0,0.0,0.0,0.01,0.0,0.0,0.0,0.01,0.0,0.0,0.0,0.01,0.588398993015,-8.10029315948,0.608012259007,0.01,0.0,0.0,0.0,0.01,0.0,0.0,0.0,0.01
1627577994344662612,23951,1627577994342703104,camera_accel_optical_frame,0.0,0.0,0.0,0.0,-1.0,0.0,0.0,0.0,0.0,0.0,0.0,0.0,0.0,0.0,0.0,0.0,0.01,0.0,0.0,0.0,0.01,0.0,0.0,0.0,0.01,0.431492596865,-7.36479377747,0.549172401428,0.01,0.0,0.0,0.0,0.01,0.0,0.0,0.0,0.01
1627577994360346665,23952,1627577994358539104,camera_accel_optical_frame,0.0,0.0,0.0,0.0,-1.0,0.0,0.0,0.0,0.0,0.0,0.0,0.0,0.0,0.0,0.0,0.0,0.01,0.0,0.0,0.0,0.01,0.0,0.0,0.0,0.01,0.745305359364,-6.69794178009,0.38245934248,0.01,0.0,0.0,0.0,0.01,0.0,0.0,0.0,0.01
1627577994376169287,23953,1627577994374373913,camera_accel_optical_frame,0.0,0.0,0.0,0.0,-1.0,0.0,0.0,0.0,0.0,0.0,0.0,0.0,0.0,0.0,0.0,0.0,0.01,0.0,0.0,0.0,0.01,0.0,0.0,0.0,0.01,0.833565235138,-7.31576061249,1.41215753555,0.01,0.0,0.0,0.0,0.01,0.0,0.0,0.0,0.01
1627577994392041903,23954,1627577994390209913,camera_accel_optical_frame,0.0,0.0,0.0,0.0,-1.0,0.0,0.0,0.0,0.0,0.0,0.0,0.0,0.0,0.0,0.0,0.0,0.01,0.0,0.0,0.0,0.01,0.0,0.0,0.0,0.01,0.490332484245,-6.54103517532,0.0490332469344,0.01,0.0,0.0,0.0,0.01,0.0,0.0,0.0,0.01
1627577994407817918,23955,1627577994406049967,camera_accel_optical_frame,0.0,0.0,0.0,0.0,-1.0,0.0,0.0,0.0,0.0,0.0,0.0,0.0,0.0,0.0,0.0,0.0,0.01,0.0,0.0,0.0,0.01,0.0,0.0,0.0,0.01,0.608012259007,-8.56120491028,0.451105892658,0.01,0.0,0.0,0.0,0.01,0.0,0.0,0.0,0.01
1627577994423844350,23956,1627577994421886921,camera_accel_optical_frame,0.0,0.0,0.0,0.0,-1.0,0.0,0.0,0.0,0.0,0.0,0.0,0.0,0.0,0.0,0.0,0.0,0.01,0.0,0.0,0.0,0.01,0.0,0.0,0.0,0.01,1.01008486748,-11.1991939545,1.16699135303,0.01,0.0,0.0,0.0,0.01,0.0,0.0,0.0,0.01
1627577994439800218,23957,1627577994437723875,camera_accel_optical_frame,0.0,0.0,0.0,0.0,-1.0,0.0,0.0,0.0,0.0,0.0,0.0,0.0,0.0,0.0,0.0,0.0,0.01,0.0,0.0,0.0,0.01,0.0,0.0,0.0,0.01,0.804145276546,-11.2580337524,0.588398993015,0.01,0.0,0.0,0.0,0.01,0.0,0.0,0.0,0.01
1627577994456008719,23958,1627577994453559637,camera_accel_optical_frame,0.0,0.0,0.0,0.0,-1.0,0.0,0.0,0.0,0.0,0.0,0.0,0.0,0.0,0.0,0.0,0.0,0.01,0.0,0.0,0.0,0.01,0.0,0.0,0.0,0.01,0.205939650536,-10.699054718,-0.804145276546,0.01,0.0,0.0,0.0,0.01,0.0,0.0,0.0,0.01
1627577994471233044,23959,1627577994469395161,camera_accel_optical_frame,0.0,0.0,0.0,0.0,-1.0,0.0,0.0,0.0,0.0,0.0,0.0,0.0,0.0,0.0,0.0,0.0,0.01,0.0,0.0,0.0,0.01,0.0,0.0,0.0,0.01,-0.107873149216,-10.4538888931,-0.892405152321,0.01,0.0,0.0,0.0,0.01,0.0,0.0,0.0,0.01
1627577994486858364,23960,1627577994485232115,camera_accel_optical_frame,0.0,0.0,0.0,0.0,-1.0,0.0,0.0,0.0,0.0,0.0,0.0,0.0,0.0,0.0,0.0,0.0,0.01,0.0,0.0,0.0,0.01,0.0,0.0,0.0,0.01,0.147099748254,-10.8951883316,-0.451105892658,0.01,0.0,0.0,0.0,0.01,0.0,0.0,0.0,0.01
1627577994502845789,23961,1627577994501070738,camera_accel_optical_frame,0.0,0.0,0.0,0.0,-1.0,0.0,0.0,0.0,0.0,0.0,0.0,0.0,0.0,0.0,0.0,0.0,0.01,0.0,0.0,0.0,0.01,0.0,0.0,0.0,0.01,0.411879301071,-11.6993331909,0.745305359364,0.01,0.0,0.0,0.0,0.01,0.0,0.0,0.0,0.01
1627577994518555254,23962,1627577994516906500,camera_accel_optical_frame,0.0,0.0,0.0,0.0,-1.0,0.0,0.0,0.0,0.0,0.0,0.0,0.0,0.0,0.0,0.0,0.0,0.01,0.0,0.0,0.0,0.01,0.0,0.0,0.0,0.01,0.411879301071,-12.1014060974,0.725692093372,0.01,0.0,0.0,0.0,0.01,0.0,0.0,0.0,0.01
1627577994534494896,23963,1627577994532739878,camera_accel_optical_frame,0.0,0.0,0.0,0.0,-1.0,0.0,0.0,0.0,0.0,0.0,0.0,0.0,0.0,0.0,0.0,0.0,0.01,0.0,0.0,0.0,0.01,0.0,0.0,0.0,0.01,0.451105892658,-12.6799983978,-0.28439283371,0.01,0.0,0.0,0.0,0.01,0.0,0.0,0.0,0.01
1627577994550307742,23964,1627577994548577547,camera_accel_optical_frame,0.0,0.0,0.0,0.0,-1.0,0.0,0.0,0.0,0.0,0.0,0.0,0.0,0.0,0.0,0.0,0.0,0.01,0.0,0.0,0.0,0.01,0.0,0.0,0.0,0.01,0.931631743908,-13.4253034592,2.55953550339,0.01,0.0,0.0,0.0,0.01,0.0,0.0,0.0,0.01
1627577994566006219,23965,1627577994564412117,camera_accel_optical_frame,0.0,0.0,0.0,0.0,-1.0,0.0,0.0,0.0,0.0,0.0,0.0,0.0,0.0,0.0,0.0,0.0,0.01,0.0,0.0,0.0,0.01,0.0,0.0,0.0,0.01,0.608012259007,-9.47322368622,-0.411879301071,0.01,0.0,0.0,0.0,0.01,0.0,0.0,0.0,0.01
1627577994581978924,23966,1627577994580247641,camera_accel_optical_frame,0.0,0.0,0.0,0.0,-1.0,0.0,0.0,0.0,0.0,0.0,0.0,0.0,0.0,0.0,0.0,0.0,0.01,0.0,0.0,0.0,0.01,0.0,0.0,0.0,0.01,-0.0294199492782,-11.7385597229,0.205939650536,0.01,0.0,0.0,0.0,0.01,0.0,0.0,0.0,0.01
1627577994597777333,23967,1627577994596084118,camera_accel_optical_frame,0.0,0.0,0.0,0.0,-1.0,0.0,0.0,0.0,0.0,0.0,0.0,0.0,0.0,0.0,0.0,0.0,0.01,0.0,0.0,0.0,0.01,0.0,0.0,0.0,0.01,0.833565235138,-11.8562393188,0.833565235138,0.01,0.0,0.0,0.0,0.01,0.0,0.0,0.0,0.01
1627577994613576721,23968,1627577994611917496,camera_accel_optical_frame,0.0,0.0,0.0,0.0,-1.0,0.0,0.0,0.0,0.0,0.0,0.0,0.0,0.0,0.0,0.0,0.0,0.01,0.0,0.0,0.0,0.01,0.0,0.0,0.0,0.01,0.411879301071,-10.2283353806,0.686465501785,0.01,0.0,0.0,0.0,0.01,0.0,0.0,0.0,0.01
1627577994629727800,23969,1627577994627750874,camera_accel_optical_frame,0.0,0.0,0.0,0.0,-1.0,0.0,0.0,0.0,0.0,0.0,0.0,0.0,0.0,0.0,0.0,0.0,0.01,0.0,0.0,0.0,0.01,0.0,0.0,0.0,0.01,0.411879301071,-7.678606987,-0.490332484245,0.01,0.0,0.0,0.0,0.01,0.0,0.0,0.0,0.01
1627577994645488817,23970,1627577994643584251,camera_accel_optical_frame,0.0,0.0,0.0,0.0,-1.0,0.0,0.0,0.0,0.0,0.0,0.0,0.0,0.0,0.0,0.0,0.0,0.01,0.0,0.0,0.0,0.01,0.0,0.0,0.0,0.01,-0.568785667419,-9.16921710968,-0.892405152321,0.01,0.0,0.0,0.0,0.01,0.0,0.0,0.0,0.01
1627577994661386015,23971,1627577994659420490,camera_accel_optical_frame,0.0,0.0,0.0,0.0,-1.0,0.0,0.0,0.0,0.0,0.0,0.0,0.0,0.0,0.0,0.0,0.0,0.01,0.0,0.0,0.0,0.01,0.0,0.0,0.0,0.01,0.264779537916,-7.50208711624,0.225552946329,0.01,0.0,0.0,0.0,0.01,0.0,0.0,0.0,0.01
1627577994677321439,23972,1627577994675254583,camera_accel_optical_frame,0.0,0.0,0.0,0.0,-1.0,0.0,0.0,0.0,0.0,0.0,0.0,0.0,0.0,0.0,0.0,0.0,0.01,0.0,0.0,0.0,0.01,0.0,0.0,0.0,0.01,0.509945809841,-6.6783285141,-0.00980664975941,0.01,0.0,0.0,0.0,0.01,0.0,0.0,0.0,0.01
1627577994693011021,23973,1627577994691088915,camera_accel_optical_frame,0.0,0.0,0.0,0.0,-1.0,0.0,0.0,0.0,0.0,0.0,0.0,0.0,0.0,0.0,0.0,0.0,0.01,0.0,0.0,0.0,0.01,0.0,0.0,0.0,0.01,0.343232750893,-7.94338607788,1.47099745274,0.01,0.0,0.0,0.0,0.01,0.0,0.0,0.0,0.01
1627577994709351974,23974,1627577994706923008,camera_accel_optical_frame,0.0,0.0,0.0,0.0,-1.0,0.0,0.0,0.0,0.0,0.0,0.0,0.0,0.0,0.0,0.0,0.0,0.01,0.0,0.0,0.0,0.01,0.0,0.0,0.0,0.01,0.647238910198,-7.11962795258,-0.411879301071,0.01,0.0,0.0,0.0,0.01,0.0,0.0,0.0,0.01
1627577994724888912,23975,1627577994722760201,camera_accel_optical_frame,0.0,0.0,0.0,0.0,-1.0,0.0,0.0,0.0,0.0,0.0,0.0,0.0,0.0,0.0,0.0,0.0,0.01,0.0,0.0,0.0,0.01,0.0,0.0,0.0,0.01,0.813951909542,-10.0714292526,2.17707633972,0.01,0.0,0.0,0.0,0.01,0.0,0.0,0.0,0.01
1627577994740833164,23976,1627577994738596439,camera_accel_optical_frame,0.0,0.0,0.0,0.0,-1.0,0.0,0.0,0.0,0.0,0.0,0.0,0.0,0.0,0.0,0.0,0.0,0.01,0.0,0.0,0.0,0.01,0.0,0.0,0.0,0.01,1.2552511692,-9.24767112732,0.568785667419,0.01,0.0,0.0,0.0,0.01,0.0,0.0,0.0,0.01
1627577994756560979,23977,1627577994754430532,camera_accel_optical_frame,0.0,0.0,0.0,0.0,-1.0,0.0,0.0,0.0,0.0,0.0,0.0,0.0,0.0,0.0,0.0,0.0,0.01,0.0,0.0,0.0,0.01,0.0,0.0,0.0,0.01,0.970858335495,-10.3950490952,1.95152330399,0.01,0.0,0.0,0.0,0.01,0.0,0.0,0.0,0.01
1627577994772513923,23978,1627577994770264387,camera_accel_optical_frame,0.0,0.0,0.0,0.0,-1.0,0.0,0.0,0.0,0.0,0.0,0.0,0.0,0.0,0.0,0.0,0.0,0.01,0.0,0.0,0.0,0.01,0.0,0.0,0.0,0.01,0.451105892658,-10.630408287,0.0686465501785,0.01,0.0,0.0,0.0,0.01,0.0,0.0,0.0,0.01
1627577994788457086,23979,1627577994786098480,camera_accel_optical_frame,0.0,0.0,0.0,0.0,-1.0,0.0,0.0,0.0,0.0,0.0,0.0,0.0,0.0,0.0,0.0,0.0,0.01,0.0,0.0,0.0,0.01,0.0,0.0,0.0,0.01,0.0490332469344,-9.81645679474,0.0686465501785,0.01,0.0,0.0,0.0,0.01,0.0,0.0,0.0,0.01
1627577994803725739,23980,1627577994801933289,camera_accel_optical_frame,0.0,0.0,0.0,0.0,-1.0,0.0,0.0,0.0,0.0,0.0,0.0,0.0,0.0,0.0,0.0,0.0,0.01,0.0,0.0,0.0,0.01,0.0,0.0,0.0,0.01,0.323619455099,-9.49283695221,0.12748645246,0.01,0.0,0.0,0.0,0.01,0.0,0.0,0.0,0.01
1627577994819688207,23981,1627577994817768097,camera_accel_optical_frame,0.0,0.0,0.0,0.0,-1.0,0.0,0.0,0.0,0.0,0.0,0.0,0.0,0.0,0.0,0.0,0.0,0.01,0.0,0.0,0.0,0.01,0.0,0.0,0.0,0.01,0.402072638273,-10.5323419571,0.588398993015,0.01,0.0,0.0,0.0,0.01,0.0,0.0,0.0,0.01
1627577994835520508,23982,1627577994833601952,camera_accel_optical_frame,0.0,0.0,0.0,0.0,-1.0,0.0,0.0,0.0,0.0,0.0,0.0,0.0,0.0,0.0,0.0,0.0,0.01,0.0,0.0,0.0,0.01,0.0,0.0,0.0,0.01,0.245166242123,-9.63012981415,-0.343232750893,0.01,0.0,0.0,0.0,0.01,0.0,0.0,0.0,0.01
1627577994851257333,23983,1627577994849435806,camera_accel_optical_frame,0.0,0.0,0.0,0.0,-1.0,0.0,0.0,0.0,0.0,0.0,0.0,0.0,0.0,0.0,0.0,0.0,0.01,0.0,0.0,0.0,0.01,0.0,0.0,0.0,0.01,0.0490332469344,-10.5323419571,0.490332484245,0.01,0.0,0.0,0.0,0.01,0.0,0.0,0.0,0.01
1627577994867232117,23984,1627577994865268469,camera_accel_optical_frame,0.0,0.0,0.0,0.0,-1.0,0.0,0.0,0.0,0.0,0.0,0.0,0.0,0.0,0.0,0.0,0.0,0.01,0.0,0.0,0.0,0.01,0.0,0.0,0.0,0.01,0.166713044047,-11.1207408905,0.225552946329,0.01,0.0,0.0,0.0,0.01,0.0,0.0,0.0,0.01
1627577994883041440,23985,1627577994881101131,camera_accel_optical_frame,0.0,0.0,0.0,0.0,-1.0,0.0,0.0,0.0,0.0,0.0,0.0,0.0,0.0,0.0,0.0,0.0,0.01,0.0,0.0,0.0,0.01,0.0,0.0,0.0,0.01,0.166713044047,-10.9736413956,0.0294199492782,0.01,0.0,0.0,0.0,0.01,0.0,0.0,0.0,0.01
1627577994898862243,23986,1627577994896935701,camera_accel_optical_frame,0.0,0.0,0.0,0.0,-1.0,0.0,0.0,0.0,0.0,0.0,0.0,0.0,0.0,0.0,0.0,0.0,0.01,0.0,0.0,0.0,0.01,0.0,0.0,0.0,0.01,0.764918684959,-11.4345531464,1.69655036926,0.01,0.0,0.0,0.0,0.01,0.0,0.0,0.0,0.01
1627577994914988728,23987,1627577994912770510,camera_accel_optical_frame,0.0,0.0,0.0,0.0,-1.0,0.0,0.0,0.0,0.0,0.0,0.0,0.0,0.0,0.0,0.0,0.0,0.01,0.0,0.0,0.0,0.01,0.0,0.0,0.0,0.01,0.725692093372,-10.699054718,0.784531950951,0.01,0.0,0.0,0.0,0.01,0.0,0.0,0.0,0.01
1627577994930709658,23988,1627577994928607225,camera_accel_optical_frame,0.0,0.0,0.0,0.0,-1.0,0.0,0.0,0.0,0.0,0.0,0.0,0.0,0.0,0.0,0.0,0.0,0.01,0.0,0.0,0.0,0.01,0.0,0.0,0.0,0.01,0.833565235138,-10.64021492,1.41215753555,0.01,0.0,0.0,0.0,0.01,0.0,0.0,0.0,0.01
1627577994946456599,23989,1627577994944441557,camera_accel_optical_frame,0.0,0.0,0.0,0.0,-1.0,0.0,0.0,0.0,0.0,0.0,0.0,0.0,0.0,0.0,0.0,0.0,0.01,0.0,0.0,0.0,0.01,0.0,0.0,0.0,0.01,0.549172401428,-9.49283695221,0.833565235138,0.01,0.0,0.0,0.0,0.01,0.0,0.0,0.0,0.01
1627577994962635800,23990,1627577994960276127,camera_accel_optical_frame,0.0,0.0,0.0,0.0,-1.0,0.0,0.0,0.0,0.0,0.0,0.0,0.0,0.0,0.0,0.0,0.0,0.01,0.0,0.0,0.0,0.01,0.0,0.0,0.0,0.01,0.686465501785,-7.6001534462,0.627625584602,0.01,0.0,0.0,0.0,0.01,0.0,0.0,0.0,0.01
1627577994978202401,23991,1627577994976110697,camera_accel_optical_frame,0.0,0.0,0.0,0.0,-1.0,0.0,0.0,0.0,0.0,0.0,0.0,0.0,0.0,0.0,0.0,0.0,0.01,0.0,0.0,0.0,0.01,0.0,0.0,0.0,0.01,0.892405152321,-7.08040094376,1.87307012081,0.01,0.0,0.0,0.0,0.01,0.0,0.0,0.0,0.01
1627577994994443957,23992,1627577994991944075,camera_accel_optical_frame,0.0,0.0,0.0,0.0,-1.0,0.0,0.0,0.0,0.0,0.0,0.0,0.0,0.0,0.0,0.0,0.0,0.01,0.0,0.0,0.0,0.01,0.0,0.0,0.0,0.01,0.833565235138,-7.61976671219,1.08853816986,0.01,0.0,0.0,0.0,0.01,0.0,0.0,0.0,0.01
1627577995010001526,23993,1627577995007779121,camera_accel_optical_frame,0.0,0.0,0.0,0.0,-1.0,0.0,0.0,0.0,0.0,0.0,0.0,0.0,0.0,0.0,0.0,0.0,0.01,0.0,0.0,0.0,0.01,0.0,0.0,0.0,0.01,0.107873149216,-8.15913295746,0.0294199492782,0.01,0.0,0.0,0.0,0.01,0.0,0.0,0.0,0.01
