%time,field.header.seq,field.header.stamp,field.header.frame_id,field.orientation.x,field.orientation.y,field.orientation.z,field.orientation.w,field.orientation_covariance0,field.orientation_covariance1,field.orientation_covariance2,field.orientation_covariance3,field.orientation_covariance4,field.orientation_covariance5,field.orientation_covariance6,field.orientation_covariance7,field.orientation_covariance8,field.angular_velocity.x,field.angular_velocity.y,field.angular_velocity.z,field.angular_velocity_covariance0,field.angular_velocity_covariance1,field.angular_velocity_covariance2,field.angular_velocity_covariance3,field.angular_velocity_covariance4,field.angular_velocity_covariance5,field.angular_velocity_covariance6,field.angular_velocity_covariance7,field.angular_velocity_covariance8,field.linear_acceleration.x,field.linear_acceleration.y,field.linear_acceleration.z,field.linear_acceleration_covariance0,field.linear_acceleration_covariance1,field.linear_acceleration_covariance2,field.linear_acceleration_covariance3,field.linear_acceleration_covariance4,field.linear_acceleration_covariance5,field.linear_acceleration_covariance6,field.linear_acceleration_covariance7,field.linear_acceleration_covariance8
1627577751452838585,8625,1627577751467347860,camera_accel_optical_frame,0.0,0.0,0.0,0.0,-1.0,0.0,0.0,0.0,0.0,0.0,0.0,0.0,0.0,0.0,0.0,0.0,0.01,0.0,0.0,0.0,0.01,0.0,0.0,0.0,0.01,0.608012259007,-10.3950490952,-0.107873149216,0.01,0.0,0.0,0.0,0.01,0.0,0.0,0.0,0.01
1627577751468629180,8626,1627577751483397007,camera_accel_optical_frame,0.0,0.0,0.0,0.0,-1.0,0.0,0.0,0.0,0.0,0.0,0.0,0.0,0.0,0.0,0.0,0.0,0.01,0.0,0.0,0.0,0.01,0.0,0.0,0.0,0.01,0.931631743908,-12.5819320679,2.37320923805,0.01,0.0,0.0,0.0,0.01,0.0,0.0,0.0,0.01
1627577751484483281,8627,1627577751499442339,camera_accel_optical_frame,0.0,0.0,0.0,0.0,-1.0,0.0,0.0,0.0,0.0,0.0,0.0,0.0,0.0,0.0,0.0,0.0,0.01,0.0,0.0,0.0,0.01,0.0,0.0,0.0,0.01,0.509945809841,-12.6211585999,0.264779537916,0.01,0.0,0.0,0.0,0.01,0.0,0.0,0.0,0.01
1627577751500498294,8628,1627577751515492439,camera_accel_optical_frame,0.0,0.0,0.0,0.0,-1.0,0.0,0.0,0.0,0.0,0.0,0.0,0.0,0.0,0.0,0.0,0.0,0.01,0.0,0.0,0.0,0.01,0.0,0.0,0.0,0.01,1.47099745274,-11.3757133484,3.23619437218,0.01,0.0,0.0,0.0,0.01,0.0,0.0,0.0,0.01
1627577751516302539,8629,1627577751531540155,camera_accel_optical_frame,0.0,0.0,0.0,0.0,-1.0,0.0,0.0,0.0,0.0,0.0,0.0,0.0,0.0,0.0,0.0,0.0,0.01,0.0,0.0,0.0,0.01,0.0,0.0,0.0,0.01,1.14737796783,-7.84531974792,-0.951245009899,0.01,0.0,0.0,0.0,0.01,0.0,0.0,0.0,0.01
1627577751532467179,8630,1627577751547590971,camera_accel_optical_frame,0.0,0.0,0.0,0.0,-1.0,0.0,0.0,0.0,0.0,0.0,0.0,0.0,0.0,0.0,0.0,0.0,0.01,0.0,0.0,0.0,0.01,0.0,0.0,0.0,0.01,1.20621788502,-9.81645679474,3.57942724228,0.01,0.0,0.0,0.0,0.01,0.0,0.0,0.0,0.01
1627577751548162252,8631,1627577751563637495,camera_accel_optical_frame,0.0,0.0,0.0,0.0,-1.0,0.0,0.0,0.0,0.0,0.0,0.0,0.0,0.0,0.0,0.0,0.0,0.01,0.0,0.0,0.0,0.01,0.0,0.0,0.0,0.01,1.47099745274,-5.12887763977,-0.872791826725,0.01,0.0,0.0,0.0,0.01,0.0,0.0,0.0,0.01
1627577751563908873,8632,1627577751579688549,camera_accel_optical_frame,0.0,0.0,0.0,0.0,-1.0,0.0,0.0,0.0,0.0,0.0,0.0,0.0,0.0,0.0,0.0,0.0,0.01,0.0,0.0,0.0,0.01,0.0,0.0,0.0,0.01,1.01008486748,-6.61948871613,1.71616375446,0.01,0.0,0.0,0.0,0.01,0.0,0.0,0.0,0.01
1627577751580168756,8633,1627577751595736027,camera_accel_optical_frame,0.0,0.0,0.0,0.0,-1.0,0.0,0.0,0.0,0.0,0.0,0.0,0.0,0.0,0.0,0.0,0.0,0.01,0.0,0.0,0.0,0.01,0.0,0.0,0.0,0.01,0.872791826725,-5.22694444656,-1.2748644352,0.01,0.0,0.0,0.0,0.01,0.0,0.0,0.0,0.01
1627577751595579194,8634,1627577751611791372,camera_accel_optical_frame,0.0,0.0,0.0,0.0,-1.0,0.0,0.0,0.0,0.0,0.0,0.0,0.0,0.0,0.0,0.0,0.0,0.01,0.0,0.0,0.0,0.01,0.0,0.0,0.0,0.01,0.784531950951,-5.9722495079,1.5690639019,0.01,0.0,0.0,0.0,0.01,0.0,0.0,0.0,0.01
1627577751611680313,8635,1627577751627842665,camera_accel_optical_frame,0.0,0.0,0.0,0.0,-1.0,0.0,0.0,0.0,0.0,0.0,0.0,0.0,0.0,0.0,0.0,0.0,0.01,0.0,0.0,0.0,0.01,0.0,0.0,0.0,0.01,0.990471601486,-3.92265987396,-1.51022410393,0.01,0.0,0.0,0.0,0.01,0.0,0.0,0.0,0.01
1627577751627879707,8636,1627577751643897057,camera_accel_optical_frame,0.0,0.0,0.0,0.0,-1.0,0.0,0.0,0.0,0.0,0.0,0.0,0.0,0.0,0.0,0.0,0.0,0.01,0.0,0.0,0.0,0.01,0.0,0.0,0.0,0.01,0.431492596865,-8.36507225037,0.402072638273,0.01,0.0,0.0,0.0,0.01,0.0,0.0,0.0,0.01
1627577751643588079,8637,1627577751659948587,camera_accel_optical_frame,0.0,0.0,0.0,0.0,-1.0,0.0,0.0,0.0,0.0,0.0,0.0,0.0,0.0,0.0,0.0,0.0,0.01,0.0,0.0,0.0,0.01,0.0,0.0,0.0,0.01,0.647238910198,-8.2866191864,-0.186326339841,0.01,0.0,0.0,0.0,0.01,0.0,0.0,0.0,0.01
1627577751659391952,8638,1627577751676003695,camera_accel_optical_frame,0.0,0.0,0.0,0.0,-1.0,0.0,0.0,0.0,0.0,0.0,0.0,0.0,0.0,0.0,0.0,0.0,0.01,0.0,0.0,0.0,0.01,0.0,0.0,0.0,0.01,0.833565235138,-7.88454627991,-0.833565235138,0.01,0.0,0.0,0.0,0.01,0.0,0.0,0.0,0.01
1627577751674659220,8639,1627577751692060232,camera_accel_optical_frame,0.0,0.0,0.0,0.0,-1.0,0.0,0.0,0.0,0.0,0.0,0.0,0.0,0.0,0.0,0.0,0.0,0.01,0.0,0.0,0.0,0.01,0.0,0.0,0.0,0.01,0.608012259007,-10.3362092972,0.666852176189,0.01,0.0,0.0,0.0,0.01,0.0,0.0,0.0,0.01
1627577751690934105,8640,1627577751707881927,camera_accel_optical_frame,0.0,0.0,0.0,0.0,-1.0,0.0,0.0,0.0,0.0,0.0,0.0,0.0,0.0,0.0,0.0,0.0,0.01,0.0,0.0,0.0,0.01,0.0,0.0,0.0,0.01,0.362846046686,-10.1302690506,-2.01036310196,0.01,0.0,0.0,0.0,0.01,0.0,0.0,0.0,0.01
1627577751706605174,8641,1627577751723704815,camera_accel_optical_frame,0.0,0.0,0.0,0.0,-1.0,0.0,0.0,0.0,0.0,0.0,0.0,0.0,0.0,0.0,0.0,0.0,0.01,0.0,0.0,0.0,0.01,0.0,0.0,0.0,0.01,-0.12748645246,-13.9058294296,-0.343232750893,0.01,0.0,0.0,0.0,0.01,0.0,0.0,0.0,0.01
1627577751722871238,8642,1627577751739526033,camera_accel_optical_frame,0.0,0.0,0.0,0.0,-1.0,0.0,0.0,0.0,0.0,0.0,0.0,0.0,0.0,0.0,0.0,0.0,0.01,0.0,0.0,0.0,0.01,0.0,0.0,0.0,0.01,1.16699135303,-13.6508560181,-0.686465501785,0.01,0.0,0.0,0.0,0.01,0.0,0.0,0.0,0.01
1627577751738174820,8643,1627577751755349159,camera_accel_optical_frame,0.0,0.0,0.0,0.0,-1.0,0.0,0.0,0.0,0.0,0.0,0.0,0.0,0.0,0.0,0.0,0.0,0.01,0.0,0.0,0.0,0.01,0.0,0.0,0.0,0.01,1.14737796783,-15.7788991928,1.33370435238,0.01,0.0,0.0,0.0,0.01,0.0,0.0,0.0,0.01
1627577751753900692,8644,1627577751771168947,camera_accel_optical_frame,0.0,0.0,0.0,0.0,-1.0,0.0,0.0,0.0,0.0,0.0,0.0,0.0,0.0,0.0,0.0,0.0,0.01,0.0,0.0,0.0,0.01,0.0,0.0,0.0,0.01,0.588398993015,-15.6219930649,-1.06892478466,0.01,0.0,0.0,0.0,0.01,0.0,0.0,0.0,0.01
1627577751769917860,8645,1627577751786992788,camera_accel_optical_frame,0.0,0.0,0.0,0.0,-1.0,0.0,0.0,0.0,0.0,0.0,0.0,0.0,0.0,0.0,0.0,0.0,0.01,0.0,0.0,0.0,0.01,0.0,0.0,0.0,0.01,0.627625584602,-17.4068031311,0.0686465501785,0.01,0.0,0.0,0.0,0.01,0.0,0.0,0.0,0.01
1627577751785683239,8646,1627577751802815437,camera_accel_optical_frame,0.0,0.0,0.0,0.0,-1.0,0.0,0.0,0.0,0.0,0.0,0.0,0.0,0.0,0.0,0.0,0.0,0.01,0.0,0.0,0.0,0.01,0.0,0.0,0.0,0.01,0.627625584602,-16.4457511902,0.892405152321,0.01,0.0,0.0,0.0,0.01,0.0,0.0,0.0,0.01
1627577751801801796,8647,1627577751818634748,camera_accel_optical_frame,0.0,0.0,0.0,0.0,-1.0,0.0,0.0,0.0,0.0,0.0,0.0,0.0,0.0,0.0,0.0,0.0,0.01,0.0,0.0,0.0,0.01,0.0,0.0,0.0,0.01,1.2944778204,-11.1795806885,-0.205939650536,0.01,0.0,0.0,0.0,0.01,0.0,0.0,0.0,0.01
1627577751817635865,8648,1627577751834457159,camera_accel_optical_frame,0.0,0.0,0.0,0.0,-1.0,0.0,0.0,0.0,0.0,0.0,0.0,0.0,0.0,0.0,0.0,0.0,0.01,0.0,0.0,0.0,0.01,0.0,0.0,0.0,0.01,0.745305359364,-8.6690788269,-0.38245934248,0.01,0.0,0.0,0.0,0.01,0.0,0.0,0.0,0.01
1627577751833192890,8649,1627577751850278616,camera_accel_optical_frame,0.0,0.0,0.0,0.0,-1.0,0.0,0.0,0.0,0.0,0.0,0.0,0.0,0.0,0.0,0.0,0.0,0.01,0.0,0.0,0.0,0.01,0.0,0.0,0.0,0.01,0.431492596865,-8.17874622345,-0.588398993015,0.01,0.0,0.0,0.0,0.01,0.0,0.0,0.0,0.01
1627577751849275548,8650,1627577751866100788,camera_accel_optical_frame,0.0,0.0,0.0,0.0,-1.0,0.0,0.0,0.0,0.0,0.0,0.0,0.0,0.0,0.0,0.0,0.0,0.01,0.0,0.0,0.0,0.01,0.0,0.0,0.0,0.01,0.764918684959,-6.33509588242,0.0294199492782,0.01,0.0,0.0,0.0,0.01,0.0,0.0,0.0,0.01
1627577751865272268,8651,1627577751881920576,camera_accel_optical_frame,0.0,0.0,0.0,0.0,-1.0,0.0,0.0,0.0,0.0,0.0,0.0,0.0,0.0,0.0,0.0,0.0,0.01,0.0,0.0,0.0,0.01,0.0,0.0,0.0,0.01,0.343232750893,-3.34406757355,-2.25552940369,0.01,0.0,0.0,0.0,0.01,0.0,0.0,0.0,0.01
1627577751880985277,8652,1627577751897741795,camera_accel_optical_frame,0.0,0.0,0.0,0.0,-1.0,0.0,0.0,0.0,0.0,0.0,0.0,0.0,0.0,0.0,0.0,0.0,0.01,0.0,0.0,0.0,0.01,0.0,0.0,0.0,0.01,0.0294199492782,-4.24627923965,-1.18660461903,0.01,0.0,0.0,0.0,0.01,0.0,0.0,0.0,0.01
1627577751896978540,8653,1627577751913565397,camera_accel_optical_frame,0.0,0.0,0.0,0.0,-1.0,0.0,0.0,0.0,0.0,0.0,0.0,0.0,0.0,0.0,0.0,0.0,0.01,0.0,0.0,0.0,0.01,0.0,0.0,0.0,0.01,0.549172401428,-3.68730020523,-1.73577702045,0.01,0.0,0.0,0.0,0.01,0.0,0.0,0.0,0.01
1627577751912758160,8654,1627577751929387093,camera_accel_optical_frame,0.0,0.0,0.0,0.0,-1.0,0.0,0.0,0.0,0.0,0.0,0.0,0.0,0.0,0.0,0.0,0.0,0.01,0.0,0.0,0.0,0.01,0.0,0.0,0.0,0.01,0.549172401428,-3.5009739399,-2.11823630333,0.01,0.0,0.0,0.0,0.01,0.0,0.0,0.0,0.01
1627577751928673510,8655,1627577751945206881,camera_accel_optical_frame,0.0,0.0,0.0,0.0,-1.0,0.0,0.0,0.0,0.0,0.0,0.0,0.0,0.0,0.0,0.0,0.0,0.01,0.0,0.0,0.0,0.01,0.0,0.0,0.0,0.01,0.411879301071,-4.04033946991,-0.970858335495,0.01,0.0,0.0,0.0,0.01,0.0,0.0,0.0,0.01
1627577751944279723,8656,1627577751961026430,camera_accel_optical_frame,0.0,0.0,0.0,0.0,-1.0,0.0,0.0,0.0,0.0,0.0,0.0,0.0,0.0,0.0,0.0,0.0,0.01,0.0,0.0,0.0,0.01,0.0,0.0,0.0,0.01,1.37293100357,-3.94227313995,-0.431492596865,0.01,0.0,0.0,0.0,0.01,0.0,0.0,0.0,0.01
1627577751960060828,8657,1627577751976847649,camera_accel_optical_frame,0.0,0.0,0.0,0.0,-1.0,0.0,0.0,0.0,0.0,0.0,0.0,0.0,0.0,0.0,0.0,0.0,0.01,0.0,0.0,0.0,0.01,0.0,0.0,0.0,0.01,1.37293100357,-6.39393568039,-0.470719188452,0.01,0.0,0.0,0.0,0.01,0.0,0.0,0.0,0.01
1627577751976259289,8658,1627577751992668867,camera_accel_optical_frame,0.0,0.0,0.0,0.0,-1.0,0.0,0.0,0.0,0.0,0.0,0.0,0.0,0.0,0.0,0.0,0.0,0.01,0.0,0.0,0.0,0.01,0.0,0.0,0.0,0.01,0.853178501129,-10.1891088486,-0.588398993015,0.01,0.0,0.0,0.0,0.01,0.0,0.0,0.0,0.01
1627577751992195383,8659,1627577752008489132,camera_accel_optical_frame,0.0,0.0,0.0,0.0,-1.0,0.0,0.0,0.0,0.0,0.0,0.0,0.0,0.0,0.0,0.0,0.0,0.01,0.0,0.0,0.0,0.01,0.0,0.0,0.0,0.01,1.5690639019,-12.7878713608,0.951245009899,0.01,0.0,0.0,0.0,0.01,0.0,0.0,0.0,0.01
1627577752007864145,8660,1627577752024308205,camera_accel_optical_frame,0.0,0.0,0.0,0.0,-1.0,0.0,0.0,0.0,0.0,0.0,0.0,0.0,0.0,0.0,0.0,0.0,0.01,0.0,0.0,0.0,0.01,0.0,0.0,0.0,0.01,1.52983736992,-14.2490625381,-1.5886772871,0.01,0.0,0.0,0.0,0.01,0.0,0.0,0.0,0.01
1627577752023411119,8661,1627577752040129900,camera_accel_optical_frame,0.0,0.0,0.0,0.0,-1.0,0.0,0.0,0.0,0.0,0.0,0.0,0.0,0.0,0.0,0.0,0.0,0.01,0.0,0.0,0.0,0.01,0.0,0.0,0.0,0.01,1.2748644352,-18.8777999878,1.2748644352,0.01,0.0,0.0,0.0,0.01,0.0,0.0,0.0,0.01
1627577752039039513,8662,1627577752055947781,camera_accel_optical_frame,0.0,0.0,0.0,0.0,-1.0,0.0,0.0,0.0,0.0,0.0,0.0,0.0,0.0,0.0,0.0,0.0,0.01,0.0,0.0,0.0,0.01,0.0,0.0,0.0,0.01,1.22583127022,-16.4849777222,-0.745305359364,0.01,0.0,0.0,0.0,0.01,0.0,0.0,0.0,0.01
1627577752055212520,8663,1627577752071767330,camera_accel_optical_frame,0.0,0.0,0.0,0.0,-1.0,0.0,0.0,0.0,0.0,0.0,0.0,0.0,0.0,0.0,0.0,0.0,0.01,0.0,0.0,0.0,0.01,0.0,0.0,0.0,0.01,1.67693710327,-15.2591466904,0.931631743908,0.01,0.0,0.0,0.0,0.01,0.0,0.0,0.0,0.01
1627577752070864848,8664,1627577752087586880,camera_accel_optical_frame,0.0,0.0,0.0,0.0,-1.0,0.0,0.0,0.0,0.0,0.0,0.0,0.0,0.0,0.0,0.0,0.0,0.01,0.0,0.0,0.0,0.01,0.0,0.0,0.0,0.01,0.990471601486,-14.3961620331,0.245166242123,0.01,0.0,0.0,0.0,0.01,0.0,0.0,0.0,0.01
1627577752086798182,8665,1627577752103403330,camera_accel_optical_frame,0.0,0.0,0.0,0.0,-1.0,0.0,0.0,0.0,0.0,0.0,0.0,0.0,0.0,0.0,0.0,0.0,0.01,0.0,0.0,0.0,0.01,0.0,0.0,0.0,0.01,0.686465501785,-11.8366260529,-0.853178501129,0.01,0.0,0.0,0.0,0.01,0.0,0.0,0.0,0.01
1627577752102618718,8666,1627577752119221449,camera_accel_optical_frame,0.0,0.0,0.0,0.0,-1.0,0.0,0.0,0.0,0.0,0.0,0.0,0.0,0.0,0.0,0.0,0.0,0.01,0.0,0.0,0.0,0.01,0.0,0.0,0.0,0.01,1.12776470184,-9.78703689575,1.51022410393,0.01,0.0,0.0,0.0,0.01,0.0,0.0,0.0,0.01
1627577752118292776,8667,1627577752135038853,camera_accel_optical_frame,0.0,0.0,0.0,0.0,-1.0,0.0,0.0,0.0,0.0,0.0,0.0,0.0,0.0,0.0,0.0,0.0,0.01,0.0,0.0,0.0,0.01,0.0,0.0,0.0,0.01,1.20621788502,-8.34545898438,-0.568785667419,0.01,0.0,0.0,0.0,0.01,0.0,0.0,0.0,0.01
1627577752134329372,8668,1627577752150854826,camera_accel_optical_frame,0.0,0.0,0.0,0.0,-1.0,0.0,0.0,0.0,0.0,0.0,0.0,0.0,0.0,0.0,0.0,0.0,0.01,0.0,0.0,0.0,0.01,0.0,0.0,0.0,0.01,-0.264779537916,-10.4538888931,0.588398993015,0.01,0.0,0.0,0.0,0.01,0.0,0.0,0.0,0.01
1627577752150152065,8669,1627577752166672945,camera_accel_optical_frame,0.0,0.0,0.0,0.0,-1.0,0.0,0.0,0.0,0.0,0.0,0.0,0.0,0.0,0.0,0.0,0.0,0.01,0.0,0.0,0.0,0.01,0.0,0.0,0.0,0.01,0.0,-7.80609321594,-0.509945809841,0.01,0.0,0.0,0.0,0.01,0.0,0.0,0.0,0.01
1627577752166304492,8670,1627577752182490587,camera_accel_optical_frame,0.0,0.0,0.0,0.0,-1.0,0.0,0.0,0.0,0.0,0.0,0.0,0.0,0.0,0.0,0.0,0.0,0.01,0.0,0.0,0.0,0.01,0.0,0.0,0.0,0.01,-0.647238910198,-8.96327781677,-1.45138418674,0.01,0.0,0.0,0.0,0.01,0.0,0.0,0.0,0.01
1627577752182083390,8671,1627577752198311329,camera_accel_optical_frame,0.0,0.0,0.0,0.0,-1.0,0.0,0.0,0.0,0.0,0.0,0.0,0.0,0.0,0.0,0.0,0.0,0.01,0.0,0.0,0.0,0.01,0.0,0.0,0.0,0.01,0.0882598459721,-8.17874622345,0.147099748254,0.01,0.0,0.0,0.0,0.01,0.0,0.0,0.0,0.01
1627577752197736222,8672,1627577752214129925,camera_accel_optical_frame,0.0,0.0,0.0,0.0,-1.0,0.0,0.0,0.0,0.0,0.0,0.0,0.0,0.0,0.0,0.0,0.0,0.01,0.0,0.0,0.0,0.01,0.0,0.0,0.0,0.01,0.549172401428,-6.43316221237,-0.745305359364,0.01,0.0,0.0,0.0,0.01,0.0,0.0,0.0,0.01
1627577752214017541,8673,1627577752229945421,camera_accel_optical_frame,0.0,0.0,0.0,0.0,-1.0,0.0,0.0,0.0,0.0,0.0,0.0,0.0,0.0,0.0,0.0,0.0,0.01,0.0,0.0,0.0,0.01,0.0,0.0,0.0,0.01,0.38245934248,-7.50208711624,-0.186326339841,0.01,0.0,0.0,0.0,0.01,0.0,0.0,0.0,0.01
1627577752229837088,8674,1627577752245762587,camera_accel_optical_frame,0.0,0.0,0.0,0.0,-1.0,0.0,0.0,0.0,0.0,0.0,0.0,0.0,0.0,0.0,0.0,0.0,0.01,0.0,0.0,0.0,0.01,0.0,0.0,0.0,0.01,1.2552511692,-7.25692081451,-0.166713044047,0.01,0.0,0.0,0.0,0.01,0.0,0.0,0.0,0.01
1627577752245598249,8675,1627577752261579990,camera_accel_optical_frame,0.0,0.0,0.0,0.0,-1.0,0.0,0.0,0.0,0.0,0.0,0.0,0.0,0.0,0.0,0.0,0.0,0.01,0.0,0.0,0.0,0.01,0.0,0.0,0.0,0.01,1.47099745274,-8.70830535889,1.02969825268,0.01,0.0,0.0,0.0,0.01,0.0,0.0,0.0,0.01
1627577752261393906,8676,1627577752277395964,camera_accel_optical_frame,0.0,0.0,0.0,0.0,-1.0,0.0,0.0,0.0,0.0,0.0,0.0,0.0,0.0,0.0,0.0,0.0,0.01,0.0,0.0,0.0,0.01,0.0,0.0,0.0,0.01,2.41243577003,-8.62985134125,0.745305359364,0.01,0.0,0.0,0.0,0.01,0.0,0.0,0.0,0.01
1627577752277200877,8677,1627577752293214083,camera_accel_optical_frame,0.0,0.0,0.0,0.0,-1.0,0.0,0.0,0.0,0.0,0.0,0.0,0.0,0.0,0.0,0.0,0.0,0.01,0.0,0.0,0.0,0.01,0.0,0.0,0.0,0.01,0.912018418312,-11.2188072205,1.14737796783,0.01,0.0,0.0,0.0,0.01,0.0,0.0,0.0,0.01
1627577752292976661,8678,1627577752309028149,camera_accel_optical_frame,0.0,0.0,0.0,0.0,-1.0,0.0,0.0,0.0,0.0,0.0,0.0,0.0,0.0,0.0,0.0,0.0,0.01,0.0,0.0,0.0,0.01,0.0,0.0,0.0,0.01,1.37293100357,-9.68896961212,-1.31409108639,0.01,0.0,0.0,0.0,0.01,0.0,0.0,0.0,0.01
1627577752308641149,8679,1627577752324846983,camera_accel_optical_frame,0.0,0.0,0.0,0.0,-1.0,0.0,0.0,0.0,0.0,0.0,0.0,0.0,0.0,0.0,0.0,0.0,0.01,0.0,0.0,0.0,0.01,0.0,0.0,0.0,0.01,0.804145276546,-11.9248857498,2.02997660637,0.01,0.0,0.0,0.0,0.01,0.0,0.0,0.0,0.01
1627577752324657518,8680,1627577752340660334,camera_accel_optical_frame,0.0,0.0,0.0,0.0,-1.0,0.0,0.0,0.0,0.0,0.0,0.0,0.0,0.0,0.0,0.0,0.0,0.01,0.0,0.0,0.0,0.01,0.0,0.0,0.0,0.01,0.304006129503,-7.06078767776,-0.951245009899,0.01,0.0,0.0,0.0,0.01,0.0,0.0,0.0,0.01
1627577752340811994,8681,1627577752356476068,camera_accel_optical_frame,0.0,0.0,0.0,0.0,-1.0,0.0,0.0,0.0,0.0,0.0,0.0,0.0,0.0,0.0,0.0,0.0,0.01,0.0,0.0,0.0,0.01,0.0,0.0,0.0,0.01,-0.00980664975941,-6.69794178009,-1.5886772871,0.01,0.0,0.0,0.0,0.01,0.0,0.0,0.0,0.01
1627577752356290040,8682,1627577752372292519,camera_accel_optical_frame,0.0,0.0,0.0,0.0,-1.0,0.0,0.0,0.0,0.0,0.0,0.0,0.0,0.0,0.0,0.0,0.0,0.01,0.0,0.0,0.0,0.01,0.0,0.0,0.0,0.01,0.892405152321,-8.86521148682,0.666852176189,0.01,0.0,0.0,0.0,0.01,0.0,0.0,0.0,0.01
1627577752372354153,8683,1627577752388107777,camera_accel_optical_frame,0.0,0.0,0.0,0.0,-1.0,0.0,0.0,0.0,0.0,0.0,0.0,0.0,0.0,0.0,0.0,0.0,0.01,0.0,0.0,0.0,0.01,0.0,0.0,0.0,0.01,0.892405152321,-6.59987545013,-1.2748644352,0.01,0.0,0.0,0.0,0.01,0.0,0.0,0.0,0.01
1627577752387937114,8684,1627577752403923988,camera_accel_optical_frame,0.0,0.0,0.0,0.0,-1.0,0.0,0.0,0.0,0.0,0.0,0.0,0.0,0.0,0.0,0.0,0.0,0.01,0.0,0.0,0.0,0.01,0.0,0.0,0.0,0.01,0.833565235138,-7.6001534462,-0.470719188452,0.01,0.0,0.0,0.0,0.01,0.0,0.0,0.0,0.01
1627577752403827913,8685,1627577752419741869,camera_accel_optical_frame,0.0,0.0,0.0,0.0,-1.0,0.0,0.0,0.0,0.0,0.0,0.0,0.0,0.0,0.0,0.0,0.0,0.01,0.0,0.0,0.0,0.01,0.0,0.0,0.0,0.01,0.725692093372,-10.5911817551,0.549172401428,0.01,0.0,0.0,0.0,0.01,0.0,0.0,0.0,0.01
1627577752419600195,8686,1627577752435554981,camera_accel_optical_frame,0.0,0.0,0.0,0.0,-1.0,0.0,0.0,0.0,0.0,0.0,0.0,0.0,0.0,0.0,0.0,0.0,0.01,0.0,0.0,0.0,0.01,0.0,0.0,0.0,0.01,0.912018418312,-10.699054718,0.470719188452,0.01,0.0,0.0,0.0,0.01,0.0,0.0,0.0,0.01
1627577752435337048,8687,1627577752451368809,camera_accel_optical_frame,0.0,0.0,0.0,0.0,-1.0,0.0,0.0,0.0,0.0,0.0,0.0,0.0,0.0,0.0,0.0,0.0,0.01,0.0,0.0,0.0,0.01,0.0,0.0,0.0,0.01,0.951245009899,-11.4149398804,0.490332484245,0.01,0.0,0.0,0.0,0.01,0.0,0.0,0.0,0.01
1627577752451279599,8688,1627577752467184544,camera_accel_optical_frame,0.0,0.0,0.0,0.0,-1.0,0.0,0.0,0.0,0.0,0.0,0.0,0.0,0.0,0.0,0.0,0.0,0.01,0.0,0.0,0.0,0.01,0.0,0.0,0.0,0.01,0.647238910198,-13.3468503952,0.892405152321,0.01,0.0,0.0,0.0,0.01,0.0,0.0,0.0,0.01
1627577752467247668,8689,1627577752482998371,camera_accel_optical_frame,0.0,0.0,0.0,0.0,-1.0,0.0,0.0,0.0,0.0,0.0,0.0,0.0,0.0,0.0,0.0,0.0,0.01,0.0,0.0,0.0,0.01,0.0,0.0,0.0,0.01,1.02969825268,-14.3961620331,-0.451105892658,0.01,0.0,0.0,0.0,0.01,0.0,0.0,0.0,0.01
1627577752483084540,8690,1627577752498813629,camera_accel_optical_frame,0.0,0.0,0.0,0.0,-1.0,0.0,0.0,0.0,0.0,0.0,0.0,0.0,0.0,0.0,0.0,0.0,0.01,0.0,0.0,0.0,0.01,0.0,0.0,0.0,0.01,0.0294199492782,-13.4056901932,0.872791826725,0.01,0.0,0.0,0.0,0.01,0.0,0.0,0.0,0.01
1627577752498908012,8691,1627577752514628172,camera_accel_optical_frame,0.0,0.0,0.0,0.0,-1.0,0.0,0.0,0.0,0.0,0.0,0.0,0.0,0.0,0.0,0.0,0.0,0.01,0.0,0.0,0.0,0.01,0.0,0.0,0.0,0.01,0.666852176189,-10.73828125,-2.05939650536,0.01,0.0,0.0,0.0,0.01,0.0,0.0,0.0,0.01
1627577752514648598,8692,1627577752530443430,camera_accel_optical_frame,0.0,0.0,0.0,0.0,-1.0,0.0,0.0,0.0,0.0,0.0,0.0,0.0,0.0,0.0,0.0,0.0,0.01,0.0,0.0,0.0,0.01,0.0,0.0,0.0,0.01,-0.0686465501785,-15.37682724,1.14737796783,0.01,0.0,0.0,0.0,0.01,0.0,0.0,0.0,0.01
1627577752530869467,8693,1627577752546257496,camera_accel_optical_frame,0.0,0.0,0.0,0.0,-1.0,0.0,0.0,0.0,0.0,0.0,0.0,0.0,0.0,0.0,0.0,0.0,0.01,0.0,0.0,0.0,0.01,0.0,0.0,0.0,0.01,0.912018418312,-13.1899442673,1.16699135303,0.01,0.0,0.0,0.0,0.01,0.0,0.0,0.0,0.01
1627577752546774275,8694,1627577752562070608,camera_accel_optical_frame,0.0,0.0,0.0,0.0,-1.0,0.0,0.0,0.0,0.0,0.0,0.0,0.0,0.0,0.0,0.0,0.0,0.01,0.0,0.0,0.0,0.01,0.0,0.0,0.0,0.01,0.666852176189,-11.3364868164,-0.264779537916,0.01,0.0,0.0,0.0,0.01,0.0,0.0,0.0,0.01
1627577752563137261,8695,1627577752577886581,camera_accel_optical_frame,0.0,0.0,0.0,0.0,-1.0,0.0,0.0,0.0,0.0,0.0,0.0,0.0,0.0,0.0,0.0,0.0,0.01,0.0,0.0,0.0,0.01,0.0,0.0,0.0,0.01,1.01008486748,-10.3165950775,1.18660461903,0.01,0.0,0.0,0.0,0.01,0.0,0.0,0.0,0.01
1627577752578455930,8696,1627577752593700171,camera_accel_optical_frame,0.0,0.0,0.0,0.0,-1.0,0.0,0.0,0.0,0.0,0.0,0.0,0.0,0.0,0.0,0.0,0.0,0.01,0.0,0.0,0.0,0.01,0.0,0.0,0.0,0.01,1.41215753555,-8.02183914185,0.00980664975941,0.01,0.0,0.0,0.0,0.01,0.0,0.0,0.0,0.01
1627577752594015870,8697,1627577752609514952,camera_accel_optical_frame,0.0,0.0,0.0,0.0,-1.0,0.0,0.0,0.0,0.0,0.0,0.0,0.0,0.0,0.0,0.0,0.0,0.01,0.0,0.0,0.0,0.01,0.0,0.0,0.0,0.01,1.02969825268,-5.39365720749,0.529559075832,0.01,0.0,0.0,0.0,0.01,0.0,0.0,0.0,0.01
1627577752609936911,8698,1627577752625328302,camera_accel_optical_frame,0.0,0.0,0.0,0.0,-1.0,0.0,0.0,0.0,0.0,0.0,0.0,0.0,0.0,0.0,0.0,0.0,0.01,0.0,0.0,0.0,0.01,0.0,0.0,0.0,0.01,1.10815143585,-3.19696784019,-1.10815143585,0.01,0.0,0.0,0.0,0.01,0.0,0.0,0.0,0.01
1627577752625808463,8699,1627577752641143799,camera_accel_optical_frame,0.0,0.0,0.0,0.0,-1.0,0.0,0.0,0.0,0.0,0.0,0.0,0.0,0.0,0.0,0.0,0.0,0.01,0.0,0.0,0.0,0.01,0.0,0.0,0.0,0.01,0.264779537916,-5.26617097855,0.0294199492782,0.01,0.0,0.0,0.0,0.01,0.0,0.0,0.0,0.01
1627577752641605700,8700,1627577752656957388,camera_accel_optical_frame,0.0,0.0,0.0,0.0,-1.0,0.0,0.0,0.0,0.0,0.0,0.0,0.0,0.0,0.0,0.0,0.0,0.01,0.0,0.0,0.0,0.01,0.0,0.0,0.0,0.01,0.931631743908,-2.65760207176,-1.95152330399,0.01,0.0,0.0,0.0,0.01,0.0,0.0,0.0,0.01
1627577752657744510,8701,1627577752672771454,camera_accel_optical_frame,0.0,0.0,0.0,0.0,-1.0,0.0,0.0,0.0,0.0,0.0,0.0,0.0,0.0,0.0,0.0,0.0,0.01,0.0,0.0,0.0,0.01,0.0,0.0,0.0,0.01,0.568785667419,-5.55056381226,0.28439283371,0.01,0.0,0.0,0.0,0.01,0.0,0.0,0.0,0.01
1627577752673785341,8702,1627577752688584566,camera_accel_optical_frame,0.0,0.0,0.0,0.0,-1.0,0.0,0.0,0.0,0.0,0.0,0.0,0.0,0.0,0.0,0.0,0.0,0.01,0.0,0.0,0.0,0.01,0.0,0.0,0.0,0.01,1.01008486748,-6.17818927765,-1.01008486748,0.01,0.0,0.0,0.0,0.01,0.0,0.0,0.0,0.01
1627577752689019488,8703,1627577752704405308,camera_accel_optical_frame,0.0,0.0,0.0,0.0,-1.0,0.0,0.0,0.0,0.0,0.0,0.0,0.0,0.0,0.0,0.0,0.0,0.01,0.0,0.0,0.0,0.01,0.0,0.0,0.0,0.01,0.627625584602,-8.08067893982,-0.529559075832,0.01,0.0,0.0,0.0,0.01,0.0,0.0,0.0,0.01
1627577752704855236,8704,1627577752720225096,camera_accel_optical_frame,0.0,0.0,0.0,0.0,-1.0,0.0,0.0,0.0,0.0,0.0,0.0,0.0,0.0,0.0,0.0,0.0,0.01,0.0,0.0,0.0,0.01,0.0,0.0,0.0,0.01,0.647238910198,-8.62985134125,-1.49061071873,0.01,0.0,0.0,0.0,0.01,0.0,0.0,0.0,0.01
1627577752720965474,8705,1627577752736045599,camera_accel_optical_frame,0.0,0.0,0.0,0.0,-1.0,0.0,0.0,0.0,0.0,0.0,0.0,0.0,0.0,0.0,0.0,0.0,0.01,0.0,0.0,0.0,0.01,0.0,0.0,0.0,0.01,0.745305359364,-11.7973995209,-0.608012259007,0.01,0.0,0.0,0.0,0.01,0.0,0.0,0.0,0.01
1627577752736891006,8706,1627577752751866102,camera_accel_optical_frame,0.0,0.0,0.0,0.0,-1.0,0.0,0.0,0.0,0.0,0.0,0.0,0.0,0.0,0.0,0.0,0.0,0.01,0.0,0.0,0.0,0.01,0.0,0.0,0.0,0.01,1.06892478466,-15.0335941315,0.931631743908,0.01,0.0,0.0,0.0,0.01,0.0,0.0,0.0,0.01
1627577752752642647,8707,1627577752767686605,camera_accel_optical_frame,0.0,0.0,0.0,0.0,-1.0,0.0,0.0,0.0,0.0,0.0,0.0,0.0,0.0,0.0,0.0,0.0,0.01,0.0,0.0,0.0,0.01,0.0,0.0,0.0,0.01,0.264779537916,-17.2695102692,0.745305359364,0.01,0.0,0.0,0.0,0.01,0.0,0.0,0.0,0.01
1627577752768436037,8708,1627577752783507824,camera_accel_optical_frame,0.0,0.0,0.0,0.0,-1.0,0.0,0.0,0.0,0.0,0.0,0.0,0.0,0.0,0.0,0.0,0.0,0.01,0.0,0.0,0.0,0.01,0.0,0.0,0.0,0.01,0.451105892658,-18.8974132538,0.225552946329,0.01,0.0,0.0,0.0,0.01,0.0,0.0,0.0,0.01
1627577752783939658,8709,1627577752799327850,camera_accel_optical_frame,0.0,0.0,0.0,0.0,-1.0,0.0,0.0,0.0,0.0,0.0,0.0,0.0,0.0,0.0,0.0,0.0,0.01,0.0,0.0,0.0,0.01,0.0,0.0,0.0,0.01,-0.225552946329,-19.6427192688,0.362846046686,0.01,0.0,0.0,0.0,0.01,0.0,0.0,0.0,0.01
1627577752800045311,8710,1627577752815149784,camera_accel_optical_frame,0.0,0.0,0.0,0.0,-1.0,0.0,0.0,0.0,0.0,0.0,0.0,0.0,0.0,0.0,0.0,0.0,0.01,0.0,0.0,0.0,0.01,0.0,0.0,0.0,0.01,1.08853816986,-16.4457511902,2.37320923805,0.01,0.0,0.0,0.0,0.01,0.0,0.0,0.0,0.01
1627577752815787128,8711,1627577752830969810,camera_accel_optical_frame,0.0,0.0,0.0,0.0,-1.0,0.0,0.0,0.0,0.0,0.0,0.0,0.0,0.0,0.0,0.0,0.0,0.01,0.0,0.0,0.0,0.01,0.0,0.0,0.0,0.01,0.872791826725,-10.3754358292,0.304006129503,0.01,0.0,0.0,0.0,0.01,0.0,0.0,0.0,0.01
1627577752831751102,8712,1627577752846787691,camera_accel_optical_frame,0.0,0.0,0.0,0.0,-1.0,0.0,0.0,0.0,0.0,0.0,0.0,0.0,0.0,0.0,0.0,0.0,0.01,0.0,0.0,0.0,0.01,0.0,0.0,0.0,0.01,0.725692093372,-5.95263624191,-1.71616375446,0.01,0.0,0.0,0.0,0.01,0.0,0.0,0.0,0.01
1627577752848148366,8713,1627577752862606287,camera_accel_optical_frame,0.0,0.0,0.0,0.0,-1.0,0.0,0.0,0.0,0.0,0.0,0.0,0.0,0.0,0.0,0.0,0.0,0.01,0.0,0.0,0.0,0.01,0.0,0.0,0.0,0.01,0.402072638273,-9.57129001617,1.2552511692,0.01,0.0,0.0,0.0,0.01,0.0,0.0,0.0,0.01
1627577752863921958,8714,1627577752878422737,camera_accel_optical_frame,0.0,0.0,0.0,0.0,-1.0,0.0,0.0,0.0,0.0,0.0,0.0,0.0,0.0,0.0,0.0,0.0,0.01,0.0,0.0,0.0,0.01,0.0,0.0,0.0,0.01,0.451105892658,-4.16782617569,-0.627625584602,0.01,0.0,0.0,0.0,0.01,0.0,0.0,0.0,0.01
1627577752879510817,8715,1627577752894241095,camera_accel_optical_frame,0.0,0.0,0.0,0.0,-1.0,0.0,0.0,0.0,0.0,0.0,0.0,0.0,0.0,0.0,0.0,0.0,0.01,0.0,0.0,0.0,0.01,0.0,0.0,0.0,0.01,1.69655036926,1.52983736992,-3.09890127182,0.01,0.0,0.0,0.0,0.01,0.0,0.0,0.0,0.01
1627577752895439846,8716,1627577752910063744,camera_accel_optical_frame,0.0,0.0,0.0,0.0,-1.0,0.0,0.0,0.0,0.0,0.0,0.0,0.0,0.0,0.0,0.0,0.0,0.01,0.0,0.0,0.0,0.01,0.0,0.0,0.0,0.01,1.14737796783,-4.56989860535,0.147099748254,0.01,0.0,0.0,0.0,0.01,0.0,0.0,0.0,0.01
1627577752911126881,8717,1627577752925880909,camera_accel_optical_frame,0.0,0.0,0.0,0.0,-1.0,0.0,0.0,0.0,0.0,0.0,0.0,0.0,0.0,0.0,0.0,0.0,0.01,0.0,0.0,0.0,0.01,0.0,0.0,0.0,0.01,1.16699135303,-4.84448480606,-1.18660461903,0.01,0.0,0.0,0.0,0.01,0.0,0.0,0.0,0.01
1627577752927008488,8718,1627577752941698074,camera_accel_optical_frame,0.0,0.0,0.0,0.0,-1.0,0.0,0.0,0.0,0.0,0.0,0.0,0.0,0.0,0.0,0.0,0.0,0.01,0.0,0.0,0.0,0.01,0.0,0.0,0.0,0.01,1.14737796783,-1.87307012081,-2.39282250404,0.01,0.0,0.0,0.0,0.01,0.0,0.0,0.0,0.01
1627577752942915427,8719,1627577752957515955,camera_accel_optical_frame,0.0,0.0,0.0,0.0,-1.0,0.0,0.0,0.0,0.0,0.0,0.0,0.0,0.0,0.0,0.0,0.0,0.01,0.0,0.0,0.0,0.01,0.0,0.0,0.0,0.01,0.0,-7.33537387848,-2.35359597206,0.01,0.0,0.0,0.0,0.01,0.0,0.0,0.0,0.01
1627577752958816537,8720,1627577752973334789,camera_accel_optical_frame,0.0,0.0,0.0,0.0,-1.0,0.0,0.0,0.0,0.0,0.0,0.0,0.0,0.0,0.0,0.0,0.0,0.01,0.0,0.0,0.0,0.01,0.0,0.0,0.0,0.01,1.10815143585,-9.53206348419,-0.608012259007,0.01,0.0,0.0,0.0,0.01,0.0,0.0,0.0,0.01
1627577752974457075,8721,1627577752989155531,camera_accel_optical_frame,0.0,0.0,0.0,0.0,-1.0,0.0,0.0,0.0,0.0,0.0,0.0,0.0,0.0,0.0,0.0,0.0,0.01,0.0,0.0,0.0,0.01,0.0,0.0,0.0,0.01,1.22583127022,-11.3168735504,-0.745305359364,0.01,0.0,0.0,0.0,0.01,0.0,0.0,0.0,0.01
1627577752990014665,8722,1627577753004974127,camera_accel_optical_frame,0.0,0.0,0.0,0.0,-1.0,0.0,0.0,0.0,0.0,0.0,0.0,0.0,0.0,0.0,0.0,0.0,0.01,0.0,0.0,0.0,0.01,0.0,0.0,0.0,0.01,1.54945063591,-13.6704702377,-0.147099748254,0.01,0.0,0.0,0.0,0.01,0.0,0.0,0.0,0.01
1627577753006021170,8723,1627577753020790815,camera_accel_optical_frame,0.0,0.0,0.0,0.0,-1.0,0.0,0.0,0.0,0.0,0.0,0.0,0.0,0.0,0.0,0.0,0.0,0.01,0.0,0.0,0.0,0.01,0.0,0.0,0.0,0.01,0.411879301071,-16.180973053,-1.81423020363,0.01,0.0,0.0,0.0,0.01,0.0,0.0,0.0,0.01
1627577753021842298,8724,1627577753036610126,camera_accel_optical_frame,0.0,0.0,0.0,0.0,-1.0,0.0,0.0,0.0,0.0,0.0,0.0,0.0,0.0,0.0,0.0,0.0,0.01,0.0,0.0,0.0,0.01,0.0,0.0,0.0,0.01,1.14737796783,-15.1316604614,-0.666852176189,0.01,0.0,0.0,0.0,0.01,0.0,0.0,0.0,0.01
1627577753037729411,8725,1627577753052427530,camera_accel_optical_frame,0.0,0.0,0.0,0.0,-1.0,0.0,0.0,0.0,0.0,0.0,0.0,0.0,0.0,0.0,0.0,0.0,0.01,0.0,0.0,0.0,0.01,0.0,0.0,0.0,0.01,0.245166242123,-14.8963012695,-2.92238163948,0.01,0.0,0.0,0.0,0.01,0.0,0.0,0.0,0.01
1627577753053735430,8726,1627577753068247557,camera_accel_optical_frame,0.0,0.0,0.0,0.0,-1.0,0.0,0.0,0.0,0.0,0.0,0.0,0.0,0.0,0.0,0.0,0.0,0.01,0.0,0.0,0.0,0.01,0.0,0.0,0.0,0.01,0.568785667419,-15.8769655228,-0.666852176189,0.01,0.0,0.0,0.0,0.01,0.0,0.0,0.0,0.01
1627577753069841595,8727,1627577753084064722,camera_accel_optical_frame,0.0,0.0,0.0,0.0,-1.0,0.0,0.0,0.0,0.0,0.0,0.0,0.0,0.0,0.0,0.0,0.0,0.01,0.0,0.0,0.0,0.01,0.0,0.0,0.0,0.01,0.764918684959,-13.4056901932,-1.93191003799,0.01,0.0,0.0,0.0,0.01,0.0,0.0,0.0,0.01
1627577753085605953,8728,1627577753099882603,camera_accel_optical_frame,0.0,0.0,0.0,0.0,-1.0,0.0,0.0,0.0,0.0,0.0,0.0,0.0,0.0,0.0,0.0,0.0,0.01,0.0,0.0,0.0,0.01,0.0,0.0,0.0,0.01,0.608012259007,-11.9641122818,-1.77500355244,0.01,0.0,0.0,0.0,0.01,0.0,0.0,0.0,0.01
1627577753101581361,8729,1627577753115701437,camera_accel_optical_frame,0.0,0.0,0.0,0.0,-1.0,0.0,0.0,0.0,0.0,0.0,0.0,0.0,0.0,0.0,0.0,0.0,0.01,0.0,0.0,0.0,0.01,0.0,0.0,0.0,0.01,0.970858335495,-11.2972602844,-0.107873149216,0.01,0.0,0.0,0.0,0.01,0.0,0.0,0.0,0.01
1627577753116905251,8730,1627577753131518364,camera_accel_optical_frame,0.0,0.0,0.0,0.0,-1.0,0.0,0.0,0.0,0.0,0.0,0.0,0.0,0.0,0.0,0.0,0.0,0.01,0.0,0.0,0.0,0.01,0.0,0.0,0.0,0.01,0.304006129503,-7.92377281189,-1.95152330399,0.01,0.0,0.0,0.0,0.01,0.0,0.0,0.0,0.01
1627577753133042838,8731,1627577753147337914,camera_accel_optical_frame,0.0,0.0,0.0,0.0,-1.0,0.0,0.0,0.0,0.0,0.0,0.0,0.0,0.0,0.0,0.0,0.0,0.01,0.0,0.0,0.0,0.01,0.0,0.0,0.0,0.01,0.833565235138,-7.04117441177,-0.0490332469344,0.01,0.0,0.0,0.0,0.01,0.0,0.0,0.0,0.01
1627577753148858067,8732,1627577753163155317,camera_accel_optical_frame,0.0,0.0,0.0,0.0,-1.0,0.0,0.0,0.0,0.0,0.0,0.0,0.0,0.0,0.0,0.0,0.0,0.01,0.0,0.0,0.0,0.01,0.0,0.0,0.0,0.01,0.147099748254,-6.29586935043,-1.16699135303,0.01,0.0,0.0,0.0,0.01,0.0,0.0,0.0,0.01
1627577753164721896,8733,1627577753178976536,camera_accel_optical_frame,0.0,0.0,0.0,0.0,-1.0,0.0,0.0,0.0,0.0,0.0,0.0,0.0,0.0,0.0,0.0,0.0,0.01,0.0,0.0,0.0,0.01,0.0,0.0,0.0,0.01,0.568785667419,-3.96188640594,-0.225552946329,0.01,0.0,0.0,0.0,0.01,0.0,0.0,0.0,0.01
1627577753180666187,8734,1627577753194796801,camera_accel_optical_frame,0.0,0.0,0.0,0.0,-1.0,0.0,0.0,0.0,0.0,0.0,0.0,0.0,0.0,0.0,0.0,0.0,0.01,0.0,0.0,0.0,0.01,0.0,0.0,0.0,0.01,1.33370435238,-2.43204903603,-0.608012259007,0.01,0.0,0.0,0.0,0.01,0.0,0.0,0.0,0.01
1627577753196505104,8735,1627577753210615873,camera_accel_optical_frame,0.0,0.0,0.0,0.0,-1.0,0.0,0.0,0.0,0.0,0.0,0.0,0.0,0.0,0.0,0.0,0.0,0.01,0.0,0.0,0.0,0.01,0.0,0.0,0.0,0.01,0.990471601486,-3.5009739399,0.568785667419,0.01,0.0,0.0,0.0,0.01,0.0,0.0,0.0,0.01
1627577753212646050,8736,1627577753226433039,camera_accel_optical_frame,0.0,0.0,0.0,0.0,-1.0,0.0,0.0,0.0,0.0,0.0,0.0,0.0,0.0,0.0,0.0,0.0,0.01,0.0,0.0,0.0,0.01,0.0,0.0,0.0,0.01,0.872791826725,-3.00083494186,-1.77500355244,0.01,0.0,0.0,0.0,0.01,0.0,0.0,0.0,0.01
1627577753228145629,8737,1627577753242249966,camera_accel_optical_frame,0.0,0.0,0.0,0.0,-1.0,0.0,0.0,0.0,0.0,0.0,0.0,0.0,0.0,0.0,0.0,0.0,0.01,0.0,0.0,0.0,0.01,0.0,0.0,0.0,0.01,0.686465501785,-8.82598495483,0.490332484245,0.01,0.0,0.0,0.0,0.01,0.0,0.0,0.0,0.01
1627577753244167841,8738,1627577753258068800,camera_accel_optical_frame,0.0,0.0,0.0,0.0,-1.0,0.0,0.0,0.0,0.0,0.0,0.0,0.0,0.0,0.0,0.0,0.0,0.01,0.0,0.0,0.0,0.01,0.0,0.0,0.0,0.01,1.47099745274,-9.8949098587,1.35331761837,0.01,0.0,0.0,0.0,0.01,0.0,0.0,0.0,0.01
1627577753259765769,8739,1627577753273886442,camera_accel_optical_frame,0.0,0.0,0.0,0.0,-1.0,0.0,0.0,0.0,0.0,0.0,0.0,0.0,0.0,0.0,0.0,0.0,0.01,0.0,0.0,0.0,0.01,0.0,0.0,0.0,0.01,0.686465501785,-11.8562393188,1.23563790321,0.01,0.0,0.0,0.0,0.01,0.0,0.0,0.0,0.01
1627577753275422950,8740,1627577753289704084,camera_accel_optical_frame,0.0,0.0,0.0,0.0,-1.0,0.0,0.0,0.0,0.0,0.0,0.0,0.0,0.0,0.0,0.0,0.0,0.01,0.0,0.0,0.0,0.01,0.0,0.0,0.0,0.01,1.16699135303,-14.670747757,1.65732383728,0.01,0.0,0.0,0.0,0.01,0.0,0.0,0.0,0.01
1627577753291521215,8741,1627577753305521488,camera_accel_optical_frame,0.0,0.0,0.0,0.0,-1.0,0.0,0.0,0.0,0.0,0.0,0.0,0.0,0.0,0.0,0.0,0.0,0.01,0.0,0.0,0.0,0.01,0.0,0.0,0.0,0.01,0.647238910198,-17.1027965546,2.03978323936,0.01,0.0,0.0,0.0,0.01,0.0,0.0,0.0,0.01
1627577753307677140,8742,1627577753321336985,camera_accel_optical_frame,0.0,0.0,0.0,0.0,-1.0,0.0,0.0,0.0,0.0,0.0,0.0,0.0,0.0,0.0,0.0,0.0,0.01,0.0,0.0,0.0,0.01,0.0,0.0,0.0,0.01,0.402072638273,-15.5141201019,1.67693710327,0.01,0.0,0.0,0.0,0.01,0.0,0.0,0.0,0.01
1627577753323193852,8743,1627577753337154150,camera_accel_optical_frame,0.0,0.0,0.0,0.0,-1.0,0.0,0.0,0.0,0.0,0.0,0.0,0.0,0.0,0.0,0.0,0.0,0.01,0.0,0.0,0.0,0.01,0.0,0.0,0.0,0.01,1.2748644352,-12.9055509567,1.06892478466,0.01,0.0,0.0,0.0,0.01,0.0,0.0,0.0,0.01
1627577753338969276,8744,1627577753352970123,camera_accel_optical_frame,0.0,0.0,0.0,0.0,-1.0,0.0,0.0,0.0,0.0,0.0,0.0,0.0,0.0,0.0,0.0,0.0,0.01,0.0,0.0,0.0,0.01,0.0,0.0,0.0,0.01,0.186326339841,-14.9551410675,1.08853816986,0.01,0.0,0.0,0.0,0.01,0.0,0.0,0.0,0.01
1627577753354580681,8745,1627577753368785143,camera_accel_optical_frame,0.0,0.0,0.0,0.0,-1.0,0.0,0.0,0.0,0.0,0.0,0.0,0.0,0.0,0.0,0.0,0.0,0.01,0.0,0.0,0.0,0.01,0.0,0.0,0.0,0.01,1.5886772871,-10.718667984,1.23563790321,0.01,0.0,0.0,0.0,0.01,0.0,0.0,0.0,0.01
1627577753370581416,8746,1627577753384601116,camera_accel_optical_frame,0.0,0.0,0.0,0.0,-1.0,0.0,0.0,0.0,0.0,0.0,0.0,0.0,0.0,0.0,0.0,0.0,0.01,0.0,0.0,0.0,0.01,0.0,0.0,0.0,0.01,0.470719188452,-8.64946556091,-1.12776470184,0.01,0.0,0.0,0.0,0.01,0.0,0.0,0.0,0.01
1627577753386531064,8747,1627577753400417805,camera_accel_optical_frame,0.0,0.0,0.0,0.0,-1.0,0.0,0.0,0.0,0.0,0.0,0.0,0.0,0.0,0.0,0.0,0.0,0.01,0.0,0.0,0.0,0.01,0.0,0.0,0.0,0.01,1.04931151867,-6.87446165085,-0.186326339841,0.01,0.0,0.0,0.0,0.01,0.0,0.0,0.0,0.01
1627577753402606326,8748,1627577753416233301,camera_accel_optical_frame,0.0,0.0,0.0,0.0,-1.0,0.0,0.0,0.0,0.0,0.0,0.0,0.0,0.0,0.0,0.0,0.0,0.01,0.0,0.0,0.0,0.01,0.0,0.0,0.0,0.01,0.725692093372,-5.756503582,-0.529559075832,0.01,0.0,0.0,0.0,0.01,0.0,0.0,0.0,0.01
1627577753418393111,8749,1627577753432048798,camera_accel_optical_frame,0.0,0.0,0.0,0.0,-1.0,0.0,0.0,0.0,0.0,0.0,0.0,0.0,0.0,0.0,0.0,0.0,0.01,0.0,0.0,0.0,0.01,0.0,0.0,0.0,0.01,0.568785667419,-4.48163890839,0.107873149216,0.01,0.0,0.0,0.0,0.01,0.0,0.0,0.0,0.01
1627577753434079088,8750,1627577753447865248,camera_accel_optical_frame,0.0,0.0,0.0,0.0,-1.0,0.0,0.0,0.0,0.0,0.0,0.0,0.0,0.0,0.0,0.0,0.0,0.01,0.0,0.0,0.0,0.01,0.0,0.0,0.0,0.01,0.627625584602,-2.07900977135,-3.02044820786,0.01,0.0,0.0,0.0,0.01,0.0,0.0,0.0,0.01
1627577753450082444,8751,1627577753463680744,camera_accel_optical_frame,0.0,0.0,0.0,0.0,-1.0,0.0,0.0,0.0,0.0,0.0,0.0,0.0,0.0,0.0,0.0,0.0,0.01,0.0,0.0,0.0,0.01,0.0,0.0,0.0,0.01,0.166713044047,-4.68757867813,-0.892405152321,0.01,0.0,0.0,0.0,0.01,0.0,0.0,0.0,0.01
1627577753465596421,8752,1627577753479498863,camera_accel_optical_frame,0.0,0.0,0.0,0.0,-1.0,0.0,0.0,0.0,0.0,0.0,0.0,0.0,0.0,0.0,0.0,0.0,0.01,0.0,0.0,0.0,0.01,0.0,0.0,0.0,0.01,2.2359161377,-3.82459330559,-0.00980664975941,0.01,0.0,0.0,0.0,0.01,0.0,0.0,0.0,0.01
1627577753481738615,8753,1627577753495313883,camera_accel_optical_frame,0.0,0.0,0.0,0.0,-1.0,0.0,0.0,0.0,0.0,0.0,0.0,0.0,0.0,0.0,0.0,0.0,0.01,0.0,0.0,0.0,0.01,0.0,0.0,0.0,0.01,0.549172401428,-6.13896274567,-2.31436944008,0.01,0.0,0.0,0.0,0.01,0.0,0.0,0.0,0.01
1627577753497664693,8754,1627577753511131763,camera_accel_optical_frame,0.0,0.0,0.0,0.0,-1.0,0.0,0.0,0.0,0.0,0.0,0.0,0.0,0.0,0.0,0.0,0.0,0.01,0.0,0.0,0.0,0.01,0.0,0.0,0.0,0.01,0.931631743908,-9.09076404572,1.18660461903,0.01,0.0,0.0,0.0,0.01,0.0,0.0,0.0,0.01
1627577753513841175,8755,1627577753526946545,camera_accel_optical_frame,0.0,0.0,0.0,0.0,-1.0,0.0,0.0,0.0,0.0,0.0,0.0,0.0,0.0,0.0,0.0,0.0,0.01,0.0,0.0,0.0,0.01,0.0,0.0,0.0,0.01,0.853178501129,-9.80665016174,-3.15774130821,0.01,0.0,0.0,0.0,0.01,0.0,0.0,0.0,0.01
1627577753529406569,8756,1627577753542764425,camera_accel_optical_frame,0.0,0.0,0.0,0.0,-1.0,0.0,0.0,0.0,0.0,0.0,0.0,0.0,0.0,0.0,0.0,0.0,0.01,0.0,0.0,0.0,0.01,0.0,0.0,0.0,0.01,1.62790381908,-12.3073453903,0.0882598459721,0.01,0.0,0.0,0.0,0.01,0.0,0.0,0.0,0.01
1627577753544832456,8757,1627577753558578968,camera_accel_optical_frame,0.0,0.0,0.0,0.0,-1.0,0.0,0.0,0.0,0.0,0.0,0.0,0.0,0.0,0.0,0.0,0.0,0.01,0.0,0.0,0.0,0.01,0.0,0.0,0.0,0.01,1.75539028645,-13.5135631561,-1.49061071873,0.01,0.0,0.0,0.0,0.01,0.0,0.0,0.0,0.01
1627577753561123642,8758,1627577753574394464,camera_accel_optical_frame,0.0,0.0,0.0,0.0,-1.0,0.0,0.0,0.0,0.0,0.0,0.0,0.0,0.0,0.0,0.0,0.0,0.01,0.0,0.0,0.0,0.01,0.0,0.0,0.0,0.01,1.06892478466,-15.0335941315,-2.17707633972,0.01,0.0,0.0,0.0,0.01,0.0,0.0,0.0,0.01
1627577753576889602,8759,1627577753590209723,camera_accel_optical_frame,0.0,0.0,0.0,0.0,-1.0,0.0,0.0,0.0,0.0,0.0,0.0,0.0,0.0,0.0,0.0,0.0,0.01,0.0,0.0,0.0,0.01,0.0,0.0,0.0,0.01,0.647238910198,-15.435667038,-1.37293100357,0.01,0.0,0.0,0.0,0.01,0.0,0.0,0.0,0.01
1627577753592549941,8760,1627577753606024265,camera_accel_optical_frame,0.0,0.0,0.0,0.0,-1.0,0.0,0.0,0.0,0.0,0.0,0.0,0.0,0.0,0.0,0.0,0.0,0.01,0.0,0.0,0.0,0.01,0.0,0.0,0.0,0.01,0.529559075832,-16.4849777222,-1.31409108639,0.01,0.0,0.0,0.0,0.01,0.0,0.0,0.0,0.01
1627577753608313798,8761,1627577753621836185,camera_accel_optical_frame,0.0,0.0,0.0,0.0,-1.0,0.0,0.0,0.0,0.0,0.0,0.0,0.0,0.0,0.0,0.0,0.0,0.01,0.0,0.0,0.0,0.01,0.0,0.0,0.0,0.01,0.529559075832,-16.3672981262,-1.62790381908,0.01,0.0,0.0,0.0,0.01,0.0,0.0,0.0,0.01
1627577753624259709,8762,1627577753637652159,camera_accel_optical_frame,0.0,0.0,0.0,0.0,-1.0,0.0,0.0,0.0,0.0,0.0,0.0,0.0,0.0,0.0,0.0,0.0,0.01,0.0,0.0,0.0,0.01,0.0,0.0,0.0,0.01,1.31409108639,-15.3179864883,1.02969825268,0.01,0.0,0.0,0.0,0.01,0.0,0.0,0.0,0.01
1627577753640267893,8763,1627577753653465033,camera_accel_optical_frame,0.0,0.0,0.0,0.0,-1.0,0.0,0.0,0.0,0.0,0.0,0.0,0.0,0.0,0.0,0.0,0.0,0.01,0.0,0.0,0.0,0.01,0.0,0.0,0.0,0.01,-0.0490332469344,-14.1706085205,-3.28522777557,0.01,0.0,0.0,0.0,0.01,0.0,0.0,0.0,0.01
1627577753655722495,8764,1627577753669280052,camera_accel_optical_frame,0.0,0.0,0.0,0.0,-1.0,0.0,0.0,0.0,0.0,0.0,0.0,0.0,0.0,0.0,0.0,0.0,0.01,0.0,0.0,0.0,0.01,0.0,0.0,0.0,0.01,0.402072638273,-11.7581729889,-0.529559075832,0.01,0.0,0.0,0.0,0.01,0.0,0.0,0.0,0.01
1627577753671525480,8765,1627577753685093403,camera_accel_optical_frame,0.0,0.0,0.0,0.0,-1.0,0.0,0.0,0.0,0.0,0.0,0.0,0.0,0.0,0.0,0.0,0.0,0.01,0.0,0.0,0.0,0.01,0.0,0.0,0.0,0.01,0.764918684959,-8.72791862488,-1.39254426956,0.01,0.0,0.0,0.0,0.01,0.0,0.0,0.0,0.01
1627577753687736381,8766,1627577753700914860,camera_accel_optical_frame,0.0,0.0,0.0,0.0,-1.0,0.0,0.0,0.0,0.0,0.0,0.0,0.0,0.0,0.0,0.0,0.0,0.01,0.0,0.0,0.0,0.01,0.0,0.0,0.0,0.01,0.38245934248,-7.48247385025,-1.49061071873,0.01,0.0,0.0,0.0,0.01,0.0,0.0,0.0,0.01
1627577753703563824,8767,1627577753716736794,camera_accel_optical_frame,0.0,0.0,0.0,0.0,-1.0,0.0,0.0,0.0,0.0,0.0,0.0,0.0,0.0,0.0,0.0,0.0,0.01,0.0,0.0,0.0,0.01,0.0,0.0,0.0,0.01,0.205939650536,-5.72708368301,-1.02969825268,0.01,0.0,0.0,0.0,0.01,0.0,0.0,0.0,0.01
1627577753719432790,8768,1627577753732560873,camera_accel_optical_frame,0.0,0.0,0.0,0.0,-1.0,0.0,0.0,0.0,0.0,0.0,0.0,0.0,0.0,0.0,0.0,0.0,0.01,0.0,0.0,0.0,0.01,0.0,0.0,0.0,0.01,0.568785667419,-3.76575350761,-1.23563790321,0.01,0.0,0.0,0.0,0.01,0.0,0.0,0.0,0.01
1627577753735490158,8769,1627577753748381615,camera_accel_optical_frame,0.0,0.0,0.0,0.0,-1.0,0.0,0.0,0.0,0.0,0.0,0.0,0.0,0.0,0.0,0.0,0.0,0.01,0.0,0.0,0.0,0.01,0.0,0.0,0.0,0.01,0.990471601486,-2.57914876938,-2.02997660637,0.01,0.0,0.0,0.0,0.01,0.0,0.0,0.0,0.01
1627577753751097416,8770,1627577753764201403,camera_accel_optical_frame,0.0,0.0,0.0,0.0,-1.0,0.0,0.0,0.0,0.0,0.0,0.0,0.0,0.0,0.0,0.0,0.0,0.01,0.0,0.0,0.0,0.01,0.0,0.0,0.0,0.01,0.725692093372,-2.94199490547,-1.12776470184,0.01,0.0,0.0,0.0,0.01,0.0,0.0,0.0,0.01
1627577753767042148,8771,1627577753780019999,camera_accel_optical_frame,0.0,0.0,0.0,0.0,-1.0,0.0,0.0,0.0,0.0,0.0,0.0,0.0,0.0,0.0,0.0,0.0,0.01,0.0,0.0,0.0,0.01,0.0,0.0,0.0,0.01,0.647238910198,-1.91229665279,-2.96160817146,0.01,0.0,0.0,0.0,0.01,0.0,0.0,0.0,0.01
1627577753782664804,8772,1627577753795839548,camera_accel_optical_frame,0.0,0.0,0.0,0.0,-1.0,0.0,0.0,0.0,0.0,0.0,0.0,0.0,0.0,0.0,0.0,0.0,0.01,0.0,0.0,0.0,0.01,0.0,0.0,0.0,0.01,1.20621788502,-4.64835214615,-1.33370435238,0.01,0.0,0.0,0.0,0.01,0.0,0.0,0.0,0.01
1627577753798739633,8773,1627577753811662197,camera_accel_optical_frame,0.0,0.0,0.0,0.0,-1.0,0.0,0.0,0.0,0.0,0.0,0.0,0.0,0.0,0.0,0.0,0.0,0.01,0.0,0.0,0.0,0.01,0.0,0.0,0.0,0.01,2.13784956932,-6.51161527634,1.49061071873,0.01,0.0,0.0,0.0,0.01,0.0,0.0,0.0,0.01
1627577753814519426,8774,1627577753827482224,camera_accel_optical_frame,0.0,0.0,0.0,0.0,-1.0,0.0,0.0,0.0,0.0,0.0,0.0,0.0,0.0,0.0,0.0,0.0,0.01,0.0,0.0,0.0,0.01,0.0,0.0,0.0,0.01,1.62790381908,-7.19808101654,-0.745305359364,0.01,0.0,0.0,0.0,0.01,0.0,0.0,0.0,0.01
1627577753830253148,8775,1627577753843303442,camera_accel_optical_frame,0.0,0.0,0.0,0.0,-1.0,0.0,0.0,0.0,0.0,0.0,0.0,0.0,0.0,0.0,0.0,0.0,0.01,0.0,0.0,0.0,0.01,0.0,0.0,0.0,0.01,0.451105892658,-12.2681188583,1.71616375446,0.01,0.0,0.0,0.0,0.01,0.0,0.0,0.0,0.01
1627577753846256770,8776,1627577753859121561,camera_accel_optical_frame,0.0,0.0,0.0,0.0,-1.0,0.0,0.0,0.0,0.0,0.0,0.0,0.0,0.0,0.0,0.0,0.0,0.01,0.0,0.0,0.0,0.01,0.0,0.0,0.0,0.01,1.87307012081,-11.1207408905,-0.304006129503,0.01,0.0,0.0,0.0,0.01,0.0,0.0,0.0,0.01
1627577753861940911,8777,1627577753874941349,camera_accel_optical_frame,0.0,0.0,0.0,0.0,-1.0,0.0,0.0,0.0,0.0,0.0,0.0,0.0,0.0,0.0,0.0,0.0,0.01,0.0,0.0,0.0,0.01,0.0,0.0,0.0,0.01,1.39254426956,-14.1117687225,2.07900977135,0.01,0.0,0.0,0.0,0.01,0.0,0.0,0.0,0.01
1627577753877782686,8778,1627577753890762091,camera_accel_optical_frame,0.0,0.0,0.0,0.0,-1.0,0.0,0.0,0.0,0.0,0.0,0.0,0.0,0.0,0.0,0.0,0.0,0.01,0.0,0.0,0.0,0.01,0.0,0.0,0.0,0.01,1.16699135303,-13.2683973312,0.804145276546,0.01,0.0,0.0,0.0,0.01,0.0,0.0,0.0,0.01
1627577753893830761,8779,1627577753906581163,camera_accel_optical_frame,0.0,0.0,0.0,0.0,-1.0,0.0,0.0,0.0,0.0,0.0,0.0,0.0,0.0,0.0,0.0,0.0,0.01,0.0,0.0,0.0,0.01,0.0,0.0,0.0,0.01,1.43177092075,-13.4253034592,0.411879301071,0.01,0.0,0.0,0.0,0.01,0.0,0.0,0.0,0.01
1627577753909656091,8780,1627577753922398567,camera_accel_optical_frame,0.0,0.0,0.0,0.0,-1.0,0.0,0.0,0.0,0.0,0.0,0.0,0.0,0.0,0.0,0.0,0.0,0.01,0.0,0.0,0.0,0.01,0.0,0.0,0.0,0.01,1.20621788502,-14.1313819885,1.06892478466,0.01,0.0,0.0,0.0,0.01,0.0,0.0,0.0,0.01
1627577753925852371,8781,1627577753938215971,camera_accel_optical_frame,0.0,0.0,0.0,0.0,-1.0,0.0,0.0,0.0,0.0,0.0,0.0,0.0,0.0,0.0,0.0,0.0,0.01,0.0,0.0,0.0,0.01,0.0,0.0,0.0,0.01,0.608012259007,-11.454167366,-0.872791826725,0.01,0.0,0.0,0.0,0.01,0.0,0.0,0.0,0.01
1627577753941507062,8782,1627577753954036474,camera_accel_optical_frame,0.0,0.0,0.0,0.0,-1.0,0.0,0.0,0.0,0.0,0.0,0.0,0.0,0.0,0.0,0.0,0.0,0.01,0.0,0.0,0.0,0.01,0.0,0.0,0.0,0.01,0.647238910198,-12.1014060974,0.0294199492782,0.01,0.0,0.0,0.0,0.01,0.0,0.0,0.0,0.01
1627577753956894710,8783,1627577753969856739,camera_accel_optical_frame,0.0,0.0,0.0,0.0,-1.0,0.0,0.0,0.0,0.0,0.0,0.0,0.0,0.0,0.0,0.0,0.0,0.01,0.0,0.0,0.0,0.01,0.0,0.0,0.0,0.01,1.39254426956,-11.454167366,1.01008486748,0.01,0.0,0.0,0.0,0.01,0.0,0.0,0.0,0.01
1627577753972743124,8784,1627577753985673904,camera_accel_optical_frame,0.0,0.0,0.0,0.0,-1.0,0.0,0.0,0.0,0.0,0.0,0.0,0.0,0.0,0.0,0.0,0.0,0.01,0.0,0.0,0.0,0.01,0.0,0.0,0.0,0.01,0.627625584602,-10.0714292526,-1.93191003799,0.01,0.0,0.0,0.0,0.01,0.0,0.0,0.0,0.01
1627577753988560141,8785,1627577754001495838,camera_accel_optical_frame,0.0,0.0,0.0,0.0,-1.0,0.0,0.0,0.0,0.0,0.0,0.0,0.0,0.0,0.0,0.0,0.0,0.01,0.0,0.0,0.0,0.01,0.0,0.0,0.0,0.01,0.745305359364,-10.2381420135,0.970858335495,0.01,0.0,0.0,0.0,0.01,0.0,0.0,0.0,0.01
1627577754004734276,8786,1627577754017315865,camera_accel_optical_frame,0.0,0.0,0.0,0.0,-1.0,0.0,0.0,0.0,0.0,0.0,0.0,0.0,0.0,0.0,0.0,0.0,0.01,0.0,0.0,0.0,0.01,0.0,0.0,0.0,0.01,0.813951909542,-7.08040094376,-2.57914876938,0.01,0.0,0.0,0.0,0.01,0.0,0.0,0.0,0.01
1627577754020466941,8787,1627577754033135653,camera_accel_optical_frame,0.0,0.0,0.0,0.0,-1.0,0.0,0.0,0.0,0.0,0.0,0.0,0.0,0.0,0.0,0.0,0.0,0.01,0.0,0.0,0.0,0.01,0.0,0.0,0.0,0.01,0.608012259007,-9.68896961212,0.853178501129,0.01,0.0,0.0,0.0,0.01,0.0,0.0,0.0,0.01
1627577754036068671,8788,1627577754048952341,camera_accel_optical_frame,0.0,0.0,0.0,0.0,-1.0,0.0,0.0,0.0,0.0,0.0,0.0,0.0,0.0,0.0,0.0,0.0,0.01,0.0,0.0,0.0,0.01,0.0,0.0,0.0,0.01,0.931631743908,-9.07115077972,-0.647238910198,0.01,0.0,0.0,0.0,0.01,0.0,0.0,0.0,0.01
1627577754052434551,8789,1627577754064772844,camera_accel_optical_frame,0.0,0.0,0.0,0.0,-1.0,0.0,0.0,0.0,0.0,0.0,0.0,0.0,0.0,0.0,0.0,0.0,0.01,0.0,0.0,0.0,0.01,0.0,0.0,0.0,0.01,0.323619455099,-8.78675842285,-2.11823630333,0.01,0.0,0.0,0.0,0.01,0.0,0.0,0.0,0.01
1627577754068118604,8790,1627577754080592394,camera_accel_optical_frame,0.0,0.0,0.0,0.0,-1.0,0.0,0.0,0.0,0.0,0.0,0.0,0.0,0.0,0.0,0.0,0.0,0.01,0.0,0.0,0.0,0.01,0.0,0.0,0.0,0.01,0.147099748254,-8.82598495483,-0.951245009899,0.01,0.0,0.0,0.0,0.01,0.0,0.0,0.0,0.01
1627577754084672789,8791,1627577754096413851,camera_accel_optical_frame,0.0,0.0,0.0,0.0,-1.0,0.0,0.0,0.0,0.0,0.0,0.0,0.0,0.0,0.0,0.0,0.0,0.01,0.0,0.0,0.0,0.01,0.0,0.0,0.0,0.01,1.37293100357,-7.84531974792,-0.186326339841,0.01,0.0,0.0,0.0,0.01,0.0,0.0,0.0,0.01
1627577754099757209,8792,1627577754112233877,camera_accel_optical_frame,0.0,0.0,0.0,0.0,-1.0,0.0,0.0,0.0,0.0,0.0,0.0,0.0,0.0,0.0,0.0,0.0,0.01,0.0,0.0,0.0,0.01,0.0,0.0,0.0,0.01,1.2748644352,-8.17874622345,-1.06892478466,0.01,0.0,0.0,0.0,0.01,0.0,0.0,0.0,0.01
1627577754115536795,8793,1627577754128051996,camera_accel_optical_frame,0.0,0.0,0.0,0.0,-1.0,0.0,0.0,0.0,0.0,0.0,0.0,0.0,0.0,0.0,0.0,0.0,0.01,0.0,0.0,0.0,0.01,0.0,0.0,0.0,0.01,1.14737796783,-8.92405128479,-0.12748645246,0.01,0.0,0.0,0.0,0.01,0.0,0.0,0.0,0.01
1627577754131253169,8794,1627577754143872023,camera_accel_optical_frame,0.0,0.0,0.0,0.0,-1.0,0.0,0.0,0.0,0.0,0.0,0.0,0.0,0.0,0.0,0.0,0.0,0.01,0.0,0.0,0.0,0.01,0.0,0.0,0.0,0.01,1.02969825268,-7.88454627991,0.38245934248,0.01,0.0,0.0,0.0,0.01,0.0,0.0,0.0,0.01
1627577754147039852,8795,1627577754159688950,camera_accel_optical_frame,0.0,0.0,0.0,0.0,-1.0,0.0,0.0,0.0,0.0,0.0,0.0,0.0,0.0,0.0,0.0,0.0,0.01,0.0,0.0,0.0,0.01,0.0,0.0,0.0,0.01,0.764918684959,-7.75706005096,-2.55953550339,0.01,0.0,0.0,0.0,0.01,0.0,0.0,0.0,0.01
1627577754163369240,8796,1627577754175511837,camera_accel_optical_frame,0.0,0.0,0.0,0.0,-1.0,0.0,0.0,0.0,0.0,0.0,0.0,0.0,0.0,0.0,0.0,0.0,0.01,0.0,0.0,0.0,0.01,0.0,0.0,0.0,0.01,0.509945809841,-12.3073453903,2.19668960571,0.01,0.0,0.0,0.0,0.01,0.0,0.0,0.0,0.01
1627577754179107949,8797,1627577754191329241,camera_accel_optical_frame,0.0,0.0,0.0,0.0,-1.0,0.0,0.0,0.0,0.0,0.0,0.0,0.0,0.0,0.0,0.0,0.0,0.01,0.0,0.0,0.0,0.01,0.0,0.0,0.0,0.01,0.588398993015,-8.56120491028,-1.99074995518,0.01,0.0,0.0,0.0,0.01,0.0,0.0,0.0,0.01
1627577754194920326,8798,1627577754207147837,camera_accel_optical_frame,0.0,0.0,0.0,0.0,-1.0,0.0,0.0,0.0,0.0,0.0,0.0,0.0,0.0,0.0,0.0,0.0,0.01,0.0,0.0,0.0,0.01,0.0,0.0,0.0,0.01,0.706078767776,-10.9344148636,0.362846046686,0.01,0.0,0.0,0.0,0.01,0.0,0.0,0.0,0.01
1627577754211014694,8799,1627577754222964287,camera_accel_optical_frame,0.0,0.0,0.0,0.0,-1.0,0.0,0.0,0.0,0.0,0.0,0.0,0.0,0.0,0.0,0.0,0.0,0.01,0.0,0.0,0.0,0.01,0.0,0.0,0.0,0.01,0.931631743908,-11.483587265,-0.990471601486,0.01,0.0,0.0,0.0,0.01,0.0,0.0,0.0,0.01
1627577754226467419,8800,1627577754238784552,camera_accel_optical_frame,0.0,0.0,0.0,0.0,-1.0,0.0,0.0,0.0,0.0,0.0,0.0,0.0,0.0,0.0,0.0,0.0,0.01,0.0,0.0,0.0,0.01,0.0,0.0,0.0,0.01,1.20621788502,-12.6603851318,1.67693710327,0.01,0.0,0.0,0.0,0.01,0.0,0.0,0.0,0.01
1627577754242418339,8801,1627577754254602909,camera_accel_optical_frame,0.0,0.0,0.0,0.0,-1.0,0.0,0.0,0.0,0.0,0.0,0.0,0.0,0.0,0.0,0.0,0.0,0.01,0.0,0.0,0.0,0.01,0.0,0.0,0.0,0.01,0.509945809841,-11.8660459518,-0.0294199492782,0.01,0.0,0.0,0.0,0.01,0.0,0.0,0.0,0.01
1627577754258363197,8802,1627577754270420790,camera_accel_optical_frame,0.0,0.0,0.0,0.0,-1.0,0.0,0.0,0.0,0.0,0.0,0.0,0.0,0.0,0.0,0.0,0.0,0.01,0.0,0.0,0.0,0.01,0.0,0.0,0.0,0.01,-0.490332484245,-10.659828186,-2.77528190613,0.01,0.0,0.0,0.0,0.01,0.0,0.0,0.0,0.01
1627577754273969670,8803,1627577754286242008,camera_accel_optical_frame,0.0,0.0,0.0,0.0,-1.0,0.0,0.0,0.0,0.0,0.0,0.0,0.0,0.0,0.0,0.0,0.0,0.01,0.0,0.0,0.0,0.01,0.0,0.0,0.0,0.01,0.970858335495,-13.4056901932,2.19668960571,0.01,0.0,0.0,0.0,0.01,0.0,0.0,0.0,0.01
1627577754289763248,8804,1627577754302057743,camera_accel_optical_frame,0.0,0.0,0.0,0.0,-1.0,0.0,0.0,0.0,0.0,0.0,0.0,0.0,0.0,0.0,0.0,0.0,0.01,0.0,0.0,0.0,0.01,0.0,0.0,0.0,0.01,-0.147099748254,-12.2583122253,-2.59876227379,0.01,0.0,0.0,0.0,0.01,0.0,0.0,0.0,0.01
1627577754305620887,8805,1627577754317877769,camera_accel_optical_frame,0.0,0.0,0.0,0.0,-1.0,0.0,0.0,0.0,0.0,0.0,0.0,0.0,0.0,0.0,0.0,0.0,0.01,0.0,0.0,0.0,0.01,0.0,0.0,0.0,0.01,1.71616375446,-10.659828186,1.06892478466,0.01,0.0,0.0,0.0,0.01,0.0,0.0,0.0,0.01
1627577754321463715,8806,1627577754333696365,camera_accel_optical_frame,0.0,0.0,0.0,0.0,-1.0,0.0,0.0,0.0,0.0,0.0,0.0,0.0,0.0,0.0,0.0,0.0,0.01,0.0,0.0,0.0,0.01,0.0,0.0,0.0,0.01,0.0490332469344,-12.2190856934,-1.41215753555,0.01,0.0,0.0,0.0,0.01,0.0,0.0,0.0,0.01
1627577754337235181,8807,1627577754349516869,camera_accel_optical_frame,0.0,0.0,0.0,0.0,-1.0,0.0,0.0,0.0,0.0,0.0,0.0,0.0,0.0,0.0,0.0,0.0,0.01,0.0,0.0,0.0,0.01,0.0,0.0,0.0,0.01,0.784531950951,-11.4345531464,0.549172401428,0.01,0.0,0.0,0.0,0.01,0.0,0.0,0.0,0.01
1627577754353119304,8808,1627577754365335226,camera_accel_optical_frame,0.0,0.0,0.0,0.0,-1.0,0.0,0.0,0.0,0.0,0.0,0.0,0.0,0.0,0.0,0.0,0.0,0.01,0.0,0.0,0.0,0.01,0.0,0.0,0.0,0.01,0.804145276546,-6.05070304871,-0.872791826725,0.01,0.0,0.0,0.0,0.01,0.0,0.0,0.0,0.01
1627577754369551792,8809,1627577754381154537,camera_accel_optical_frame,0.0,0.0,0.0,0.0,-1.0,0.0,0.0,0.0,0.0,0.0,0.0,0.0,0.0,0.0,0.0,0.0,0.01,0.0,0.0,0.0,0.01,0.0,0.0,0.0,0.01,0.470719188452,-5.9918627739,-1.79461693764,0.01,0.0,0.0,0.0,0.01,0.0,0.0,0.0,0.01
1627577754385007040,8810,1627577754396972656,camera_accel_optical_frame,0.0,0.0,0.0,0.0,-1.0,0.0,0.0,0.0,0.0,0.0,0.0,0.0,0.0,0.0,0.0,0.0,0.01,0.0,0.0,0.0,0.01,0.0,0.0,0.0,0.01,0.970858335495,-7.75706005096,-1.02969825268,0.01,0.0,0.0,0.0,0.01,0.0,0.0,0.0,0.01
1627577754401109094,8811,1627577754412790775,camera_accel_optical_frame,0.0,0.0,0.0,0.0,-1.0,0.0,0.0,0.0,0.0,0.0,0.0,0.0,0.0,0.0,0.0,0.0,0.01,0.0,0.0,0.0,0.01,0.0,0.0,0.0,0.01,1.22583127022,-5.77611684799,-0.647238910198,0.01,0.0,0.0,0.0,0.01,0.0,0.0,0.0,0.01
1627577754416570925,8812,1627577754428609610,camera_accel_optical_frame,0.0,0.0,0.0,0.0,-1.0,0.0,0.0,0.0,0.0,0.0,0.0,0.0,0.0,0.0,0.0,0.0,0.01,0.0,0.0,0.0,0.01,0.0,0.0,0.0,0.01,0.784531950951,-3.05967473984,-3.32445430756,0.01,0.0,0.0,0.0,0.01,0.0,0.0,0.0,0.01
1627577754432747978,8813,1627577754444430351,camera_accel_optical_frame,0.0,0.0,0.0,0.0,-1.0,0.0,0.0,0.0,0.0,0.0,0.0,0.0,0.0,0.0,0.0,0.0,0.01,0.0,0.0,0.0,0.01,0.0,0.0,0.0,0.01,0.804145276546,-9.41438388824,0.12748645246,0.01,0.0,0.0,0.0,0.01,0.0,0.0,0.0,0.01
1627577754448599112,8814,1627577754460251331,camera_accel_optical_frame,0.0,0.0,0.0,0.0,-1.0,0.0,0.0,0.0,0.0,0.0,0.0,0.0,0.0,0.0,0.0,0.0,0.01,0.0,0.0,0.0,0.01,0.0,0.0,0.0,0.01,1.75539028645,-9.22805786133,0.0294199492782,0.01,0.0,0.0,0.0,0.01,0.0,0.0,0.0,0.01
1627577754464794772,8815,1627577754476066828,camera_accel_optical_frame,0.0,0.0,0.0,0.0,-1.0,0.0,0.0,0.0,0.0,0.0,0.0,0.0,0.0,0.0,0.0,0.0,0.01,0.0,0.0,0.0,0.01,0.0,0.0,0.0,0.01,1.65732383728,-6.93330144882,-1.31409108639,0.01,0.0,0.0,0.0,0.01,0.0,0.0,0.0,0.01
1627577754480535233,8816,1627577754491887093,camera_accel_optical_frame,0.0,0.0,0.0,0.0,-1.0,0.0,0.0,0.0,0.0,0.0,0.0,0.0,0.0,0.0,0.0,0.0,0.01,0.0,0.0,0.0,0.01,0.0,0.0,0.0,0.01,0.931631743908,-8.86521148682,-1.01008486748,0.01,0.0,0.0,0.0,0.01,0.0,0.0,0.0,0.01
1627577754496127055,8817,1627577754507706881,camera_accel_optical_frame,0.0,0.0,0.0,0.0,-1.0,0.0,0.0,0.0,0.0,0.0,0.0,0.0,0.0,0.0,0.0,0.0,0.01,0.0,0.0,0.0,0.01,0.0,0.0,0.0,0.01,0.470719188452,-10.9344148636,-1.18660461903,0.01,0.0,0.0,0.0,0.01,0.0,0.0,0.0,0.01
1627577754512126312,8818,1627577754523522854,camera_accel_optical_frame,0.0,0.0,0.0,0.0,-1.0,0.0,0.0,0.0,0.0,0.0,0.0,0.0,0.0,0.0,0.0,0.0,0.01,0.0,0.0,0.0,0.01,0.0,0.0,0.0,0.01,1.02969825268,-11.8170127869,-0.12748645246,0.01,0.0,0.0,0.0,0.01,0.0,0.0,0.0,0.01
1627577754527727511,8819,1627577754539340973,camera_accel_optical_frame,0.0,0.0,0.0,0.0,-1.0,0.0,0.0,0.0,0.0,0.0,0.0,0.0,0.0,0.0,0.0,0.0,0.01,0.0,0.0,0.0,0.01,0.0,0.0,0.0,0.01,0.872791826725,-12.7682580948,-0.529559075832,0.01,0.0,0.0,0.0,0.01,0.0,0.0,0.0,0.01
1627577754543613657,8820,1627577754555159092,camera_accel_optical_frame,0.0,0.0,0.0,0.0,-1.0,0.0,0.0,0.0,0.0,0.0,0.0,0.0,0.0,0.0,0.0,0.0,0.01,0.0,0.0,0.0,0.01,0.0,0.0,0.0,0.01,0.323619455099,-15.3179864883,-0.431492596865,0.01,0.0,0.0,0.0,0.01,0.0,0.0,0.0,0.01
1627577754560018340,8821,1627577754570974112,camera_accel_optical_frame,0.0,0.0,0.0,0.0,-1.0,0.0,0.0,0.0,0.0,0.0,0.0,0.0,0.0,0.0,0.0,0.0,0.01,0.0,0.0,0.0,0.01,0.0,0.0,0.0,0.01,-0.107873149216,-15.0139808655,-1.63771045208,0.01,0.0,0.0,0.0,0.01,0.0,0.0,0.0,0.01
1627577754575538700,8822,1627577754586792946,camera_accel_optical_frame,0.0,0.0,0.0,0.0,-1.0,0.0,0.0,0.0,0.0,0.0,0.0,0.0,0.0,0.0,0.0,0.0,0.01,0.0,0.0,0.0,0.01,0.0,0.0,0.0,0.01,0.588398993015,-14.0921554565,-0.588398993015,0.01,0.0,0.0,0.0,0.01,0.0,0.0,0.0,0.01
1627577754591546937,8823,1627577754602609634,camera_accel_optical_frame,0.0,0.0,0.0,0.0,-1.0,0.0,0.0,0.0,0.0,0.0,0.0,0.0,0.0,0.0,0.0,0.0,0.01,0.0,0.0,0.0,0.01,0.0,0.0,0.0,0.01,0.245166242123,-13.1703310013,-0.951245009899,0.01,0.0,0.0,0.0,0.01,0.0,0.0,0.0,0.01
1627577754607300339,8824,1627577754618428230,camera_accel_optical_frame,0.0,0.0,0.0,0.0,-1.0,0.0,0.0,0.0,0.0,0.0,0.0,0.0,0.0,0.0,0.0,0.0,0.01,0.0,0.0,0.0,0.01,0.0,0.0,0.0,0.01,0.833565235138,-11.562040329,-0.509945809841,0.01,0.0,0.0,0.0,0.01,0.0,0.0,0.0,0.01
1627577754622577542,8825,1627577754634245634,camera_accel_optical_frame,0.0,0.0,0.0,0.0,-1.0,0.0,0.0,0.0,0.0,0.0,0.0,0.0,0.0,0.0,0.0,0.0,0.01,0.0,0.0,0.0,0.01,0.0,0.0,0.0,0.01,1.02969825268,-7.54131364822,-2.02997660637,0.01,0.0,0.0,0.0,0.01,0.0,0.0,0.0,0.01
1627577754638634081,8826,1627577754650063038,camera_accel_optical_frame,0.0,0.0,0.0,0.0,-1.0,0.0,0.0,0.0,0.0,0.0,0.0,0.0,0.0,0.0,0.0,0.0,0.01,0.0,0.0,0.0,0.01,0.0,0.0,0.0,0.01,0.647238910198,-7.65899324417,-0.509945809841,0.01,0.0,0.0,0.0,0.01,0.0,0.0,0.0,0.01
1627577754654506356,8827,1627577754665879250,camera_accel_optical_frame,0.0,0.0,0.0,0.0,-1.0,0.0,0.0,0.0,0.0,0.0,0.0,0.0,0.0,0.0,0.0,0.0,0.01,0.0,0.0,0.0,0.01,0.0,0.0,0.0,0.01,0.912018418312,-7.61976671219,-0.912018418312,0.01,0.0,0.0,0.0,0.01,0.0,0.0,0.0,0.01
1627577754670523154,8828,1627577754681696177,camera_accel_optical_frame,0.0,0.0,0.0,0.0,-1.0,0.0,0.0,0.0,0.0,0.0,0.0,0.0,0.0,0.0,0.0,0.0,0.01,0.0,0.0,0.0,0.01,0.0,0.0,0.0,0.01,1.45138418674,-6.05070304871,0.362846046686,0.01,0.0,0.0,0.0,0.01,0.0,0.0,0.0,0.01
1627577754686209159,8829,1627577754697517633,camera_accel_optical_frame,0.0,0.0,0.0,0.0,-1.0,0.0,0.0,0.0,0.0,0.0,0.0,0.0,0.0,0.0,0.0,0.0,0.01,0.0,0.0,0.0,0.01,0.0,0.0,0.0,0.01,0.490332484245,-2.27514266968,-0.490332484245,0.01,0.0,0.0,0.0,0.01,0.0,0.0,0.0,0.01
1627577754702219768,8830,1627577754713341475,camera_accel_optical_frame,0.0,0.0,0.0,0.0,-1.0,0.0,0.0,0.0,0.0,0.0,0.0,0.0,0.0,0.0,0.0,0.0,0.01,0.0,0.0,0.0,0.01,0.0,0.0,0.0,0.01,1.06892478466,-3.04006147385,-2.52030897141,0.01,0.0,0.0,0.0,0.01,0.0,0.0,0.0,0.01
1627577754717961998,8831,1627577754729165554,camera_accel_optical_frame,0.0,0.0,0.0,0.0,-1.0,0.0,0.0,0.0,0.0,0.0,0.0,0.0,0.0,0.0,0.0,0.0,0.01,0.0,0.0,0.0,0.01,0.0,0.0,0.0,0.01,1.5690639019,-9.30651092529,4.99158477783,0.01,0.0,0.0,0.0,0.01,0.0,0.0,0.0,0.01
1627577754733607911,8832,1627577754744983435,camera_accel_optical_frame,0.0,0.0,0.0,0.0,-1.0,0.0,0.0,0.0,0.0,0.0,0.0,0.0,0.0,0.0,0.0,0.0,0.01,0.0,0.0,0.0,0.01,0.0,0.0,0.0,0.01,0.38245934248,-3.09890127182,-3.26561427116,0.01,0.0,0.0,0.0,0.01,0.0,0.0,0.0,0.01
1627577754749733397,8833,1627577754760807037,camera_accel_optical_frame,0.0,0.0,0.0,0.0,-1.0,0.0,0.0,0.0,0.0,0.0,0.0,0.0,0.0,0.0,0.0,0.0,0.01,0.0,0.0,0.0,0.01,0.0,0.0,0.0,0.01,1.06892478466,-5.9918627739,1.81423020363,0.01,0.0,0.0,0.0,0.01,0.0,0.0,0.0,0.01
1627577754765507563,8834,1627577754776628733,camera_accel_optical_frame,0.0,0.0,0.0,0.0,-1.0,0.0,0.0,0.0,0.0,0.0,0.0,0.0,0.0,0.0,0.0,0.0,0.01,0.0,0.0,0.0,0.01,0.0,0.0,0.0,0.01,0.38245934248,-9.34573745728,-1.63771045208,0.01,0.0,0.0,0.0,0.01,0.0,0.0,0.0,0.01
1627577754781301783,8835,1627577754792452097,camera_accel_optical_frame,0.0,0.0,0.0,0.0,-1.0,0.0,0.0,0.0,0.0,0.0,0.0,0.0,0.0,0.0,0.0,0.0,0.01,0.0,0.0,0.0,0.01,0.0,0.0,0.0,0.01,1.91229665279,-8.36507225037,2.52030897141,0.01,0.0,0.0,0.0,0.01,0.0,0.0,0.0,0.01
1627577754797941075,8836,1627577754808273554,camera_accel_optical_frame,0.0,0.0,0.0,0.0,-1.0,0.0,0.0,0.0,0.0,0.0,0.0,0.0,0.0,0.0,0.0,0.0,0.01,0.0,0.0,0.0,0.01,0.0,0.0,0.0,0.01,1.18660461903,-9.8949098587,-1.45138418674,0.01,0.0,0.0,0.0,0.01,0.0,0.0,0.0,0.01
1627577754813060523,8837,1627577754824094772,camera_accel_optical_frame,0.0,0.0,0.0,0.0,-1.0,0.0,0.0,0.0,0.0,0.0,0.0,0.0,0.0,0.0,0.0,0.0,0.01,0.0,0.0,0.0,0.01,0.0,0.0,0.0,0.01,1.67693710327,-15.5827665329,0.264779537916,0.01,0.0,0.0,0.0,0.01,0.0,0.0,0.0,0.01
1627577754829840311,8838,1627577754839916706,camera_accel_optical_frame,0.0,0.0,0.0,0.0,-1.0,0.0,0.0,0.0,0.0,0.0,0.0,0.0,0.0,0.0,0.0,0.0,0.01,0.0,0.0,0.0,0.01,0.0,0.0,0.0,0.01,1.20621788502,-17.2891235352,1.60829055309,0.01,0.0,0.0,0.0,0.01,0.0,0.0,0.0,0.01
1627577754845117137,8839,1627577754855735779,camera_accel_optical_frame,0.0,0.0,0.0,0.0,-1.0,0.0,0.0,0.0,0.0,0.0,0.0,0.0,0.0,0.0,0.0,0.0,0.01,0.0,0.0,0.0,0.01,0.0,0.0,0.0,0.01,1.12776470184,-14.1117687225,-1.08853816986,0.01,0.0,0.0,0.0,0.01,0.0,0.0,0.0,0.01
1627577754860751743,8840,1627577754871555567,camera_accel_optical_frame,0.0,0.0,0.0,0.0,-1.0,0.0,0.0,0.0,0.0,0.0,0.0,0.0,0.0,0.0,0.0,0.0,0.01,0.0,0.0,0.0,0.01,0.0,0.0,0.0,0.01,0.666852176189,-15.9161930084,-0.549172401428,0.01,0.0,0.0,0.0,0.01,0.0,0.0,0.0,0.01
1627577754876398485,8841,1627577754887375593,camera_accel_optical_frame,0.0,0.0,0.0,0.0,-1.0,0.0,0.0,0.0,0.0,0.0,0.0,0.0,0.0,0.0,0.0,0.0,0.01,0.0,0.0,0.0,0.01,0.0,0.0,0.0,0.01,1.02969825268,-14.0137023926,-0.970858335495,0.01,0.0,0.0,0.0,0.01,0.0,0.0,0.0,0.01
1627577754892477838,8842,1627577754903196335,camera_accel_optical_frame,0.0,0.0,0.0,0.0,-1.0,0.0,0.0,0.0,0.0,0.0,0.0,0.0,0.0,0.0,0.0,0.0,0.01,0.0,0.0,0.0,0.01,0.0,0.0,0.0,0.01,-0.804145276546,-13.1114912033,-2.13784956932,0.01,0.0,0.0,0.0,0.01,0.0,0.0,0.0,0.01
1627577754908338032,8843,1627577754919015884,camera_accel_optical_frame,0.0,0.0,0.0,0.0,-1.0,0.0,0.0,0.0,0.0,0.0,0.0,0.0,0.0,0.0,0.0,0.0,0.01,0.0,0.0,0.0,0.01,0.0,0.0,0.0,0.01,0.362846046686,-9.83607006073,-2.86354184151,0.01,0.0,0.0,0.0,0.01,0.0,0.0,0.0,0.01
1627577754924230842,8844,1627577754934835196,camera_accel_optical_frame,0.0,0.0,0.0,0.0,-1.0,0.0,0.0,0.0,0.0,0.0,0.0,0.0,0.0,0.0,0.0,0.0,0.01,0.0,0.0,0.0,0.01,0.0,0.0,0.0,0.01,0.833565235138,-11.2580337524,-0.470719188452,0.01,0.0,0.0,0.0,0.01,0.0,0.0,0.0,0.01
1627577754939740363,8845,1627577754950653553,camera_accel_optical_frame,0.0,0.0,0.0,0.0,-1.0,0.0,0.0,0.0,0.0,0.0,0.0,0.0,0.0,0.0,0.0,0.0,0.01,0.0,0.0,0.0,0.01,0.0,0.0,0.0,0.01,0.833565235138,-8.84559822083,-1.93191003799,0.01,0.0,0.0,0.0,0.01,0.0,0.0,0.0,0.01
1627577754955541433,8846,1627577754966472864,camera_accel_optical_frame,0.0,0.0,0.0,0.0,-1.0,0.0,0.0,0.0,0.0,0.0,0.0,0.0,0.0,0.0,0.0,0.0,0.01,0.0,0.0,0.0,0.01,0.0,0.0,0.0,0.01,1.04931151867,-8.56120491028,-1.01008486748,0.01,0.0,0.0,0.0,0.01,0.0,0.0,0.0,0.01
1627577754971349788,8847,1627577754982292891,camera_accel_optical_frame,0.0,0.0,0.0,0.0,-1.0,0.0,0.0,0.0,0.0,0.0,0.0,0.0,0.0,0.0,0.0,0.0,0.01,0.0,0.0,0.0,0.01,0.0,0.0,0.0,0.01,0.186326339841,-8.04145240784,-2.50069570541,0.01,0.0,0.0,0.0,0.01,0.0,0.0,0.0,0.01
1627577754987765196,8848,1627577754998114109,camera_accel_optical_frame,0.0,0.0,0.0,0.0,-1.0,0.0,0.0,0.0,0.0,0.0,0.0,0.0,0.0,0.0,0.0,0.0,0.01,0.0,0.0,0.0,0.01,0.0,0.0,0.0,0.01,1.18660461903,-7.04117441177,-0.205939650536,0.01,0.0,0.0,0.0,0.01,0.0,0.0,0.0,0.01
1627577755003602156,8849,1627577755013933897,camera_accel_optical_frame,0.0,0.0,0.0,0.0,-1.0,0.0,0.0,0.0,0.0,0.0,0.0,0.0,0.0,0.0,0.0,0.0,0.01,0.0,0.0,0.0,0.01,0.0,0.0,0.0,0.01,0.264779537916,-7.00194787979,-2.03978323936,0.01,0.0,0.0,0.0,0.01,0.0,0.0,0.0,0.01
1627577755018993691,8850,1627577755029754639,camera_accel_optical_frame,0.0,0.0,0.0,0.0,-1.0,0.0,0.0,0.0,0.0,0.0,0.0,0.0,0.0,0.0,0.0,0.0,0.01,0.0,0.0,0.0,0.01,0.0,0.0,0.0,0.01,0.107873149216,-7.17846775055,-0.813951909542,0.01,0.0,0.0,0.0,0.01,0.0,0.0,0.0,0.01
