%time,field.header.seq,field.header.stamp,field.header.frame_id,field.orientation.x,field.orientation.y,field.orientation.z,field.orientation.w,field.orientation_covariance0,field.orientation_covariance1,field.orientation_covariance2,field.orientation_covariance3,field.orientation_covariance4,field.orientation_covariance5,field.orientation_covariance6,field.orientation_covariance7,field.orientation_covariance8,field.angular_velocity.x,field.angular_velocity.y,field.angular_velocity.z,field.angular_velocity_covariance0,field.angular_velocity_covariance1,field.angular_velocity_covariance2,field.angular_velocity_covariance3,field.angular_velocity_covariance4,field.angular_velocity_covariance5,field.angular_velocity_covariance6,field.angular_velocity_covariance7,field.angular_velocity_covariance8,field.linear_acceleration.x,field.linear_acceleration.y,field.linear_acceleration.z,field.linear_acceleration_covariance0,field.linear_acceleration_covariance1,field.linear_acceleration_covariance2,field.linear_acceleration_covariance3,field.linear_acceleration_covariance4,field.linear_acceleration_covariance5,field.linear_acceleration_covariance6,field.linear_acceleration_covariance7,field.linear_acceleration_covariance8
1627577811458647022,12411,1627577811460429668,camera_accel_optical_frame,0.0,0.0,0.0,0.0,-1.0,0.0,0.0,0.0,0.0,0.0,0.0,0.0,0.0,0.0,0.0,0.0,0.01,0.0,0.0,0.0,0.01,0.0,0.0,0.0,0.01,0.0686465501785,-10.1302690506,1.54945063591,0.01,0.0,0.0,0.0,0.01,0.0,0.0,0.0,0.01
1627577811474665677,12412,1627577811476263523,camera_accel_optical_frame,0.0,0.0,0.0,0.0,-1.0,0.0,0.0,0.0,0.0,0.0,0.0,0.0,0.0,0.0,0.0,0.0,0.01,0.0,0.0,0.0,0.01,0.0,0.0,0.0,0.01,0.0882598459721,-9.26728439331,-0.764918684959,0.01,0.0,0.0,0.0,0.01,0.0,0.0,0.0,0.01
1627577811490368618,12413,1627577811492095947,camera_accel_optical_frame,0.0,0.0,0.0,0.0,-1.0,0.0,0.0,0.0,0.0,0.0,0.0,0.0,0.0,0.0,0.0,0.0,0.01,0.0,0.0,0.0,0.01,0.0,0.0,0.0,0.01,-0.12748645246,-10.797121048,1.31409108639,0.01,0.0,0.0,0.0,0.01,0.0,0.0,0.0,0.01
1627577811506176383,12414,1627577811507927418,camera_accel_optical_frame,0.0,0.0,0.0,0.0,-1.0,0.0,0.0,0.0,0.0,0.0,0.0,0.0,0.0,0.0,0.0,0.0,0.01,0.0,0.0,0.0,0.01,0.0,0.0,0.0,0.01,0.0,-7.94338607788,-0.872791826725,0.01,0.0,0.0,0.0,0.01,0.0,0.0,0.0,0.01
1627577811522153037,12415,1627577811523759842,camera_accel_optical_frame,0.0,0.0,0.0,0.0,-1.0,0.0,0.0,0.0,0.0,0.0,0.0,0.0,0.0,0.0,0.0,0.0,0.01,0.0,0.0,0.0,0.01,0.0,0.0,0.0,0.01,-0.186326339841,-9.34573745728,-0.205939650536,0.01,0.0,0.0,0.0,0.01,0.0,0.0,0.0,0.01
1627577811537888660,12416,1627577811539592266,camera_accel_optical_frame,0.0,0.0,0.0,0.0,-1.0,0.0,0.0,0.0,0.0,0.0,0.0,0.0,0.0,0.0,0.0,0.0,0.01,0.0,0.0,0.0,0.01,0.0,0.0,0.0,0.01,-0.0882598459721,-9.87529659271,0.264779537916,0.01,0.0,0.0,0.0,0.01,0.0,0.0,0.0,0.01
1627577811554173560,12417,1627577811555425644,camera_accel_optical_frame,0.0,0.0,0.0,0.0,-1.0,0.0,0.0,0.0,0.0,0.0,0.0,0.0,0.0,0.0,0.0,0.0,0.01,0.0,0.0,0.0,0.01,0.0,0.0,0.0,0.01,0.107873149216,-9.63012981415,0.225552946329,0.01,0.0,0.0,0.0,0.01,0.0,0.0,0.0,0.01
1627577811570292855,12418,1627577811571257830,camera_accel_optical_frame,0.0,0.0,0.0,0.0,-1.0,0.0,0.0,0.0,0.0,0.0,0.0,0.0,0.0,0.0,0.0,0.0,0.01,0.0,0.0,0.0,0.01,0.0,0.0,0.0,0.01,-0.0882598459721,-10.1891088486,0.00980664975941,0.01,0.0,0.0,0.0,0.01,0.0,0.0,0.0,0.01
1627577811585893540,12419,1627577811587091923,camera_accel_optical_frame,0.0,0.0,0.0,0.0,-1.0,0.0,0.0,0.0,0.0,0.0,0.0,0.0,0.0,0.0,0.0,0.0,0.01,0.0,0.0,0.0,0.01,0.0,0.0,0.0,0.01,0.0,-9.70858287811,-0.12748645246,0.01,0.0,0.0,0.0,0.01,0.0,0.0,0.0,0.01
1627577811601584454,12420,1627577811602926016,camera_accel_optical_frame,0.0,0.0,0.0,0.0,-1.0,0.0,0.0,0.0,0.0,0.0,0.0,0.0,0.0,0.0,0.0,0.0,0.01,0.0,0.0,0.0,0.01,0.0,0.0,0.0,0.01,0.0,-9.20844459534,0.107873149216,0.01,0.0,0.0,0.0,0.01,0.0,0.0,0.0,0.01
1627577811617375093,12421,1627577811618758202,camera_accel_optical_frame,0.0,0.0,0.0,0.0,-1.0,0.0,0.0,0.0,0.0,0.0,0.0,0.0,0.0,0.0,0.0,0.0,0.01,0.0,0.0,0.0,0.01,0.0,0.0,0.0,0.01,-0.166713044047,-8.94366455078,-0.470719188452,0.01,0.0,0.0,0.0,0.01,0.0,0.0,0.0,0.01
1627577811633165786,12422,1627577811634594202,camera_accel_optical_frame,0.0,0.0,0.0,0.0,-1.0,0.0,0.0,0.0,0.0,0.0,0.0,0.0,0.0,0.0,0.0,0.0,0.01,0.0,0.0,0.0,0.01,0.0,0.0,0.0,0.01,0.186326339841,-10.3754358292,0.833565235138,0.01,0.0,0.0,0.0,0.01,0.0,0.0,0.0,0.01
1627577811649122707,12423,1627577811650428295,camera_accel_optical_frame,0.0,0.0,0.0,0.0,-1.0,0.0,0.0,0.0,0.0,0.0,0.0,0.0,0.0,0.0,0.0,0.0,0.01,0.0,0.0,0.0,0.01,0.0,0.0,0.0,0.01,0.0,-10.1498823166,0.343232750893,0.01,0.0,0.0,0.0,0.01,0.0,0.0,0.0,0.01
1627577811664894367,12424,1627577811666260242,camera_accel_optical_frame,0.0,0.0,0.0,0.0,-1.0,0.0,0.0,0.0,0.0,0.0,0.0,0.0,0.0,0.0,0.0,0.0,0.01,0.0,0.0,0.0,0.01,0.0,0.0,0.0,0.01,-0.186326339841,-9.38496398926,-0.588398993015,0.01,0.0,0.0,0.0,0.01,0.0,0.0,0.0,0.01
1627577811680690348,12425,1627577811682095051,camera_accel_optical_frame,0.0,0.0,0.0,0.0,-1.0,0.0,0.0,0.0,0.0,0.0,0.0,0.0,0.0,0.0,0.0,0.0,0.01,0.0,0.0,0.0,0.01,0.0,0.0,0.0,0.01,0.00980664975941,-10.816734314,1.10815143585,0.01,0.0,0.0,0.0,0.01,0.0,0.0,0.0,0.01
1627577811696589370,12426,1627577811697925806,camera_accel_optical_frame,0.0,0.0,0.0,0.0,-1.0,0.0,0.0,0.0,0.0,0.0,0.0,0.0,0.0,0.0,0.0,0.0,0.01,0.0,0.0,0.0,0.01,0.0,0.0,0.0,0.01,-0.0882598459721,-10.777507782,-0.451105892658,0.01,0.0,0.0,0.0,0.01,0.0,0.0,0.0,0.01
1627577811712349962,12427,1627577811713762760,camera_accel_optical_frame,0.0,0.0,0.0,0.0,-1.0,0.0,0.0,0.0,0.0,0.0,0.0,0.0,0.0,0.0,0.0,0.0,0.01,0.0,0.0,0.0,0.01,0.0,0.0,0.0,0.01,0.343232750893,-10.6107950211,0.411879301071,0.01,0.0,0.0,0.0,0.01,0.0,0.0,0.0,0.01
1627577811728286336,12428,1627577811729597330,camera_accel_optical_frame,0.0,0.0,0.0,0.0,-1.0,0.0,0.0,0.0,0.0,0.0,0.0,0.0,0.0,0.0,0.0,0.0,0.01,0.0,0.0,0.0,0.01,0.0,0.0,0.0,0.01,0.38245934248,-10.797121048,1.18660461903,0.01,0.0,0.0,0.0,0.01,0.0,0.0,0.0,0.01
1627577811744275807,12429,1627577811745429993,camera_accel_optical_frame,0.0,0.0,0.0,0.0,-1.0,0.0,0.0,0.0,0.0,0.0,0.0,0.0,0.0,0.0,0.0,0.0,0.01,0.0,0.0,0.0,0.01,0.0,0.0,0.0,0.01,-0.00980664975941,-9.26728439331,-0.686465501785,0.01,0.0,0.0,0.0,0.01,0.0,0.0,0.0,0.01
1627577811760057414,12430,1627577811761262655,camera_accel_optical_frame,0.0,0.0,0.0,0.0,-1.0,0.0,0.0,0.0,0.0,0.0,0.0,0.0,0.0,0.0,0.0,0.0,0.01,0.0,0.0,0.0,0.01,0.0,0.0,0.0,0.01,-0.343232750893,-9.99297618866,-0.362846046686,0.01,0.0,0.0,0.0,0.01,0.0,0.0,0.0,0.01
1627577811775853682,12431,1627577811777097225,camera_accel_optical_frame,0.0,0.0,0.0,0.0,-1.0,0.0,0.0,0.0,0.0,0.0,0.0,0.0,0.0,0.0,0.0,0.0,0.01,0.0,0.0,0.0,0.01,0.0,0.0,0.0,0.01,0.304006129503,-8.11990642548,0.00980664975941,0.01,0.0,0.0,0.0,0.01,0.0,0.0,0.0,0.01
1627577811791338015,12432,1627577811792930603,camera_accel_optical_frame,0.0,0.0,0.0,0.0,-1.0,0.0,0.0,0.0,0.0,0.0,0.0,0.0,0.0,0.0,0.0,0.0,0.01,0.0,0.0,0.0,0.01,0.0,0.0,0.0,0.01,-0.0882598459721,-7.80609321594,0.186326339841,0.01,0.0,0.0,0.0,0.01,0.0,0.0,0.0,0.01
1627577811807290954,12433,1627577811808760881,camera_accel_optical_frame,0.0,0.0,0.0,0.0,-1.0,0.0,0.0,0.0,0.0,0.0,0.0,0.0,0.0,0.0,0.0,0.0,0.01,0.0,0.0,0.0,0.01,0.0,0.0,0.0,0.01,-0.470719188452,-8.61023807526,-0.970858335495,0.01,0.0,0.0,0.0,0.01,0.0,0.0,0.0,0.01
1627577811823125051,12434,1627577811824593544,camera_accel_optical_frame,0.0,0.0,0.0,0.0,-1.0,0.0,0.0,0.0,0.0,0.0,0.0,0.0,0.0,0.0,0.0,0.0,0.01,0.0,0.0,0.0,0.01,0.0,0.0,0.0,0.01,-0.323619455099,-9.49283695221,0.186326339841,0.01,0.0,0.0,0.0,0.01,0.0,0.0,0.0,0.01
1627577811839131119,12435,1627577811840425730,camera_accel_optical_frame,0.0,0.0,0.0,0.0,-1.0,0.0,0.0,0.0,0.0,0.0,0.0,0.0,0.0,0.0,0.0,0.0,0.01,0.0,0.0,0.0,0.01,0.0,0.0,0.0,0.01,-0.205939650536,-8.9044380188,-0.166713044047,0.01,0.0,0.0,0.0,0.01,0.0,0.0,0.0,0.01
1627577811854936558,12436,1627577811856261015,camera_accel_optical_frame,0.0,0.0,0.0,0.0,-1.0,0.0,0.0,0.0,0.0,0.0,0.0,0.0,0.0,0.0,0.0,0.0,0.01,0.0,0.0,0.0,0.01,0.0,0.0,0.0,0.01,-0.147099748254,-10.3362092972,0.431492596865,0.01,0.0,0.0,0.0,0.01,0.0,0.0,0.0,0.01
1627577811870739875,12437,1627577811872094154,camera_accel_optical_frame,0.0,0.0,0.0,0.0,-1.0,0.0,0.0,0.0,0.0,0.0,0.0,0.0,0.0,0.0,0.0,0.0,0.01,0.0,0.0,0.0,0.01,0.0,0.0,0.0,0.01,0.0294199492782,-10.777507782,0.970858335495,0.01,0.0,0.0,0.0,0.01,0.0,0.0,0.0,0.01
1627577811886589250,12438,1627577811887927294,camera_accel_optical_frame,0.0,0.0,0.0,0.0,-1.0,0.0,0.0,0.0,0.0,0.0,0.0,0.0,0.0,0.0,0.0,0.0,0.01,0.0,0.0,0.0,0.01,0.0,0.0,0.0,0.01,0.28439283371,-9.03192424774,0.205939650536,0.01,0.0,0.0,0.0,0.01,0.0,0.0,0.0,0.01
1627577811902438931,12439,1627577811903761387,camera_accel_optical_frame,0.0,0.0,0.0,0.0,-1.0,0.0,0.0,0.0,0.0,0.0,0.0,0.0,0.0,0.0,0.0,0.0,0.01,0.0,0.0,0.0,0.01,0.0,0.0,0.0,0.01,0.107873149216,-9.93413639069,0.490332484245,0.01,0.0,0.0,0.0,0.01,0.0,0.0,0.0,0.01
1627577811918653395,12440,1627577811919595480,camera_accel_optical_frame,0.0,0.0,0.0,0.0,-1.0,0.0,0.0,0.0,0.0,0.0,0.0,0.0,0.0,0.0,0.0,0.0,0.01,0.0,0.0,0.0,0.01,0.0,0.0,0.0,0.01,0.245166242123,-10.699054718,0.813951909542,0.01,0.0,0.0,0.0,0.01,0.0,0.0,0.0,0.01
1627577811934967020,12441,1627577811935428381,camera_accel_optical_frame,0.0,0.0,0.0,0.0,-1.0,0.0,0.0,0.0,0.0,0.0,0.0,0.0,0.0,0.0,0.0,0.0,0.01,0.0,0.0,0.0,0.01,0.0,0.0,0.0,0.01,0.431492596865,-10.2087221146,0.764918684959,0.01,0.0,0.0,0.0,0.01,0.0,0.0,0.0,0.01
1627577811950262563,12442,1627577811951259375,camera_accel_optical_frame,0.0,0.0,0.0,0.0,-1.0,0.0,0.0,0.0,0.0,0.0,0.0,0.0,0.0,0.0,0.0,0.0,0.01,0.0,0.0,0.0,0.01,0.0,0.0,0.0,0.01,0.0,-10.4931154251,-0.12748645246,0.01,0.0,0.0,0.0,0.01,0.0,0.0,0.0,0.01
1627577811966275414,12443,1627577811967098951,camera_accel_optical_frame,0.0,0.0,0.0,0.0,-1.0,0.0,0.0,0.0,0.0,0.0,0.0,0.0,0.0,0.0,0.0,0.0,0.01,0.0,0.0,0.0,0.01,0.0,0.0,0.0,0.01,0.205939650536,-11.1795806885,1.5886772871,0.01,0.0,0.0,0.0,0.01,0.0,0.0,0.0,0.01
1627577811981759792,12444,1627577811982932329,camera_accel_optical_frame,0.0,0.0,0.0,0.0,-1.0,0.0,0.0,0.0,0.0,0.0,0.0,0.0,0.0,0.0,0.0,0.0,0.01,0.0,0.0,0.0,0.01,0.0,0.0,0.0,0.01,-0.147099748254,-8.76714515686,-1.18660461903,0.01,0.0,0.0,0.0,0.01,0.0,0.0,0.0,0.01
1627577811998024149,12445,1627577811998770714,camera_accel_optical_frame,0.0,0.0,0.0,0.0,-1.0,0.0,0.0,0.0,0.0,0.0,0.0,0.0,0.0,0.0,0.0,0.0,0.01,0.0,0.0,0.0,0.01,0.0,0.0,0.0,0.01,-0.245166242123,-9.49283695221,0.0686465501785,0.01,0.0,0.0,0.0,0.01,0.0,0.0,0.0,0.01
1627577812013894230,12446,1627577812014605045,camera_accel_optical_frame,0.0,0.0,0.0,0.0,-1.0,0.0,0.0,0.0,0.0,0.0,0.0,0.0,0.0,0.0,0.0,0.0,0.01,0.0,0.0,0.0,0.01,0.0,0.0,0.0,0.01,0.0490332469344,-9.40457725525,-0.490332484245,0.01,0.0,0.0,0.0,0.01,0.0,0.0,0.0,0.01
1627577812029427666,12447,1627577812030443430,camera_accel_optical_frame,0.0,0.0,0.0,0.0,-1.0,0.0,0.0,0.0,0.0,0.0,0.0,0.0,0.0,0.0,0.0,0.0,0.01,0.0,0.0,0.0,0.01,0.0,0.0,0.0,0.01,-0.0882598459721,-10.0910425186,0.186326339841,0.01,0.0,0.0,0.0,0.01,0.0,0.0,0.0,0.01
1627577812045534511,12448,1627577812046278477,camera_accel_optical_frame,0.0,0.0,0.0,0.0,-1.0,0.0,0.0,0.0,0.0,0.0,0.0,0.0,0.0,0.0,0.0,0.0,0.01,0.0,0.0,0.0,0.01,0.0,0.0,0.0,0.01,0.0,-9.53206348419,-0.147099748254,0.01,0.0,0.0,0.0,0.01,0.0,0.0,0.0,0.01
1627577812061356400,12449,1627577812062116861,camera_accel_optical_frame,0.0,0.0,0.0,0.0,-1.0,0.0,0.0,0.0,0.0,0.0,0.0,0.0,0.0,0.0,0.0,0.0,0.01,0.0,0.0,0.0,0.01,0.0,0.0,0.0,0.01,0.0686465501785,-9.83607006073,-0.38245934248,0.01,0.0,0.0,0.0,0.01,0.0,0.0,0.0,0.01
1627577812076848073,12450,1627577812077955008,camera_accel_optical_frame,0.0,0.0,0.0,0.0,-1.0,0.0,0.0,0.0,0.0,0.0,0.0,0.0,0.0,0.0,0.0,0.0,0.01,0.0,0.0,0.0,0.01,0.0,0.0,0.0,0.01,0.0882598459721,-10.0910425186,0.451105892658,0.01,0.0,0.0,0.0,0.01,0.0,0.0,0.0,0.01
1627577812092522433,12451,1627577812093791008,camera_accel_optical_frame,0.0,0.0,0.0,0.0,-1.0,0.0,0.0,0.0,0.0,0.0,0.0,0.0,0.0,0.0,0.0,0.0,0.01,0.0,0.0,0.0,0.01,0.0,0.0,0.0,0.01,0.0294199492782,-8.26700592041,-0.931631743908,0.01,0.0,0.0,0.0,0.01,0.0,0.0,0.0,0.01
1627577812108417865,12452,1627577812109629154,camera_accel_optical_frame,0.0,0.0,0.0,0.0,-1.0,0.0,0.0,0.0,0.0,0.0,0.0,0.0,0.0,0.0,0.0,0.0,0.01,0.0,0.0,0.0,0.01,0.0,0.0,0.0,0.01,0.00980664975941,-10.1302690506,0.745305359364,0.01,0.0,0.0,0.0,0.01,0.0,0.0,0.0,0.01
1627577812124326634,12453,1627577812125466108,camera_accel_optical_frame,0.0,0.0,0.0,0.0,-1.0,0.0,0.0,0.0,0.0,0.0,0.0,0.0,0.0,0.0,0.0,0.0,0.01,0.0,0.0,0.0,0.01,0.0,0.0,0.0,0.01,0.0294199492782,-10.2773685455,-0.186326339841,0.01,0.0,0.0,0.0,0.01,0.0,0.0,0.0,0.01
1627577812140169164,12454,1627577812141302109,camera_accel_optical_frame,0.0,0.0,0.0,0.0,-1.0,0.0,0.0,0.0,0.0,0.0,0.0,0.0,0.0,0.0,0.0,0.0,0.01,0.0,0.0,0.0,0.01,0.0,0.0,0.0,0.01,0.0686465501785,-8.26700592041,-0.568785667419,0.01,0.0,0.0,0.0,0.01,0.0,0.0,0.0,0.01
1627577812156140303,12455,1627577812157138824,camera_accel_optical_frame,0.0,0.0,0.0,0.0,-1.0,0.0,0.0,0.0,0.0,0.0,0.0,0.0,0.0,0.0,0.0,0.0,0.01,0.0,0.0,0.0,0.01,0.0,0.0,0.0,0.01,0.245166242123,-10.4735021591,1.02969825268,0.01,0.0,0.0,0.0,0.01,0.0,0.0,0.0,0.01
1627577812171778058,12456,1627577812172973633,camera_accel_optical_frame,0.0,0.0,0.0,0.0,-1.0,0.0,0.0,0.0,0.0,0.0,0.0,0.0,0.0,0.0,0.0,0.0,0.01,0.0,0.0,0.0,0.01,0.0,0.0,0.0,0.01,0.0,-10.4931154251,0.402072638273,0.01,0.0,0.0,0.0,0.01,0.0,0.0,0.0,0.01
1627577812187682900,12457,1627577812188809395,camera_accel_optical_frame,0.0,0.0,0.0,0.0,-1.0,0.0,0.0,0.0,0.0,0.0,0.0,0.0,0.0,0.0,0.0,0.0,0.01,0.0,0.0,0.0,0.01,0.0,0.0,0.0,0.01,0.12748645246,-8.76714515686,0.264779537916,0.01,0.0,0.0,0.0,0.01,0.0,0.0,0.0,0.01
1627577812203707754,12458,1627577812204647303,camera_accel_optical_frame,0.0,0.0,0.0,0.0,-1.0,0.0,0.0,0.0,0.0,0.0,0.0,0.0,0.0,0.0,0.0,0.0,0.01,0.0,0.0,0.0,0.01,0.0,0.0,0.0,0.01,0.107873149216,-9.03192424774,0.225552946329,0.01,0.0,0.0,0.0,0.01,0.0,0.0,0.0,0.01
1627577812219645211,12459,1627577812220482588,camera_accel_optical_frame,0.0,0.0,0.0,0.0,-1.0,0.0,0.0,0.0,0.0,0.0,0.0,0.0,0.0,0.0,0.0,0.0,0.01,0.0,0.0,0.0,0.01,0.0,0.0,0.0,0.01,0.166713044047,-10.2773685455,1.01008486748,0.01,0.0,0.0,0.0,0.01,0.0,0.0,0.0,0.01
1627577812235548753,12460,1627577812236318350,camera_accel_optical_frame,0.0,0.0,0.0,0.0,-1.0,0.0,0.0,0.0,0.0,0.0,0.0,0.0,0.0,0.0,0.0,0.0,0.01,0.0,0.0,0.0,0.01,0.0,0.0,0.0,0.01,0.323619455099,-9.32612419128,0.0,0.01,0.0,0.0,0.0,0.01,0.0,0.0,0.0,0.01
1627577812251511169,12461,1627577812252154827,camera_accel_optical_frame,0.0,0.0,0.0,0.0,-1.0,0.0,0.0,0.0,0.0,0.0,0.0,0.0,0.0,0.0,0.0,0.0,0.01,0.0,0.0,0.0,0.01,0.0,0.0,0.0,0.01,0.107873149216,-9.99297618866,0.343232750893,0.01,0.0,0.0,0.0,0.01,0.0,0.0,0.0,0.01
1627577812266927594,12462,1627577812267989159,camera_accel_optical_frame,0.0,0.0,0.0,0.0,-1.0,0.0,0.0,0.0,0.0,0.0,0.0,0.0,0.0,0.0,0.0,0.0,0.01,0.0,0.0,0.0,0.01,0.0,0.0,0.0,0.01,0.0882598459721,-10.1498823166,-0.12748645246,0.01,0.0,0.0,0.0,0.01,0.0,0.0,0.0,0.01
1627577812283286169,12463,1627577812283825636,camera_accel_optical_frame,0.0,0.0,0.0,0.0,-1.0,0.0,0.0,0.0,0.0,0.0,0.0,0.0,0.0,0.0,0.0,0.0,0.01,0.0,0.0,0.0,0.01,0.0,0.0,0.0,0.01,0.38245934248,-9.70858287811,0.549172401428,0.01,0.0,0.0,0.0,0.01,0.0,0.0,0.0,0.01
1627577812299080699,12464,1627577812299659252,camera_accel_optical_frame,0.0,0.0,0.0,0.0,-1.0,0.0,0.0,0.0,0.0,0.0,0.0,0.0,0.0,0.0,0.0,0.0,0.01,0.0,0.0,0.0,0.01,0.0,0.0,0.0,0.01,-0.0294199492782,-10.4146623611,-0.470719188452,0.01,0.0,0.0,0.0,0.01,0.0,0.0,0.0,0.01
1627577812314991434,12465,1627577812315496683,camera_accel_optical_frame,0.0,0.0,0.0,0.0,-1.0,0.0,0.0,0.0,0.0,0.0,0.0,0.0,0.0,0.0,0.0,0.0,0.01,0.0,0.0,0.0,0.01,0.0,0.0,0.0,0.01,0.186326339841,-10.9344148636,1.16699135303,0.01,0.0,0.0,0.0,0.01,0.0,0.0,0.0,0.01
1627577812331010721,12466,1627577812331328630,camera_accel_optical_frame,0.0,0.0,0.0,0.0,-1.0,0.0,0.0,0.0,0.0,0.0,0.0,0.0,0.0,0.0,0.0,0.0,0.01,0.0,0.0,0.0,0.01,0.0,0.0,0.0,0.01,0.205939650536,-9.32612419128,-0.166713044047,0.01,0.0,0.0,0.0,0.01,0.0,0.0,0.0,0.01
1627577812346508031,12467,1627577812347163916,camera_accel_optical_frame,0.0,0.0,0.0,0.0,-1.0,0.0,0.0,0.0,0.0,0.0,0.0,0.0,0.0,0.0,0.0,0.0,0.01,0.0,0.0,0.0,0.01,0.0,0.0,0.0,0.01,-0.0686465501785,-9.43399715424,0.411879301071,0.01,0.0,0.0,0.0,0.01,0.0,0.0,0.0,0.01
1627577812362374199,12468,1627577812362998962,camera_accel_optical_frame,0.0,0.0,0.0,0.0,-1.0,0.0,0.0,0.0,0.0,0.0,0.0,0.0,0.0,0.0,0.0,0.0,0.01,0.0,0.0,0.0,0.01,0.0,0.0,0.0,0.01,0.186326339841,-9.36535072327,-0.0294199492782,0.01,0.0,0.0,0.0,0.01,0.0,0.0,0.0,0.01
1627577812378068309,12469,1627577812378834248,camera_accel_optical_frame,0.0,0.0,0.0,0.0,-1.0,0.0,0.0,0.0,0.0,0.0,0.0,0.0,0.0,0.0,0.0,0.0,0.01,0.0,0.0,0.0,0.01,0.0,0.0,0.0,0.01,0.00980664975941,-8.5023651123,0.0294199492782,0.01,0.0,0.0,0.0,0.01,0.0,0.0,0.0,0.01
1627577812393882755,12470,1627577812394668102,camera_accel_optical_frame,0.0,0.0,0.0,0.0,-1.0,0.0,0.0,0.0,0.0,0.0,0.0,0.0,0.0,0.0,0.0,0.0,0.01,0.0,0.0,0.0,0.01,0.0,0.0,0.0,0.01,0.28439283371,-8.61023807526,-0.343232750893,0.01,0.0,0.0,0.0,0.01,0.0,0.0,0.0,0.01
1627577812409634508,12471,1627577812410504103,camera_accel_optical_frame,0.0,0.0,0.0,0.0,-1.0,0.0,0.0,0.0,0.0,0.0,0.0,0.0,0.0,0.0,0.0,0.0,0.01,0.0,0.0,0.0,0.01,0.0,0.0,0.0,0.01,0.833565235138,-10.2087221146,1.73577702045,0.01,0.0,0.0,0.0,0.01,0.0,0.0,0.0,0.01
1627577812425324382,12472,1627577812426334858,camera_accel_optical_frame,0.0,0.0,0.0,0.0,-1.0,0.0,0.0,0.0,0.0,0.0,0.0,0.0,0.0,0.0,0.0,0.0,0.01,0.0,0.0,0.0,0.01,0.0,0.0,0.0,0.01,0.343232750893,-8.34545898438,-0.490332484245,0.01,0.0,0.0,0.0,0.01,0.0,0.0,0.0,0.01
1627577812441417215,12473,1627577812442170858,camera_accel_optical_frame,0.0,0.0,0.0,0.0,-1.0,0.0,0.0,0.0,0.0,0.0,0.0,0.0,0.0,0.0,0.0,0.0,0.01,0.0,0.0,0.0,0.01,0.0,0.0,0.0,0.01,0.107873149216,-9.53206348419,0.304006129503,0.01,0.0,0.0,0.0,0.01,0.0,0.0,0.0,0.01
1627577812457148508,12474,1627577812458005667,camera_accel_optical_frame,0.0,0.0,0.0,0.0,-1.0,0.0,0.0,0.0,0.0,0.0,0.0,0.0,0.0,0.0,0.0,0.0,0.01,0.0,0.0,0.0,0.01,0.0,0.0,0.0,0.01,0.166713044047,-10.699054718,0.323619455099,0.01,0.0,0.0,0.0,0.01,0.0,0.0,0.0,0.01
1627577812473090087,12475,1627577812473837376,camera_accel_optical_frame,0.0,0.0,0.0,0.0,-1.0,0.0,0.0,0.0,0.0,0.0,0.0,0.0,0.0,0.0,0.0,0.0,0.01,0.0,0.0,0.0,0.01,0.0,0.0,0.0,0.01,0.107873149216,-10.0714292526,0.147099748254,0.01,0.0,0.0,0.0,0.01,0.0,0.0,0.0,0.01
1627577812488822458,12476,1627577812489670277,camera_accel_optical_frame,0.0,0.0,0.0,0.0,-1.0,0.0,0.0,0.0,0.0,0.0,0.0,0.0,0.0,0.0,0.0,0.0,0.01,0.0,0.0,0.0,0.01,0.0,0.0,0.0,0.01,0.186326339841,-9.24767112732,0.166713044047,0.01,0.0,0.0,0.0,0.01,0.0,0.0,0.0,0.01
1627577812504640690,12477,1627577812505501747,camera_accel_optical_frame,0.0,0.0,0.0,0.0,-1.0,0.0,0.0,0.0,0.0,0.0,0.0,0.0,0.0,0.0,0.0,0.0,0.01,0.0,0.0,0.0,0.01,0.0,0.0,0.0,0.01,0.205939650536,-10.1891088486,-0.00980664975941,0.01,0.0,0.0,0.0,0.01,0.0,0.0,0.0,0.01
1627577812520783102,12478,1627577812521335363,camera_accel_optical_frame,0.0,0.0,0.0,0.0,-1.0,0.0,0.0,0.0,0.0,0.0,0.0,0.0,0.0,0.0,0.0,0.0,0.01,0.0,0.0,0.0,0.01,0.0,0.0,0.0,0.01,0.343232750893,-10.9932546616,0.323619455099,0.01,0.0,0.0,0.0,0.01,0.0,0.0,0.0,0.01
1627577812536528970,12479,1627577812537167072,camera_accel_optical_frame,0.0,0.0,0.0,0.0,-1.0,0.0,0.0,0.0,0.0,0.0,0.0,0.0,0.0,0.0,0.0,0.0,0.01,0.0,0.0,0.0,0.01,0.0,0.0,0.0,0.01,0.166713044047,-10.73828125,0.304006129503,0.01,0.0,0.0,0.0,0.01,0.0,0.0,0.0,0.01
1627577812552670174,12480,1627577812553001404,camera_accel_optical_frame,0.0,0.0,0.0,0.0,-1.0,0.0,0.0,0.0,0.0,0.0,0.0,0.0,0.0,0.0,0.0,0.0,0.01,0.0,0.0,0.0,0.01,0.0,0.0,0.0,0.01,0.304006129503,-10.0125894547,0.107873149216,0.01,0.0,0.0,0.0,0.01,0.0,0.0,0.0,0.01
1627577812568308972,12481,1627577812568834782,camera_accel_optical_frame,0.0,0.0,0.0,0.0,-1.0,0.0,0.0,0.0,0.0,0.0,0.0,0.0,0.0,0.0,0.0,0.0,0.01,0.0,0.0,0.0,0.01,0.0,0.0,0.0,0.01,0.28439283371,-9.87529659271,0.107873149216,0.01,0.0,0.0,0.0,0.01,0.0,0.0,0.0,0.01
1627577812584129610,12482,1627577812584667206,camera_accel_optical_frame,0.0,0.0,0.0,0.0,-1.0,0.0,0.0,0.0,0.0,0.0,0.0,0.0,0.0,0.0,0.0,0.0,0.01,0.0,0.0,0.0,0.01,0.0,0.0,0.0,0.01,0.304006129503,-8.6690788269,-0.451105892658,0.01,0.0,0.0,0.0,0.01,0.0,0.0,0.0,0.01
1627577812600221727,12483,1627577812600498438,camera_accel_optical_frame,0.0,0.0,0.0,0.0,-1.0,0.0,0.0,0.0,0.0,0.0,0.0,0.0,0.0,0.0,0.0,0.0,0.01,0.0,0.0,0.0,0.01,0.0,0.0,0.0,0.01,-0.166713044047,-9.87529659271,-0.225552946329,0.01,0.0,0.0,0.0,0.01,0.0,0.0,0.0,0.01
1627577812616926719,12484,1627577812616335630,camera_accel_optical_frame,0.0,0.0,0.0,0.0,-1.0,0.0,0.0,0.0,0.0,0.0,0.0,0.0,0.0,0.0,0.0,0.0,0.01,0.0,0.0,0.0,0.01,0.0,0.0,0.0,0.01,0.833565235138,-11.2384204865,0.931631743908,0.01,0.0,0.0,0.0,0.01,0.0,0.0,0.0,0.01
1627577812631854560,12485,1627577812632169962,camera_accel_optical_frame,0.0,0.0,0.0,0.0,-1.0,0.0,0.0,0.0,0.0,0.0,0.0,0.0,0.0,0.0,0.0,0.0,0.01,0.0,0.0,0.0,0.01,0.0,0.0,0.0,0.01,0.647238910198,-9.81645679474,0.912018418312,0.01,0.0,0.0,0.0,0.01,0.0,0.0,0.0,0.01
1627577812647898154,12486,1627577812648002148,camera_accel_optical_frame,0.0,0.0,0.0,0.0,-1.0,0.0,0.0,0.0,0.0,0.0,0.0,0.0,0.0,0.0,0.0,0.0,0.01,0.0,0.0,0.0,0.01,0.0,0.0,0.0,0.01,0.38245934248,-7.50208711624,-1.73577702045,0.01,0.0,0.0,0.0,0.01,0.0,0.0,0.0,0.01
1627577812663247066,12487,1627577812663837194,camera_accel_optical_frame,0.0,0.0,0.0,0.0,-1.0,0.0,0.0,0.0,0.0,0.0,0.0,0.0,0.0,0.0,0.0,0.0,0.01,0.0,0.0,0.0,0.01,0.0,0.0,0.0,0.01,0.490332484245,-10.2773685455,0.990471601486,0.01,0.0,0.0,0.0,0.01,0.0,0.0,0.0,0.01
1627577812679213164,12488,1627577812679670095,camera_accel_optical_frame,0.0,0.0,0.0,0.0,-1.0,0.0,0.0,0.0,0.0,0.0,0.0,0.0,0.0,0.0,0.0,0.0,0.01,0.0,0.0,0.0,0.01,0.0,0.0,0.0,0.01,0.666852176189,-9.2868976593,0.166713044047,0.01,0.0,0.0,0.0,0.01,0.0,0.0,0.0,0.01
1627577812695426016,12489,1627577812695504189,camera_accel_optical_frame,0.0,0.0,0.0,0.0,-1.0,0.0,0.0,0.0,0.0,0.0,0.0,0.0,0.0,0.0,0.0,0.0,0.01,0.0,0.0,0.0,0.01,0.0,0.0,0.0,0.01,0.588398993015,-9.14960384369,0.706078767776,0.01,0.0,0.0,0.0,0.01,0.0,0.0,0.0,0.01
1627577812711358863,12490,1627577812711336136,camera_accel_optical_frame,0.0,0.0,0.0,0.0,-1.0,0.0,0.0,0.0,0.0,0.0,0.0,0.0,0.0,0.0,0.0,0.0,0.01,0.0,0.0,0.0,0.01,0.0,0.0,0.0,0.01,0.28439283371,-10.816734314,-0.411879301071,0.01,0.0,0.0,0.0,0.01,0.0,0.0,0.0,0.01
1627577812726798012,12491,1627577812727169991,camera_accel_optical_frame,0.0,0.0,0.0,0.0,-1.0,0.0,0.0,0.0,0.0,0.0,0.0,0.0,0.0,0.0,0.0,0.0,0.01,0.0,0.0,0.0,0.01,0.0,0.0,0.0,0.01,0.549172401428,-10.1498823166,1.16699135303,0.01,0.0,0.0,0.0,0.01,0.0,0.0,0.0,0.01
1627577812742425267,12492,1627577812743000746,camera_accel_optical_frame,0.0,0.0,0.0,0.0,-1.0,0.0,0.0,0.0,0.0,0.0,0.0,0.0,0.0,0.0,0.0,0.0,0.01,0.0,0.0,0.0,0.01,0.0,0.0,0.0,0.01,0.490332484245,-8.18855285645,-0.245166242123,0.01,0.0,0.0,0.0,0.01,0.0,0.0,0.0,0.01
1627577812758561881,12493,1627577812758835554,camera_accel_optical_frame,0.0,0.0,0.0,0.0,-1.0,0.0,0.0,0.0,0.0,0.0,0.0,0.0,0.0,0.0,0.0,0.0,0.01,0.0,0.0,0.0,0.01,0.0,0.0,0.0,0.01,0.549172401428,-9.87529659271,0.784531950951,0.01,0.0,0.0,0.0,0.01,0.0,0.0,0.0,0.01
1627577812774151206,12494,1627577812774668217,camera_accel_optical_frame,0.0,0.0,0.0,0.0,-1.0,0.0,0.0,0.0,0.0,0.0,0.0,0.0,0.0,0.0,0.0,0.0,0.01,0.0,0.0,0.0,0.01,0.0,0.0,0.0,0.01,0.28439283371,-9.78703689575,0.0,0.01,0.0,0.0,0.0,0.01,0.0,0.0,0.0,0.01
1627577812790058342,12495,1627577812790503979,camera_accel_optical_frame,0.0,0.0,0.0,0.0,-1.0,0.0,0.0,0.0,0.0,0.0,0.0,0.0,0.0,0.0,0.0,0.0,0.01,0.0,0.0,0.0,0.01,0.0,0.0,0.0,0.01,0.549172401428,-8.99269771576,0.147099748254,0.01,0.0,0.0,0.0,0.01,0.0,0.0,0.0,0.01
1627577812805866791,12496,1627577812806338310,camera_accel_optical_frame,0.0,0.0,0.0,0.0,-1.0,0.0,0.0,0.0,0.0,0.0,0.0,0.0,0.0,0.0,0.0,0.0,0.01,0.0,0.0,0.0,0.01,0.0,0.0,0.0,0.01,0.647238910198,-11.4149398804,1.43177092075,0.01,0.0,0.0,0.0,0.01,0.0,0.0,0.0,0.01
1627577812821679674,12497,1627577812822170019,camera_accel_optical_frame,0.0,0.0,0.0,0.0,-1.0,0.0,0.0,0.0,0.0,0.0,0.0,0.0,0.0,0.0,0.0,0.0,0.01,0.0,0.0,0.0,0.01,0.0,0.0,0.0,0.01,0.686465501785,-10.5715684891,0.402072638273,0.01,0.0,0.0,0.0,0.01,0.0,0.0,0.0,0.01
1627577812837797672,12498,1627577812838002443,camera_accel_optical_frame,0.0,0.0,0.0,0.0,-1.0,0.0,0.0,0.0,0.0,0.0,0.0,0.0,0.0,0.0,0.0,0.0,0.01,0.0,0.0,0.0,0.01,0.0,0.0,0.0,0.01,0.666852176189,-9.85568332672,0.872791826725,0.01,0.0,0.0,0.0,0.01,0.0,0.0,0.0,0.01
1627577812853345350,12499,1627577812853835583,camera_accel_optical_frame,0.0,0.0,0.0,0.0,-1.0,0.0,0.0,0.0,0.0,0.0,0.0,0.0,0.0,0.0,0.0,0.0,0.01,0.0,0.0,0.0,0.01,0.0,0.0,0.0,0.01,0.764918684959,-8.88482475281,0.107873149216,0.01,0.0,0.0,0.0,0.01,0.0,0.0,0.0,0.01
1627577812869599647,12500,1627577812869668245,camera_accel_optical_frame,0.0,0.0,0.0,0.0,-1.0,0.0,0.0,0.0,0.0,0.0,0.0,0.0,0.0,0.0,0.0,0.0,0.01,0.0,0.0,0.0,0.01,0.0,0.0,0.0,0.01,0.647238910198,-9.8949098587,0.568785667419,0.01,0.0,0.0,0.0,0.01,0.0,0.0,0.0,0.01
1627577812885326030,12501,1627577812885499477,camera_accel_optical_frame,0.0,0.0,0.0,0.0,-1.0,0.0,0.0,0.0,0.0,0.0,0.0,0.0,0.0,0.0,0.0,0.0,0.01,0.0,0.0,0.0,0.01,0.0,0.0,0.0,0.01,-0.0686465501785,-10.3165950775,0.431492596865,0.01,0.0,0.0,0.0,0.01,0.0,0.0,0.0,0.01
1627577812901116246,12502,1627577812901333809,camera_accel_optical_frame,0.0,0.0,0.0,0.0,-1.0,0.0,0.0,0.0,0.0,0.0,0.0,0.0,0.0,0.0,0.0,0.0,0.01,0.0,0.0,0.0,0.01,0.0,0.0,0.0,0.01,0.470719188452,-8.2866191864,-0.951245009899,0.01,0.0,0.0,0.0,0.01,0.0,0.0,0.0,0.01
1627577812917543299,12503,1627577812917167902,camera_accel_optical_frame,0.0,0.0,0.0,0.0,-1.0,0.0,0.0,0.0,0.0,0.0,0.0,0.0,0.0,0.0,0.0,0.0,0.01,0.0,0.0,0.0,0.01,0.0,0.0,0.0,0.01,0.853178501129,-10.3165950775,1.8926833868,0.01,0.0,0.0,0.0,0.01,0.0,0.0,0.0,0.01
1627577812933022800,12504,1627577812933000088,camera_accel_optical_frame,0.0,0.0,0.0,0.0,-1.0,0.0,0.0,0.0,0.0,0.0,0.0,0.0,0.0,0.0,0.0,0.0,0.01,0.0,0.0,0.0,0.01,0.0,0.0,0.0,0.01,0.451105892658,-9.01231098175,-0.38245934248,0.01,0.0,0.0,0.0,0.01,0.0,0.0,0.0,0.01
1627577812948874674,12505,1627577812948833942,camera_accel_optical_frame,0.0,0.0,0.0,0.0,-1.0,0.0,0.0,0.0,0.0,0.0,0.0,0.0,0.0,0.0,0.0,0.0,0.01,0.0,0.0,0.0,0.01,0.0,0.0,0.0,0.01,0.509945809841,-8.72791862488,0.343232750893,0.01,0.0,0.0,0.0,0.01,0.0,0.0,0.0,0.01
1627577812964818284,12506,1627577812964670658,camera_accel_optical_frame,0.0,0.0,0.0,0.0,-1.0,0.0,0.0,0.0,0.0,0.0,0.0,0.0,0.0,0.0,0.0,0.0,0.01,0.0,0.0,0.0,0.01,0.0,0.0,0.0,0.01,0.28439283371,-9.64974308014,-0.0686465501785,0.01,0.0,0.0,0.0,0.01,0.0,0.0,0.0,0.01
1627577812980379402,12507,1627577812980506182,camera_accel_optical_frame,0.0,0.0,0.0,0.0,-1.0,0.0,0.0,0.0,0.0,0.0,0.0,0.0,0.0,0.0,0.0,0.0,0.01,0.0,0.0,0.0,0.01,0.0,0.0,0.0,0.01,0.343232750893,-9.03192424774,-0.166713044047,0.01,0.0,0.0,0.0,0.01,0.0,0.0,0.0,0.01
1627577812996380250,12508,1627577812996344566,camera_accel_optical_frame,0.0,0.0,0.0,0.0,-1.0,0.0,0.0,0.0,0.0,0.0,0.0,0.0,0.0,0.0,0.0,0.0,0.01,0.0,0.0,0.0,0.01,0.0,0.0,0.0,0.01,0.725692093372,-8.22777938843,0.0490332469344,0.01,0.0,0.0,0.0,0.01,0.0,0.0,0.0,0.01
1627577813012086648,12509,1627577813012181759,camera_accel_optical_frame,0.0,0.0,0.0,0.0,-1.0,0.0,0.0,0.0,0.0,0.0,0.0,0.0,0.0,0.0,0.0,0.0,0.01,0.0,0.0,0.0,0.01,0.0,0.0,0.0,0.01,0.205939650536,-9.61051654816,0.186326339841,0.01,0.0,0.0,0.0,0.01,0.0,0.0,0.0,0.01
1627577813028432018,12510,1627577813028016090,camera_accel_optical_frame,0.0,0.0,0.0,0.0,-1.0,0.0,0.0,0.0,0.0,0.0,0.0,0.0,0.0,0.0,0.0,0.0,0.01,0.0,0.0,0.0,0.01,0.0,0.0,0.0,0.01,0.549172401428,-10.718667984,0.804145276546,0.01,0.0,0.0,0.0,0.01,0.0,0.0,0.0,0.01
1627577813043573316,12511,1627577813043852329,camera_accel_optical_frame,0.0,0.0,0.0,0.0,-1.0,0.0,0.0,0.0,0.0,0.0,0.0,0.0,0.0,0.0,0.0,0.0,0.01,0.0,0.0,0.0,0.01,0.0,0.0,0.0,0.01,0.411879301071,-10.9344148636,1.20621788502,0.01,0.0,0.0,0.0,0.01,0.0,0.0,0.0,0.01
1627577813059372328,12512,1627577813059687614,camera_accel_optical_frame,0.0,0.0,0.0,0.0,-1.0,0.0,0.0,0.0,0.0,0.0,0.0,0.0,0.0,0.0,0.0,0.0,0.01,0.0,0.0,0.0,0.01,0.0,0.0,0.0,0.01,0.411879301071,-9.07115077972,-0.12748645246,0.01,0.0,0.0,0.0,0.01,0.0,0.0,0.0,0.01
1627577813075405348,12513,1627577813075524330,camera_accel_optical_frame,0.0,0.0,0.0,0.0,-1.0,0.0,0.0,0.0,0.0,0.0,0.0,0.0,0.0,0.0,0.0,0.0,0.01,0.0,0.0,0.0,0.01,0.0,0.0,0.0,0.01,0.38245934248,-9.24767112732,0.784531950951,0.01,0.0,0.0,0.0,0.01,0.0,0.0,0.0,0.01
1627577813091147328,12514,1627577813091362476,camera_accel_optical_frame,0.0,0.0,0.0,0.0,-1.0,0.0,0.0,0.0,0.0,0.0,0.0,0.0,0.0,0.0,0.0,0.0,0.01,0.0,0.0,0.0,0.01,0.0,0.0,0.0,0.01,0.833565235138,-9.38496398926,0.245166242123,0.01,0.0,0.0,0.0,0.01,0.0,0.0,0.0,0.01
1627577813107286938,12515,1627577813107199430,camera_accel_optical_frame,0.0,0.0,0.0,0.0,-1.0,0.0,0.0,0.0,0.0,0.0,0.0,0.0,0.0,0.0,0.0,0.0,0.01,0.0,0.0,0.0,0.01,0.0,0.0,0.0,0.01,0.402072638273,-10.9344148636,0.431492596865,0.01,0.0,0.0,0.0,0.01,0.0,0.0,0.0,0.01
1627577813122888918,12516,1627577813123033524,camera_accel_optical_frame,0.0,0.0,0.0,0.0,-1.0,0.0,0.0,0.0,0.0,0.0,0.0,0.0,0.0,0.0,0.0,0.0,0.01,0.0,0.0,0.0,0.01,0.0,0.0,0.0,0.01,0.804145276546,-9.81645679474,-0.0490332469344,0.01,0.0,0.0,0.0,0.01,0.0,0.0,0.0,0.01
1627577813138693966,12517,1627577813138870478,camera_accel_optical_frame,0.0,0.0,0.0,0.0,-1.0,0.0,0.0,0.0,0.0,0.0,0.0,0.0,0.0,0.0,0.0,0.0,0.01,0.0,0.0,0.0,0.01,0.0,0.0,0.0,0.01,0.853178501129,-11.1599674225,1.49061071873,0.01,0.0,0.0,0.0,0.01,0.0,0.0,0.0,0.01
1627577813154590033,12518,1627577813154705048,camera_accel_optical_frame,0.0,0.0,0.0,0.0,-1.0,0.0,0.0,0.0,0.0,0.0,0.0,0.0,0.0,0.0,0.0,0.0,0.01,0.0,0.0,0.0,0.01,0.0,0.0,0.0,0.01,0.764918684959,-10.1106557846,-0.186326339841,0.01,0.0,0.0,0.0,0.01,0.0,0.0,0.0,0.01
1627577813170459032,12519,1627577813170541048,camera_accel_optical_frame,0.0,0.0,0.0,0.0,-1.0,0.0,0.0,0.0,0.0,0.0,0.0,0.0,0.0,0.0,0.0,0.0,0.01,0.0,0.0,0.0,0.01,0.0,0.0,0.0,0.01,0.343232750893,-10.73828125,-0.264779537916,0.01,0.0,0.0,0.0,0.01,0.0,0.0,0.0,0.01
1627577813186531614,12520,1627577813186378717,camera_accel_optical_frame,0.0,0.0,0.0,0.0,-1.0,0.0,0.0,0.0,0.0,0.0,0.0,0.0,0.0,0.0,0.0,0.0,0.01,0.0,0.0,0.0,0.01,0.0,0.0,0.0,0.01,0.627625584602,-10.718667984,-0.147099748254,0.01,0.0,0.0,0.0,0.01,0.0,0.0,0.0,0.01
1627577813202452467,12521,1627577813202214241,camera_accel_optical_frame,0.0,0.0,0.0,0.0,-1.0,0.0,0.0,0.0,0.0,0.0,0.0,0.0,0.0,0.0,0.0,0.0,0.01,0.0,0.0,0.0,0.01,0.0,0.0,0.0,0.01,0.362846046686,-9.7478094101,0.12748645246,0.01,0.0,0.0,0.0,0.01,0.0,0.0,0.0,0.01
1627577813218256241,12522,1627577813218048811,camera_accel_optical_frame,0.0,0.0,0.0,0.0,-1.0,0.0,0.0,0.0,0.0,0.0,0.0,0.0,0.0,0.0,0.0,0.0,0.01,0.0,0.0,0.0,0.01,0.0,0.0,0.0,0.01,0.323619455099,-8.70830535889,-0.951245009899,0.01,0.0,0.0,0.0,0.01,0.0,0.0,0.0,0.01
1627577813234106217,12523,1627577813233887434,camera_accel_optical_frame,0.0,0.0,0.0,0.0,-1.0,0.0,0.0,0.0,0.0,0.0,0.0,0.0,0.0,0.0,0.0,0.0,0.01,0.0,0.0,0.0,0.01,0.0,0.0,0.0,0.01,0.784531950951,-10.4342756271,0.951245009899,0.01,0.0,0.0,0.0,0.01,0.0,0.0,0.0,0.01
1627577813249814529,12524,1627577813249722958,camera_accel_optical_frame,0.0,0.0,0.0,0.0,-1.0,0.0,0.0,0.0,0.0,0.0,0.0,0.0,0.0,0.0,0.0,0.0,0.01,0.0,0.0,0.0,0.01,0.0,0.0,0.0,0.01,0.666852176189,-10.5519552231,0.362846046686,0.01,0.0,0.0,0.0,0.01,0.0,0.0,0.0,0.01
1627577813266047006,12525,1627577813265557289,camera_accel_optical_frame,0.0,0.0,0.0,0.0,-1.0,0.0,0.0,0.0,0.0,0.0,0.0,0.0,0.0,0.0,0.0,0.0,0.01,0.0,0.0,0.0,0.01,0.0,0.0,0.0,0.01,0.264779537916,-9.55167675018,-0.225552946329,0.01,0.0,0.0,0.0,0.01,0.0,0.0,0.0,0.01
1627577813281616780,12526,1627577813281393766,camera_accel_optical_frame,0.0,0.0,0.0,0.0,-1.0,0.0,0.0,0.0,0.0,0.0,0.0,0.0,0.0,0.0,0.0,0.0,0.01,0.0,0.0,0.0,0.01,0.0,0.0,0.0,0.01,0.225552946329,-9.70858287811,-0.245166242123,0.01,0.0,0.0,0.0,0.01,0.0,0.0,0.0,0.01
1627577813297640740,12527,1627577813297232151,camera_accel_optical_frame,0.0,0.0,0.0,0.0,-1.0,0.0,0.0,0.0,0.0,0.0,0.0,0.0,0.0,0.0,0.0,0.0,0.01,0.0,0.0,0.0,0.01,0.0,0.0,0.0,0.01,0.745305359364,-8.96327781677,0.549172401428,0.01,0.0,0.0,0.0,0.01,0.0,0.0,0.0,0.01
1627577813313337892,12528,1627577813313070297,camera_accel_optical_frame,0.0,0.0,0.0,0.0,-1.0,0.0,0.0,0.0,0.0,0.0,0.0,0.0,0.0,0.0,0.0,0.0,0.01,0.0,0.0,0.0,0.01,0.0,0.0,0.0,0.01,0.529559075832,-8.44352531433,0.323619455099,0.01,0.0,0.0,0.0,0.01,0.0,0.0,0.0,0.01
1627577813329106358,12529,1627577813328904629,camera_accel_optical_frame,0.0,0.0,0.0,0.0,-1.0,0.0,0.0,0.0,0.0,0.0,0.0,0.0,0.0,0.0,0.0,0.0,0.01,0.0,0.0,0.0,0.01,0.0,0.0,0.0,0.01,0.225552946329,-8.70830535889,0.245166242123,0.01,0.0,0.0,0.0,0.01,0.0,0.0,0.0,0.01
1627577813345003792,12530,1627577813344739676,camera_accel_optical_frame,0.0,0.0,0.0,0.0,-1.0,0.0,0.0,0.0,0.0,0.0,0.0,0.0,0.0,0.0,0.0,0.0,0.01,0.0,0.0,0.0,0.01,0.0,0.0,0.0,0.01,0.608012259007,-8.6690788269,0.323619455099,0.01,0.0,0.0,0.0,0.01,0.0,0.0,0.0,0.01
1627577813360761990,12531,1627577813360574722,camera_accel_optical_frame,0.0,0.0,0.0,0.0,-1.0,0.0,0.0,0.0,0.0,0.0,0.0,0.0,0.0,0.0,0.0,0.0,0.01,0.0,0.0,0.0,0.01,0.0,0.0,0.0,0.01,0.451105892658,-9.22805786133,0.853178501129,0.01,0.0,0.0,0.0,0.01,0.0,0.0,0.0,0.01
1627577813376480692,12532,1627577813376411915,camera_accel_optical_frame,0.0,0.0,0.0,0.0,-1.0,0.0,0.0,0.0,0.0,0.0,0.0,0.0,0.0,0.0,0.0,0.0,0.01,0.0,0.0,0.0,0.01,0.0,0.0,0.0,0.01,0.745305359364,-8.5023651123,0.38245934248,0.01,0.0,0.0,0.0,0.01,0.0,0.0,0.0,0.01
1627577813392373830,12533,1627577813392244816,camera_accel_optical_frame,0.0,0.0,0.0,0.0,-1.0,0.0,0.0,0.0,0.0,0.0,0.0,0.0,0.0,0.0,0.0,0.0,0.01,0.0,0.0,0.0,0.01,0.0,0.0,0.0,0.01,0.509945809841,-9.68896961212,0.147099748254,0.01,0.0,0.0,0.0,0.01,0.0,0.0,0.0,0.01
1627577813408118062,12534,1627577813408080816,camera_accel_optical_frame,0.0,0.0,0.0,0.0,-1.0,0.0,0.0,0.0,0.0,0.0,0.0,0.0,0.0,0.0,0.0,0.0,0.01,0.0,0.0,0.0,0.01,0.0,0.0,0.0,0.01,0.764918684959,-10.797121048,0.990471601486,0.01,0.0,0.0,0.0,0.01,0.0,0.0,0.0,0.01
1627577813424168482,12535,1627577813423914433,camera_accel_optical_frame,0.0,0.0,0.0,0.0,-1.0,0.0,0.0,0.0,0.0,0.0,0.0,0.0,0.0,0.0,0.0,0.0,0.01,0.0,0.0,0.0,0.01,0.0,0.0,0.0,0.01,0.745305359364,-10.8755741119,1.39254426956,0.01,0.0,0.0,0.0,0.01,0.0,0.0,0.0,0.01
1627577813439881192,12536,1627577813439748526,camera_accel_optical_frame,0.0,0.0,0.0,0.0,-1.0,0.0,0.0,0.0,0.0,0.0,0.0,0.0,0.0,0.0,0.0,0.0,0.01,0.0,0.0,0.0,0.01,0.0,0.0,0.0,0.01,0.588398993015,-10.2381420135,0.147099748254,0.01,0.0,0.0,0.0,0.01,0.0,0.0,0.0,0.01
1627577813455629339,12537,1627577813455582380,camera_accel_optical_frame,0.0,0.0,0.0,0.0,-1.0,0.0,0.0,0.0,0.0,0.0,0.0,0.0,0.0,0.0,0.0,0.0,0.01,0.0,0.0,0.0,0.01,0.0,0.0,0.0,0.01,0.912018418312,-9.76742362976,1.65732383728,0.01,0.0,0.0,0.0,0.01,0.0,0.0,0.0,0.01
1627577813471875984,12538,1627577813471416950,camera_accel_optical_frame,0.0,0.0,0.0,0.0,-1.0,0.0,0.0,0.0,0.0,0.0,0.0,0.0,0.0,0.0,0.0,0.0,0.01,0.0,0.0,0.0,0.01,0.0,0.0,0.0,0.01,0.431492596865,-8.30623245239,-0.970858335495,0.01,0.0,0.0,0.0,0.01,0.0,0.0,0.0,0.01
1627577813487608385,12539,1627577813487254620,camera_accel_optical_frame,0.0,0.0,0.0,0.0,-1.0,0.0,0.0,0.0,0.0,0.0,0.0,0.0,0.0,0.0,0.0,0.0,0.01,0.0,0.0,0.0,0.01,0.0,0.0,0.0,0.01,0.28439283371,-9.95374965668,0.166713044047,0.01,0.0,0.0,0.0,0.01,0.0,0.0,0.0,0.01
1627577813503647793,12540,1627577813503088236,camera_accel_optical_frame,0.0,0.0,0.0,0.0,-1.0,0.0,0.0,0.0,0.0,0.0,0.0,0.0,0.0,0.0,0.0,0.0,0.01,0.0,0.0,0.0,0.01,0.0,0.0,0.0,0.01,0.470719188452,-10.1302690506,0.186326339841,0.01,0.0,0.0,0.0,0.01,0.0,0.0,0.0,0.01
1627577813519531334,12541,1627577813518921614,camera_accel_optical_frame,0.0,0.0,0.0,0.0,-1.0,0.0,0.0,0.0,0.0,0.0,0.0,0.0,0.0,0.0,0.0,0.0,0.01,0.0,0.0,0.0,0.01,0.0,0.0,0.0,0.01,0.411879301071,-10.2577552795,0.245166242123,0.01,0.0,0.0,0.0,0.01,0.0,0.0,0.0,0.01
1627577813534846803,12542,1627577813534756184,camera_accel_optical_frame,0.0,0.0,0.0,0.0,-1.0,0.0,0.0,0.0,0.0,0.0,0.0,0.0,0.0,0.0,0.0,0.0,0.01,0.0,0.0,0.0,0.01,0.0,0.0,0.0,0.01,0.304006129503,-9.99297618866,-0.304006129503,0.01,0.0,0.0,0.0,0.01,0.0,0.0,0.0,0.01
1627577813551050081,12543,1627577813550591469,camera_accel_optical_frame,0.0,0.0,0.0,0.0,-1.0,0.0,0.0,0.0,0.0,0.0,0.0,0.0,0.0,0.0,0.0,0.0,0.01,0.0,0.0,0.0,0.01,0.0,0.0,0.0,0.01,0.490332484245,-9.64974308014,-0.509945809841,0.01,0.0,0.0,0.0,0.01,0.0,0.0,0.0,0.01
1627577813567110104,12544,1627577813566427946,camera_accel_optical_frame,0.0,0.0,0.0,0.0,-1.0,0.0,0.0,0.0,0.0,0.0,0.0,0.0,0.0,0.0,0.0,0.0,0.01,0.0,0.0,0.0,0.01,0.0,0.0,0.0,0.01,0.343232750893,-10.0322027206,0.529559075832,0.01,0.0,0.0,0.0,0.01,0.0,0.0,0.0,0.01
1627577813583086528,12545,1627577813582261324,camera_accel_optical_frame,0.0,0.0,0.0,0.0,-1.0,0.0,0.0,0.0,0.0,0.0,0.0,0.0,0.0,0.0,0.0,0.0,0.01,0.0,0.0,0.0,0.01,0.0,0.0,0.0,0.01,0.166713044047,-9.30651092529,-0.0882598459721,0.01,0.0,0.0,0.0,0.01,0.0,0.0,0.0,0.01
1627577813598576739,12546,1627577813598094463,camera_accel_optical_frame,0.0,0.0,0.0,0.0,-1.0,0.0,0.0,0.0,0.0,0.0,0.0,0.0,0.0,0.0,0.0,0.0,0.01,0.0,0.0,0.0,0.01,0.0,0.0,0.0,0.01,0.568785667419,-9.38496398926,-0.166713044047,0.01,0.0,0.0,0.0,0.01,0.0,0.0,0.0,0.01
1627577813614456719,12547,1627577813613928795,camera_accel_optical_frame,0.0,0.0,0.0,0.0,-1.0,0.0,0.0,0.0,0.0,0.0,0.0,0.0,0.0,0.0,0.0,0.0,0.01,0.0,0.0,0.0,0.01,0.0,0.0,0.0,0.01,0.470719188452,-10.2577552795,0.264779537916,0.01,0.0,0.0,0.0,0.01,0.0,0.0,0.0,0.01
1627577813630431293,12548,1627577813629763842,camera_accel_optical_frame,0.0,0.0,0.0,0.0,-1.0,0.0,0.0,0.0,0.0,0.0,0.0,0.0,0.0,0.0,0.0,0.0,0.01,0.0,0.0,0.0,0.01,0.0,0.0,0.0,0.01,0.509945809841,-9.47322368622,0.107873149216,0.01,0.0,0.0,0.0,0.01,0.0,0.0,0.0,0.01
1627577813646041594,12549,1627577813645597935,camera_accel_optical_frame,0.0,0.0,0.0,0.0,-1.0,0.0,0.0,0.0,0.0,0.0,0.0,0.0,0.0,0.0,0.0,0.0,0.01,0.0,0.0,0.0,0.01,0.0,0.0,0.0,0.01,0.362846046686,-9.07115077972,-0.549172401428,0.01,0.0,0.0,0.0,0.01,0.0,0.0,0.0,0.01
1627577813662047499,12550,1627577813661433220,camera_accel_optical_frame,0.0,0.0,0.0,0.0,-1.0,0.0,0.0,0.0,0.0,0.0,0.0,0.0,0.0,0.0,0.0,0.0,0.01,0.0,0.0,0.0,0.01,0.0,0.0,0.0,0.01,0.686465501785,-9.64974308014,0.549172401428,0.01,0.0,0.0,0.0,0.01,0.0,0.0,0.0,0.01
1627577813677881790,12551,1627577813677268028,camera_accel_optical_frame,0.0,0.0,0.0,0.0,-1.0,0.0,0.0,0.0,0.0,0.0,0.0,0.0,0.0,0.0,0.0,0.0,0.01,0.0,0.0,0.0,0.01,0.0,0.0,0.0,0.01,0.666852176189,-9.30651092529,0.490332484245,0.01,0.0,0.0,0.0,0.01,0.0,0.0,0.0,0.01
1627577813693378436,12552,1627577813693103075,camera_accel_optical_frame,0.0,0.0,0.0,0.0,-1.0,0.0,0.0,0.0,0.0,0.0,0.0,0.0,0.0,0.0,0.0,0.0,0.01,0.0,0.0,0.0,0.01,0.0,0.0,0.0,0.01,0.745305359364,-8.62985134125,0.431492596865,0.01,0.0,0.0,0.0,0.01,0.0,0.0,0.0,0.01
1627577813709378557,12553,1627577813708936691,camera_accel_optical_frame,0.0,0.0,0.0,0.0,-1.0,0.0,0.0,0.0,0.0,0.0,0.0,0.0,0.0,0.0,0.0,0.0,0.01,0.0,0.0,0.0,0.01,0.0,0.0,0.0,0.01,0.706078767776,-9.64974308014,0.608012259007,0.01,0.0,0.0,0.0,0.01,0.0,0.0,0.0,0.01
1627577813725114042,12554,1627577813724771500,camera_accel_optical_frame,0.0,0.0,0.0,0.0,-1.0,0.0,0.0,0.0,0.0,0.0,0.0,0.0,0.0,0.0,0.0,0.0,0.01,0.0,0.0,0.0,0.01,0.0,0.0,0.0,0.01,0.470719188452,-10.9736413956,0.549172401428,0.01,0.0,0.0,0.0,0.01,0.0,0.0,0.0,0.01
1627577813741163811,12555,1627577813740605116,camera_accel_optical_frame,0.0,0.0,0.0,0.0,-1.0,0.0,0.0,0.0,0.0,0.0,0.0,0.0,0.0,0.0,0.0,0.0,0.01,0.0,0.0,0.0,0.01,0.0,0.0,0.0,0.01,0.166713044047,-10.1694955826,-0.205939650536,0.01,0.0,0.0,0.0,0.01,0.0,0.0,0.0,0.01
1627577813756909034,12556,1627577813756442070,camera_accel_optical_frame,0.0,0.0,0.0,0.0,-1.0,0.0,0.0,0.0,0.0,0.0,0.0,0.0,0.0,0.0,0.0,0.0,0.01,0.0,0.0,0.0,0.01,0.0,0.0,0.0,0.01,0.304006129503,-10.2283353806,0.343232750893,0.01,0.0,0.0,0.0,0.01,0.0,0.0,0.0,0.01
1627577813772725261,12557,1627577813772278547,camera_accel_optical_frame,0.0,0.0,0.0,0.0,-1.0,0.0,0.0,0.0,0.0,0.0,0.0,0.0,0.0,0.0,0.0,0.0,0.01,0.0,0.0,0.0,0.01,0.0,0.0,0.0,0.01,0.745305359364,-10.8559608459,1.73577702045,0.01,0.0,0.0,0.0,0.01,0.0,0.0,0.0,0.01
1627577813788894393,12558,1627577813788115263,camera_accel_optical_frame,0.0,0.0,0.0,0.0,-1.0,0.0,0.0,0.0,0.0,0.0,0.0,0.0,0.0,0.0,0.0,0.0,0.01,0.0,0.0,0.0,0.01,0.0,0.0,0.0,0.01,0.764918684959,-9.36535072327,0.509945809841,0.01,0.0,0.0,0.0,0.01,0.0,0.0,0.0,0.01
1627577813804710894,12559,1627577813803949594,camera_accel_optical_frame,0.0,0.0,0.0,0.0,-1.0,0.0,0.0,0.0,0.0,0.0,0.0,0.0,0.0,0.0,0.0,0.0,0.01,0.0,0.0,0.0,0.01,0.0,0.0,0.0,0.01,0.402072638273,-9.70858287811,0.804145276546,0.01,0.0,0.0,0.0,0.01,0.0,0.0,0.0,0.01
1627577813820460227,12560,1627577813819784164,camera_accel_optical_frame,0.0,0.0,0.0,0.0,-1.0,0.0,0.0,0.0,0.0,0.0,0.0,0.0,0.0,0.0,0.0,0.0,0.01,0.0,0.0,0.0,0.01,0.0,0.0,0.0,0.01,0.431492596865,-9.63012981415,0.0,0.01,0.0,0.0,0.0,0.01,0.0,0.0,0.0,0.01
1627577813836175574,12561,1627577813835619688,camera_accel_optical_frame,0.0,0.0,0.0,0.0,-1.0,0.0,0.0,0.0,0.0,0.0,0.0,0.0,0.0,0.0,0.0,0.0,0.01,0.0,0.0,0.0,0.01,0.0,0.0,0.0,0.01,0.323619455099,-10.1498823166,0.38245934248,0.01,0.0,0.0,0.0,0.01,0.0,0.0,0.0,0.01
1627577813852074366,12562,1627577813851452112,camera_accel_optical_frame,0.0,0.0,0.0,0.0,-1.0,0.0,0.0,0.0,0.0,0.0,0.0,0.0,0.0,0.0,0.0,0.0,0.01,0.0,0.0,0.0,0.01,0.0,0.0,0.0,0.01,0.411879301071,-9.26728439331,-0.686465501785,0.01,0.0,0.0,0.0,0.01,0.0,0.0,0.0,0.01
1627577813868055098,12563,1627577813867288351,camera_accel_optical_frame,0.0,0.0,0.0,0.0,-1.0,0.0,0.0,0.0,0.0,0.0,0.0,0.0,0.0,0.0,0.0,0.0,0.01,0.0,0.0,0.0,0.01,0.0,0.0,0.0,0.01,0.323619455099,-10.4735021591,0.568785667419,0.01,0.0,0.0,0.0,0.01,0.0,0.0,0.0,0.01
1627577813883884906,12564,1627577813883121490,camera_accel_optical_frame,0.0,0.0,0.0,0.0,-1.0,0.0,0.0,0.0,0.0,0.0,0.0,0.0,0.0,0.0,0.0,0.0,0.01,0.0,0.0,0.0,0.01,0.0,0.0,0.0,0.01,0.529559075832,-8.6886920929,-0.509945809841,0.01,0.0,0.0,0.0,0.01,0.0,0.0,0.0,0.01
1627577813900180995,12565,1627577813898956776,camera_accel_optical_frame,0.0,0.0,0.0,0.0,-1.0,0.0,0.0,0.0,0.0,0.0,0.0,0.0,0.0,0.0,0.0,0.0,0.01,0.0,0.0,0.0,0.01,0.0,0.0,0.0,0.01,0.323619455099,-9.07115077972,0.107873149216,0.01,0.0,0.0,0.0,0.01,0.0,0.0,0.0,0.01
1627577813915866086,12566,1627577813914790154,camera_accel_optical_frame,0.0,0.0,0.0,0.0,-1.0,0.0,0.0,0.0,0.0,0.0,0.0,0.0,0.0,0.0,0.0,0.0,0.01,0.0,0.0,0.0,0.01,0.0,0.0,0.0,0.01,0.549172401428,-9.59090328217,0.431492596865,0.01,0.0,0.0,0.0,0.01,0.0,0.0,0.0,0.01
1627577813931410845,12567,1627577813930623055,camera_accel_optical_frame,0.0,0.0,0.0,0.0,-1.0,0.0,0.0,0.0,0.0,0.0,0.0,0.0,0.0,0.0,0.0,0.0,0.01,0.0,0.0,0.0,0.01,0.0,0.0,0.0,0.01,0.411879301071,-9.99297618866,0.813951909542,0.01,0.0,0.0,0.0,0.01,0.0,0.0,0.0,0.01
1627577813947459269,12568,1627577813946457148,camera_accel_optical_frame,0.0,0.0,0.0,0.0,-1.0,0.0,0.0,0.0,0.0,0.0,0.0,0.0,0.0,0.0,0.0,0.0,0.01,0.0,0.0,0.0,0.01,0.0,0.0,0.0,0.01,0.304006129503,-8.88482475281,-0.323619455099,0.01,0.0,0.0,0.0,0.01,0.0,0.0,0.0,0.01
1627577813963276109,12569,1627577813962293148,camera_accel_optical_frame,0.0,0.0,0.0,0.0,-1.0,0.0,0.0,0.0,0.0,0.0,0.0,0.0,0.0,0.0,0.0,0.0,0.01,0.0,0.0,0.0,0.01,0.0,0.0,0.0,0.01,0.804145276546,-9.30651092529,1.02969825268,0.01,0.0,0.0,0.0,0.01,0.0,0.0,0.0,0.01
1627577813979152300,12570,1627577813978129387,camera_accel_optical_frame,0.0,0.0,0.0,0.0,-1.0,0.0,0.0,0.0,0.0,0.0,0.0,0.0,0.0,0.0,0.0,0.0,0.01,0.0,0.0,0.0,0.01,0.0,0.0,0.0,0.01,0.892405152321,-9.5124502182,1.08853816986,0.01,0.0,0.0,0.0,0.01,0.0,0.0,0.0,0.01
1627577813995155387,12571,1627577813993964434,camera_accel_optical_frame,0.0,0.0,0.0,0.0,-1.0,0.0,0.0,0.0,0.0,0.0,0.0,0.0,0.0,0.0,0.0,0.0,0.01,0.0,0.0,0.0,0.01,0.0,0.0,0.0,0.01,0.362846046686,-9.05153751373,-0.402072638273,0.01,0.0,0.0,0.0,0.01,0.0,0.0,0.0,0.01
1627577814010391824,12572,1627577814009801388,camera_accel_optical_frame,0.0,0.0,0.0,0.0,-1.0,0.0,0.0,0.0,0.0,0.0,0.0,0.0,0.0,0.0,0.0,0.0,0.01,0.0,0.0,0.0,0.01,0.0,0.0,0.0,0.01,0.28439283371,-9.40457725525,-0.0686465501785,0.01,0.0,0.0,0.0,0.01,0.0,0.0,0.0,0.01
1627577814026340696,12573,1627577814025636196,camera_accel_optical_frame,0.0,0.0,0.0,0.0,-1.0,0.0,0.0,0.0,0.0,0.0,0.0,0.0,0.0,0.0,0.0,0.0,0.01,0.0,0.0,0.0,0.01,0.0,0.0,0.0,0.01,0.490332484245,-9.81645679474,0.107873149216,0.01,0.0,0.0,0.0,0.01,0.0,0.0,0.0,0.01
1627577814042069807,12574,1627577814041472197,camera_accel_optical_frame,0.0,0.0,0.0,0.0,-1.0,0.0,0.0,0.0,0.0,0.0,0.0,0.0,0.0,0.0,0.0,0.0,0.01,0.0,0.0,0.0,0.01,0.0,0.0,0.0,0.01,0.362846046686,-10.1498823166,0.411879301071,0.01,0.0,0.0,0.0,0.01,0.0,0.0,0.0,0.01
1627577814058006890,12575,1627577814057304859,camera_accel_optical_frame,0.0,0.0,0.0,0.0,-1.0,0.0,0.0,0.0,0.0,0.0,0.0,0.0,0.0,0.0,0.0,0.0,0.01,0.0,0.0,0.0,0.01,0.0,0.0,0.0,0.01,-0.0686465501785,-10.5911817551,-0.323619455099,0.01,0.0,0.0,0.0,0.01,0.0,0.0,0.0,0.01
1627577814074083651,12576,1627577814073139668,camera_accel_optical_frame,0.0,0.0,0.0,0.0,-1.0,0.0,0.0,0.0,0.0,0.0,0.0,0.0,0.0,0.0,0.0,0.0,0.01,0.0,0.0,0.0,0.01,0.0,0.0,0.0,0.01,-0.0882598459721,-10.9540281296,-0.304006129503,0.01,0.0,0.0,0.0,0.01,0.0,0.0,0.0,0.01
1627577814089689522,12577,1627577814088975430,camera_accel_optical_frame,0.0,0.0,0.0,0.0,-1.0,0.0,0.0,0.0,0.0,0.0,0.0,0.0,0.0,0.0,0.0,0.0,0.01,0.0,0.0,0.0,0.01,0.0,0.0,0.0,0.01,0.745305359364,-10.679441452,1.18660461903,0.01,0.0,0.0,0.0,0.01,0.0,0.0,0.0,0.01
1627577814105650440,12578,1627577814104810953,camera_accel_optical_frame,0.0,0.0,0.0,0.0,-1.0,0.0,0.0,0.0,0.0,0.0,0.0,0.0,0.0,0.0,0.0,0.0,0.01,0.0,0.0,0.0,0.01,0.0,0.0,0.0,0.01,0.568785667419,-9.87529659271,0.725692093372,0.01,0.0,0.0,0.0,0.01,0.0,0.0,0.0,0.01
1627577814121657083,12579,1627577814120642662,camera_accel_optical_frame,0.0,0.0,0.0,0.0,-1.0,0.0,0.0,0.0,0.0,0.0,0.0,0.0,0.0,0.0,0.0,0.0,0.01,0.0,0.0,0.0,0.01,0.0,0.0,0.0,0.01,0.12748645246,-9.83607006073,0.12748645246,0.01,0.0,0.0,0.0,0.01,0.0,0.0,0.0,0.01
1627577814137400293,12580,1627577814136476040,camera_accel_optical_frame,0.0,0.0,0.0,0.0,-1.0,0.0,0.0,0.0,0.0,0.0,0.0,0.0,0.0,0.0,0.0,0.0,0.01,0.0,0.0,0.0,0.01,0.0,0.0,0.0,0.01,0.813951909542,-9.2868976593,0.686465501785,0.01,0.0,0.0,0.0,0.01,0.0,0.0,0.0,0.01
1627577814153273186,12581,1627577814152310610,camera_accel_optical_frame,0.0,0.0,0.0,0.0,-1.0,0.0,0.0,0.0,0.0,0.0,0.0,0.0,0.0,0.0,0.0,0.0,0.01,0.0,0.0,0.0,0.01,0.0,0.0,0.0,0.01,0.568785667419,-9.68896961212,0.647238910198,0.01,0.0,0.0,0.0,0.01,0.0,0.0,0.0,0.01
1627577814169221503,12582,1627577814168143034,camera_accel_optical_frame,0.0,0.0,0.0,0.0,-1.0,0.0,0.0,0.0,0.0,0.0,0.0,0.0,0.0,0.0,0.0,0.0,0.01,0.0,0.0,0.0,0.01,0.0,0.0,0.0,0.01,0.166713044047,-9.34573745728,-1.2552511692,0.01,0.0,0.0,0.0,0.01,0.0,0.0,0.0,0.01
1627577814185051833,12583,1627577814183978319,camera_accel_optical_frame,0.0,0.0,0.0,0.0,-1.0,0.0,0.0,0.0,0.0,0.0,0.0,0.0,0.0,0.0,0.0,0.0,0.01,0.0,0.0,0.0,0.01,0.0,0.0,0.0,0.01,0.451105892658,-10.4146623611,0.745305359364,0.01,0.0,0.0,0.0,0.01,0.0,0.0,0.0,0.01
1627577814200730754,12584,1627577814199809551,camera_accel_optical_frame,0.0,0.0,0.0,0.0,-1.0,0.0,0.0,0.0,0.0,0.0,0.0,0.0,0.0,0.0,0.0,0.0,0.01,0.0,0.0,0.0,0.01,0.0,0.0,0.0,0.01,0.608012259007,-8.84559822083,-0.588398993015,0.01,0.0,0.0,0.0,0.01,0.0,0.0,0.0,0.01
1627577814216883929,12585,1627577814215643883,camera_accel_optical_frame,0.0,0.0,0.0,0.0,-1.0,0.0,0.0,0.0,0.0,0.0,0.0,0.0,0.0,0.0,0.0,0.0,0.01,0.0,0.0,0.0,0.01,0.0,0.0,0.0,0.01,0.225552946329,-8.84559822083,0.411879301071,0.01,0.0,0.0,0.0,0.01,0.0,0.0,0.0,0.01
1627577814232642626,12586,1627577814231476068,camera_accel_optical_frame,0.0,0.0,0.0,0.0,-1.0,0.0,0.0,0.0,0.0,0.0,0.0,0.0,0.0,0.0,0.0,0.0,0.01,0.0,0.0,0.0,0.01,0.0,0.0,0.0,0.01,0.38245934248,-7.65899324417,-0.813951909542,0.01,0.0,0.0,0.0,0.01,0.0,0.0,0.0,0.01
1627577814248427477,12587,1627577814247310162,camera_accel_optical_frame,0.0,0.0,0.0,0.0,-1.0,0.0,0.0,0.0,0.0,0.0,0.0,0.0,0.0,0.0,0.0,0.0,0.01,0.0,0.0,0.0,0.01,0.0,0.0,0.0,0.01,0.304006129503,-9.22805786133,0.549172401428,0.01,0.0,0.0,0.0,0.01,0.0,0.0,0.0,0.01
1627577814264666951,12588,1627577814263141394,camera_accel_optical_frame,0.0,0.0,0.0,0.0,-1.0,0.0,0.0,0.0,0.0,0.0,0.0,0.0,0.0,0.0,0.0,0.0,0.01,0.0,0.0,0.0,0.01,0.0,0.0,0.0,0.01,0.529559075832,-9.05153751373,-0.186326339841,0.01,0.0,0.0,0.0,0.01,0.0,0.0,0.0,0.01
1627577814280251909,12589,1627577814278975248,camera_accel_optical_frame,0.0,0.0,0.0,0.0,-1.0,0.0,0.0,0.0,0.0,0.0,0.0,0.0,0.0,0.0,0.0,0.0,0.01,0.0,0.0,0.0,0.01,0.0,0.0,0.0,0.01,0.411879301071,-11.522813797,0.627625584602,0.01,0.0,0.0,0.0,0.01,0.0,0.0,0.0,0.01
1627577814295920366,12590,1627577814294808149,camera_accel_optical_frame,0.0,0.0,0.0,0.0,-1.0,0.0,0.0,0.0,0.0,0.0,0.0,0.0,0.0,0.0,0.0,0.0,0.01,0.0,0.0,0.0,0.01,0.0,0.0,0.0,0.01,0.813951909542,-12.2583122253,0.666852176189,0.01,0.0,0.0,0.0,0.01,0.0,0.0,0.0,0.01
1627577814311886884,12591,1627577814310640097,camera_accel_optical_frame,0.0,0.0,0.0,0.0,-1.0,0.0,0.0,0.0,0.0,0.0,0.0,0.0,0.0,0.0,0.0,0.0,0.01,0.0,0.0,0.0,0.01,0.0,0.0,0.0,0.01,0.568785667419,-11.3757133484,0.549172401428,0.01,0.0,0.0,0.0,0.01,0.0,0.0,0.0,0.01
1627577814327559067,12592,1627577814326470852,camera_accel_optical_frame,0.0,0.0,0.0,0.0,-1.0,0.0,0.0,0.0,0.0,0.0,0.0,0.0,0.0,0.0,0.0,0.0,0.01,0.0,0.0,0.0,0.01,0.0,0.0,0.0,0.01,0.764918684959,-10.679441452,0.0882598459721,0.01,0.0,0.0,0.0,0.01,0.0,0.0,0.0,0.01
1627577814343514739,12593,1627577814342302799,camera_accel_optical_frame,0.0,0.0,0.0,0.0,-1.0,0.0,0.0,0.0,0.0,0.0,0.0,0.0,0.0,0.0,0.0,0.0,0.01,0.0,0.0,0.0,0.01,0.0,0.0,0.0,0.01,0.568785667419,-10.8559608459,0.588398993015,0.01,0.0,0.0,0.0,0.01,0.0,0.0,0.0,0.01
1627577814359130978,12594,1627577814358134508,camera_accel_optical_frame,0.0,0.0,0.0,0.0,-1.0,0.0,0.0,0.0,0.0,0.0,0.0,0.0,0.0,0.0,0.0,0.0,0.01,0.0,0.0,0.0,0.01,0.0,0.0,0.0,0.01,0.529559075832,-8.46313858032,-0.804145276546,0.01,0.0,0.0,0.0,0.01,0.0,0.0,0.0,0.01
1627577814374867180,12595,1627577814373969316,camera_accel_optical_frame,0.0,0.0,0.0,0.0,-1.0,0.0,0.0,0.0,0.0,0.0,0.0,0.0,0.0,0.0,0.0,0.0,0.01,0.0,0.0,0.0,0.01,0.0,0.0,0.0,0.01,0.529559075832,-9.18883037567,1.18660461903,0.01,0.0,0.0,0.0,0.01,0.0,0.0,0.0,0.01
1627577814390819543,12596,1627577814389800787,camera_accel_optical_frame,0.0,0.0,0.0,0.0,-1.0,0.0,0.0,0.0,0.0,0.0,0.0,0.0,0.0,0.0,0.0,0.0,0.01,0.0,0.0,0.0,0.01,0.0,0.0,0.0,0.01,0.451105892658,-8.10029315948,-0.451105892658,0.01,0.0,0.0,0.0,0.01,0.0,0.0,0.0,0.01
1627577814406683562,12597,1627577814405634165,camera_accel_optical_frame,0.0,0.0,0.0,0.0,-1.0,0.0,0.0,0.0,0.0,0.0,0.0,0.0,0.0,0.0,0.0,0.0,0.01,0.0,0.0,0.0,0.01,0.0,0.0,0.0,0.01,0.323619455099,-9.61051654816,0.784531950951,0.01,0.0,0.0,0.0,0.01,0.0,0.0,0.0,0.01
1627577814422586336,12598,1627577814421467781,camera_accel_optical_frame,0.0,0.0,0.0,0.0,-1.0,0.0,0.0,0.0,0.0,0.0,0.0,0.0,0.0,0.0,0.0,0.0,0.01,0.0,0.0,0.0,0.01,0.0,0.0,0.0,0.01,0.627625584602,-9.5124502182,0.264779537916,0.01,0.0,0.0,0.0,0.01,0.0,0.0,0.0,0.01
1627577814438570553,12599,1627577814437301159,camera_accel_optical_frame,0.0,0.0,0.0,0.0,-1.0,0.0,0.0,0.0,0.0,0.0,0.0,0.0,0.0,0.0,0.0,0.0,0.01,0.0,0.0,0.0,0.01,0.0,0.0,0.0,0.01,0.431492596865,-10.4538888931,1.06892478466,0.01,0.0,0.0,0.0,0.01,0.0,0.0,0.0,0.01
1627577814454376021,12600,1627577814453132629,camera_accel_optical_frame,0.0,0.0,0.0,0.0,-1.0,0.0,0.0,0.0,0.0,0.0,0.0,0.0,0.0,0.0,0.0,0.0,0.01,0.0,0.0,0.0,0.01,0.0,0.0,0.0,0.01,0.853178501129,-9.24767112732,-0.147099748254,0.01,0.0,0.0,0.0,0.01,0.0,0.0,0.0,0.01
1627577814470427588,12601,1627577814468965769,camera_accel_optical_frame,0.0,0.0,0.0,0.0,-1.0,0.0,0.0,0.0,0.0,0.0,0.0,0.0,0.0,0.0,0.0,0.0,0.01,0.0,0.0,0.0,0.01,0.0,0.0,0.0,0.01,0.402072638273,-9.99297618866,1.23563790321,0.01,0.0,0.0,0.0,0.01,0.0,0.0,0.0,0.01
1627577814486706803,12602,1627577814484797001,camera_accel_optical_frame,0.0,0.0,0.0,0.0,-1.0,0.0,0.0,0.0,0.0,0.0,0.0,0.0,0.0,0.0,0.0,0.0,0.01,0.0,0.0,0.0,0.01,0.0,0.0,0.0,0.01,0.411879301071,-7.75706005096,-0.892405152321,0.01,0.0,0.0,0.0,0.01,0.0,0.0,0.0,0.01
1627577814502009023,12603,1627577814500628471,camera_accel_optical_frame,0.0,0.0,0.0,0.0,-1.0,0.0,0.0,0.0,0.0,0.0,0.0,0.0,0.0,0.0,0.0,0.0,0.01,0.0,0.0,0.0,0.01,0.0,0.0,0.0,0.01,0.323619455099,-9.16921710968,0.588398993015,0.01,0.0,0.0,0.0,0.01,0.0,0.0,0.0,0.01
1627577814517659209,12604,1627577814516460657,camera_accel_optical_frame,0.0,0.0,0.0,0.0,-1.0,0.0,0.0,0.0,0.0,0.0,0.0,0.0,0.0,0.0,0.0,0.0,0.01,0.0,0.0,0.0,0.01,0.0,0.0,0.0,0.01,0.588398993015,-9.09076404572,0.0,0.01,0.0,0.0,0.0,0.01,0.0,0.0,0.0,0.01
1627577814533620050,12605,1627577814532295704,camera_accel_optical_frame,0.0,0.0,0.0,0.0,-1.0,0.0,0.0,0.0,0.0,0.0,0.0,0.0,0.0,0.0,0.0,0.0,0.01,0.0,0.0,0.0,0.01,0.0,0.0,0.0,0.01,0.402072638273,-9.7281961441,0.892405152321,0.01,0.0,0.0,0.0,0.01,0.0,0.0,0.0,0.01
1627577814549736844,12606,1627577814548127651,camera_accel_optical_frame,0.0,0.0,0.0,0.0,-1.0,0.0,0.0,0.0,0.0,0.0,0.0,0.0,0.0,0.0,0.0,0.0,0.01,0.0,0.0,0.0,0.01,0.0,0.0,0.0,0.01,0.28439283371,-9.45361042023,-0.28439283371,0.01,0.0,0.0,0.0,0.01,0.0,0.0,0.0,0.01
1627577814565377587,12607,1627577814563962698,camera_accel_optical_frame,0.0,0.0,0.0,0.0,-1.0,0.0,0.0,0.0,0.0,0.0,0.0,0.0,0.0,0.0,0.0,0.0,0.01,0.0,0.0,0.0,0.01,0.0,0.0,0.0,0.01,0.362846046686,-10.9932546616,0.627625584602,0.01,0.0,0.0,0.0,0.01,0.0,0.0,0.0,0.01
1627577814581353099,12608,1627577814579796553,camera_accel_optical_frame,0.0,0.0,0.0,0.0,-1.0,0.0,0.0,0.0,0.0,0.0,0.0,0.0,0.0,0.0,0.0,0.0,0.01,0.0,0.0,0.0,0.01,0.0,0.0,0.0,0.01,0.38245934248,-10.3165950775,0.362846046686,0.01,0.0,0.0,0.0,0.01,0.0,0.0,0.0,0.01
1627577814596900788,12609,1627577814595629454,camera_accel_optical_frame,0.0,0.0,0.0,0.0,-1.0,0.0,0.0,0.0,0.0,0.0,0.0,0.0,0.0,0.0,0.0,0.0,0.01,0.0,0.0,0.0,0.01,0.0,0.0,0.0,0.01,0.647238910198,-9.16921710968,0.264779537916,0.01,0.0,0.0,0.0,0.01,0.0,0.0,0.0,0.01
1627577814612764713,12610,1627577814611461163,camera_accel_optical_frame,0.0,0.0,0.0,0.0,-1.0,0.0,0.0,0.0,0.0,0.0,0.0,0.0,0.0,0.0,0.0,0.0,0.01,0.0,0.0,0.0,0.01,0.0,0.0,0.0,0.01,0.647238910198,-10.3558225632,0.970858335495,0.01,0.0,0.0,0.0,0.01,0.0,0.0,0.0,0.01
1627577814628837017,12611,1627577814627291918,camera_accel_optical_frame,0.0,0.0,0.0,0.0,-1.0,0.0,0.0,0.0,0.0,0.0,0.0,0.0,0.0,0.0,0.0,0.0,0.01,0.0,0.0,0.0,0.01,0.0,0.0,0.0,0.01,0.568785667419,-10.2283353806,0.0,0.01,0.0,0.0,0.0,0.01,0.0,0.0,0.0,0.01
1627577814644652156,12612,1627577814643123865,camera_accel_optical_frame,0.0,0.0,0.0,0.0,-1.0,0.0,0.0,0.0,0.0,0.0,0.0,0.0,0.0,0.0,0.0,0.0,0.01,0.0,0.0,0.0,0.01,0.0,0.0,0.0,0.01,0.323619455099,-10.5323419571,0.951245009899,0.01,0.0,0.0,0.0,0.01,0.0,0.0,0.0,0.01
1627577814660124135,12613,1627577814658957243,camera_accel_optical_frame,0.0,0.0,0.0,0.0,-1.0,0.0,0.0,0.0,0.0,0.0,0.0,0.0,0.0,0.0,0.0,0.0,0.01,0.0,0.0,0.0,0.01,0.0,0.0,0.0,0.01,0.666852176189,-9.91452312469,0.264779537916,0.01,0.0,0.0,0.0,0.01,0.0,0.0,0.0,0.01
1627577814676141097,12614,1627577814674787760,camera_accel_optical_frame,0.0,0.0,0.0,0.0,-1.0,0.0,0.0,0.0,0.0,0.0,0.0,0.0,0.0,0.0,0.0,0.0,0.01,0.0,0.0,0.0,0.01,0.0,0.0,0.0,0.01,0.411879301071,-10.5127286911,0.912018418312,0.01,0.0,0.0,0.0,0.01,0.0,0.0,0.0,0.01
1627577814691842021,12615,1627577814690618515,camera_accel_optical_frame,0.0,0.0,0.0,0.0,-1.0,0.0,0.0,0.0,0.0,0.0,0.0,0.0,0.0,0.0,0.0,0.0,0.01,0.0,0.0,0.0,0.01,0.0,0.0,0.0,0.01,0.304006129503,-8.70830535889,-0.951245009899,0.01,0.0,0.0,0.0,0.01,0.0,0.0,0.0,0.01
1627577814707887483,12616,1627577814706451893,camera_accel_optical_frame,0.0,0.0,0.0,0.0,-1.0,0.0,0.0,0.0,0.0,0.0,0.0,0.0,0.0,0.0,0.0,0.0,0.01,0.0,0.0,0.0,0.01,0.0,0.0,0.0,0.01,0.38245934248,-9.38496398926,0.304006129503,0.01,0.0,0.0,0.0,0.01,0.0,0.0,0.0,0.01
1627577814723592386,12617,1627577814722281218,camera_accel_optical_frame,0.0,0.0,0.0,0.0,-1.0,0.0,0.0,0.0,0.0,0.0,0.0,0.0,0.0,0.0,0.0,0.0,0.01,0.0,0.0,0.0,0.01,0.0,0.0,0.0,0.01,0.706078767776,-8.74753189087,-0.431492596865,0.01,0.0,0.0,0.0,0.01,0.0,0.0,0.0,0.01
1627577814739338454,12618,1627577814738112688,camera_accel_optical_frame,0.0,0.0,0.0,0.0,-1.0,0.0,0.0,0.0,0.0,0.0,0.0,0.0,0.0,0.0,0.0,0.0,0.01,0.0,0.0,0.0,0.01,0.0,0.0,0.0,0.01,0.402072638273,-9.20844459534,0.107873149216,0.01,0.0,0.0,0.0,0.01,0.0,0.0,0.0,0.01
1627577814755429694,12619,1627577814753943205,camera_accel_optical_frame,0.0,0.0,0.0,0.0,-1.0,0.0,0.0,0.0,0.0,0.0,0.0,0.0,0.0,0.0,0.0,0.0,0.01,0.0,0.0,0.0,0.01,0.0,0.0,0.0,0.01,0.402072638273,-9.14960384369,-0.784531950951,0.01,0.0,0.0,0.0,0.01,0.0,0.0,0.0,0.01
1627577814771354444,12620,1627577814769776344,camera_accel_optical_frame,0.0,0.0,0.0,0.0,-1.0,0.0,0.0,0.0,0.0,0.0,0.0,0.0,0.0,0.0,0.0,0.0,0.01,0.0,0.0,0.0,0.01,0.0,0.0,0.0,0.01,0.627625584602,-10.5911817551,0.725692093372,0.01,0.0,0.0,0.0,0.01,0.0,0.0,0.0,0.01
1627577814787168330,12621,1627577814785608292,camera_accel_optical_frame,0.0,0.0,0.0,0.0,-1.0,0.0,0.0,0.0,0.0,0.0,0.0,0.0,0.0,0.0,0.0,0.0,0.01,0.0,0.0,0.0,0.01,0.0,0.0,0.0,0.01,0.745305359364,-10.2087221146,0.784531950951,0.01,0.0,0.0,0.0,0.01,0.0,0.0,0.0,0.01
1627577814803032147,12622,1627577814801437616,camera_accel_optical_frame,0.0,0.0,0.0,0.0,-1.0,0.0,0.0,0.0,0.0,0.0,0.0,0.0,0.0,0.0,0.0,0.0,0.01,0.0,0.0,0.0,0.01,0.0,0.0,0.0,0.01,0.402072638273,-9.14960384369,0.0,0.01,0.0,0.0,0.0,0.01,0.0,0.0,0.0,0.01
1627577814818872495,12623,1627577814817271709,camera_accel_optical_frame,0.0,0.0,0.0,0.0,-1.0,0.0,0.0,0.0,0.0,0.0,0.0,0.0,0.0,0.0,0.0,0.0,0.01,0.0,0.0,0.0,0.01,0.0,0.0,0.0,0.01,0.264779537916,-10.3362092972,0.470719188452,0.01,0.0,0.0,0.0,0.01,0.0,0.0,0.0,0.01
1627577814834864792,12624,1627577814833101511,camera_accel_optical_frame,0.0,0.0,0.0,0.0,-1.0,0.0,0.0,0.0,0.0,0.0,0.0,0.0,0.0,0.0,0.0,0.0,0.01,0.0,0.0,0.0,0.01,0.0,0.0,0.0,0.01,0.323619455099,-10.2577552795,0.00980664975941,0.01,0.0,0.0,0.0,0.01,0.0,0.0,0.0,0.01
1627577814851384700,12625,1627577814848934650,camera_accel_optical_frame,0.0,0.0,0.0,0.0,-1.0,0.0,0.0,0.0,0.0,0.0,0.0,0.0,0.0,0.0,0.0,0.0,0.01,0.0,0.0,0.0,0.01,0.0,0.0,0.0,0.01,0.470719188452,-9.85568332672,0.872791826725,0.01,0.0,0.0,0.0,0.01,0.0,0.0,0.0,0.01
1627577814866785925,12626,1627577814864765406,camera_accel_optical_frame,0.0,0.0,0.0,0.0,-1.0,0.0,0.0,0.0,0.0,0.0,0.0,0.0,0.0,0.0,0.0,0.0,0.01,0.0,0.0,0.0,0.01,0.0,0.0,0.0,0.01,0.362846046686,-9.66935634613,-0.186326339841,0.01,0.0,0.0,0.0,0.01,0.0,0.0,0.0,0.01
1627577814882205055,12627,1627577814880597353,camera_accel_optical_frame,0.0,0.0,0.0,0.0,-1.0,0.0,0.0,0.0,0.0,0.0,0.0,0.0,0.0,0.0,0.0,0.0,0.01,0.0,0.0,0.0,0.01,0.0,0.0,0.0,0.01,0.304006129503,-10.4538888931,0.725692093372,0.01,0.0,0.0,0.0,0.01,0.0,0.0,0.0,0.01
1627577814898481428,12628,1627577814896429300,camera_accel_optical_frame,0.0,0.0,0.0,0.0,-1.0,0.0,0.0,0.0,0.0,0.0,0.0,0.0,0.0,0.0,0.0,0.0,0.01,0.0,0.0,0.0,0.01,0.0,0.0,0.0,0.01,0.402072638273,-9.11037731171,-0.647238910198,0.01,0.0,0.0,0.0,0.01,0.0,0.0,0.0,0.01
1627577814914510158,12629,1627577814912262917,camera_accel_optical_frame,0.0,0.0,0.0,0.0,-1.0,0.0,0.0,0.0,0.0,0.0,0.0,0.0,0.0,0.0,0.0,0.0,0.01,0.0,0.0,0.0,0.01,0.0,0.0,0.0,0.01,0.549172401428,-9.7478094101,1.02969825268,0.01,0.0,0.0,0.0,0.01,0.0,0.0,0.0,0.01
1627577814930012569,12630,1627577814928093433,camera_accel_optical_frame,0.0,0.0,0.0,0.0,-1.0,0.0,0.0,0.0,0.0,0.0,0.0,0.0,0.0,0.0,0.0,0.0,0.01,0.0,0.0,0.0,0.01,0.0,0.0,0.0,0.01,0.451105892658,-9.2868976593,-0.28439283371,0.01,0.0,0.0,0.0,0.01,0.0,0.0,0.0,0.01
1627577814945866725,12631,1627577814943926096,camera_accel_optical_frame,0.0,0.0,0.0,0.0,-1.0,0.0,0.0,0.0,0.0,0.0,0.0,0.0,0.0,0.0,0.0,0.0,0.01,0.0,0.0,0.0,0.01,0.0,0.0,0.0,0.01,0.402072638273,-9.2868976593,0.343232750893,0.01,0.0,0.0,0.0,0.01,0.0,0.0,0.0,0.01
1627577814962261440,12632,1627577814959768772,camera_accel_optical_frame,0.0,0.0,0.0,0.0,-1.0,0.0,0.0,0.0,0.0,0.0,0.0,0.0,0.0,0.0,0.0,0.0,0.01,0.0,0.0,0.0,0.01,0.0,0.0,0.0,0.01,0.431492596865,-9.07115077972,-0.107873149216,0.01,0.0,0.0,0.0,0.01,0.0,0.0,0.0,0.01
1627577814977226575,12633,1627577814975607157,camera_accel_optical_frame,0.0,0.0,0.0,0.0,-1.0,0.0,0.0,0.0,0.0,0.0,0.0,0.0,0.0,0.0,0.0,0.0,0.01,0.0,0.0,0.0,0.01,0.0,0.0,0.0,0.01,0.745305359364,-9.38496398926,0.912018418312,0.01,0.0,0.0,0.0,0.01,0.0,0.0,0.0,0.01
1627577814993175537,12634,1627577814991443396,camera_accel_optical_frame,0.0,0.0,0.0,0.0,-1.0,0.0,0.0,0.0,0.0,0.0,0.0,0.0,0.0,0.0,0.0,0.0,0.01,0.0,0.0,0.0,0.01,0.0,0.0,0.0,0.01,0.745305359364,-9.57129001617,0.627625584602,0.01,0.0,0.0,0.0,0.01,0.0,0.0,0.0,0.01
1627577815008814639,12635,1627577815007277489,camera_accel_optical_frame,0.0,0.0,0.0,0.0,-1.0,0.0,0.0,0.0,0.0,0.0,0.0,0.0,0.0,0.0,0.0,0.0,0.01,0.0,0.0,0.0,0.01,0.0,0.0,0.0,0.01,0.608012259007,-9.80665016174,0.186326339841,0.01,0.0,0.0,0.0,0.01,0.0,0.0,0.0,0.01
