%time,field.header.seq,field.header.stamp,field.header.frame_id,field.orientation.x,field.orientation.y,field.orientation.z,field.orientation.w,field.orientation_covariance0,field.orientation_covariance1,field.orientation_covariance2,field.orientation_covariance3,field.orientation_covariance4,field.orientation_covariance5,field.orientation_covariance6,field.orientation_covariance7,field.orientation_covariance8,field.angular_velocity.x,field.angular_velocity.y,field.angular_velocity.z,field.angular_velocity_covariance0,field.angular_velocity_covariance1,field.angular_velocity_covariance2,field.angular_velocity_covariance3,field.angular_velocity_covariance4,field.angular_velocity_covariance5,field.angular_velocity_covariance6,field.angular_velocity_covariance7,field.angular_velocity_covariance8,field.linear_acceleration.x,field.linear_acceleration.y,field.linear_acceleration.z,field.linear_acceleration_covariance0,field.linear_acceleration_covariance1,field.linear_acceleration_covariance2,field.linear_acceleration_covariance3,field.linear_acceleration_covariance4,field.linear_acceleration_covariance5,field.linear_acceleration_covariance6,field.linear_acceleration_covariance7,field.linear_acceleration_covariance8
1627577871446712308,16196,1627577871442107439,camera_accel_optical_frame,0.0,0.0,0.0,0.0,-1.0,0.0,0.0,0.0,0.0,0.0,0.0,0.0,0.0,0.0,0.0,0.0,0.01,0.0,0.0,0.0,0.01,0.0,0.0,0.0,0.01,0.431492596865,-8.38468551636,0.608012259007,0.01,0.0,0.0,0.0,0.01,0.0,0.0,0.0,0.01
1627577871462367799,16197,1627577871457934856,camera_accel_optical_frame,0.0,0.0,0.0,0.0,-1.0,0.0,0.0,0.0,0.0,0.0,0.0,0.0,0.0,0.0,0.0,0.0,0.01,0.0,0.0,0.0,0.01,0.0,0.0,0.0,0.01,0.362846046686,-7.58054018021,0.509945809841,0.01,0.0,0.0,0.0,0.01,0.0,0.0,0.0,0.01
1627577871478184661,16198,1627577871473762035,camera_accel_optical_frame,0.0,0.0,0.0,0.0,-1.0,0.0,0.0,0.0,0.0,0.0,0.0,0.0,0.0,0.0,0.0,0.0,0.01,0.0,0.0,0.0,0.01,0.0,0.0,0.0,0.01,0.343232750893,-8.59062480927,0.431492596865,0.01,0.0,0.0,0.0,0.01,0.0,0.0,0.0,0.01
1627577871493913010,16199,1627577871489589453,camera_accel_optical_frame,0.0,0.0,0.0,0.0,-1.0,0.0,0.0,0.0,0.0,0.0,0.0,0.0,0.0,0.0,0.0,0.0,0.01,0.0,0.0,0.0,0.01,0.0,0.0,0.0,0.01,0.225552946329,-8.5219783783,0.647238910198,0.01,0.0,0.0,0.0,0.01,0.0,0.0,0.0,0.01
1627577871509748541,16200,1627577871505415440,camera_accel_optical_frame,0.0,0.0,0.0,0.0,-1.0,0.0,0.0,0.0,0.0,0.0,0.0,0.0,0.0,0.0,0.0,0.0,0.01,0.0,0.0,0.0,0.01,0.0,0.0,0.0,0.01,0.745305359364,-7.61976671219,0.804145276546,0.01,0.0,0.0,0.0,0.01,0.0,0.0,0.0,0.01
1627577871525697815,16201,1627577871521240473,camera_accel_optical_frame,0.0,0.0,0.0,0.0,-1.0,0.0,0.0,0.0,0.0,0.0,0.0,0.0,0.0,0.0,0.0,0.0,0.01,0.0,0.0,0.0,0.01,0.0,0.0,0.0,0.01,0.205939650536,-9.34573745728,1.2552511692,0.01,0.0,0.0,0.0,0.01,0.0,0.0,0.0,0.01
1627577871541444974,16202,1627577871537068605,camera_accel_optical_frame,0.0,0.0,0.0,0.0,-1.0,0.0,0.0,0.0,0.0,0.0,0.0,0.0,0.0,0.0,0.0,0.0,0.01,0.0,0.0,0.0,0.01,0.0,0.0,0.0,0.01,-0.264779537916,-9.68896961212,-1.62790381908,0.01,0.0,0.0,0.0,0.01,0.0,0.0,0.0,0.01
1627577871557454661,16203,1627577871552899361,camera_accel_optical_frame,0.0,0.0,0.0,0.0,-1.0,0.0,0.0,0.0,0.0,0.0,0.0,0.0,0.0,0.0,0.0,0.0,0.01,0.0,0.0,0.0,0.01,0.0,0.0,0.0,0.01,0.0490332469344,-11.9248857498,1.5886772871,0.01,0.0,0.0,0.0,0.01,0.0,0.0,0.0,0.01
1627577871573198661,16204,1627577871568727493,camera_accel_optical_frame,0.0,0.0,0.0,0.0,-1.0,0.0,0.0,0.0,0.0,0.0,0.0,0.0,0.0,0.0,0.0,0.0,0.01,0.0,0.0,0.0,0.01,0.0,0.0,0.0,0.01,0.38245934248,-9.95374965668,-0.186326339841,0.01,0.0,0.0,0.0,0.01,0.0,0.0,0.0,0.01
1627577871589130620,16205,1627577871584557056,camera_accel_optical_frame,0.0,0.0,0.0,0.0,-1.0,0.0,0.0,0.0,0.0,0.0,0.0,0.0,0.0,0.0,0.0,0.0,0.01,0.0,0.0,0.0,0.01,0.0,0.0,0.0,0.01,0.225552946329,-12.1994724274,2.05939650536,0.01,0.0,0.0,0.0,0.01,0.0,0.0,0.0,0.01
1627577871605131816,16206,1627577871600384951,camera_accel_optical_frame,0.0,0.0,0.0,0.0,-1.0,0.0,0.0,0.0,0.0,0.0,0.0,0.0,0.0,0.0,0.0,0.0,0.01,0.0,0.0,0.0,0.01,0.0,0.0,0.0,0.01,0.411879301071,-10.0322027206,0.647238910198,0.01,0.0,0.0,0.0,0.01,0.0,0.0,0.0,0.01
1627577871621198117,16207,1627577871616215467,camera_accel_optical_frame,0.0,0.0,0.0,0.0,-1.0,0.0,0.0,0.0,0.0,0.0,0.0,0.0,0.0,0.0,0.0,0.0,0.01,0.0,0.0,0.0,0.01,0.0,0.0,0.0,0.01,0.666852176189,-9.32612419128,2.37320923805,0.01,0.0,0.0,0.0,0.01,0.0,0.0,0.0,0.01
1627577871636825661,16208,1627577871632045269,camera_accel_optical_frame,0.0,0.0,0.0,0.0,-1.0,0.0,0.0,0.0,0.0,0.0,0.0,0.0,0.0,0.0,0.0,0.0,0.01,0.0,0.0,0.0,0.01,0.0,0.0,0.0,0.01,0.608012259007,-10.4342756271,1.83384346962,0.01,0.0,0.0,0.0,0.01,0.0,0.0,0.0,0.01
1627577871652736925,16209,1627577871647873878,camera_accel_optical_frame,0.0,0.0,0.0,0.0,-1.0,0.0,0.0,0.0,0.0,0.0,0.0,0.0,0.0,0.0,0.0,0.0,0.01,0.0,0.0,0.0,0.01,0.0,0.0,0.0,0.01,0.28439283371,-11.463973999,2.02997660637,0.01,0.0,0.0,0.0,0.01,0.0,0.0,0.0,0.01
1627577871668705455,16210,1627577871663703203,camera_accel_optical_frame,0.0,0.0,0.0,0.0,-1.0,0.0,0.0,0.0,0.0,0.0,0.0,0.0,0.0,0.0,0.0,0.0,0.01,0.0,0.0,0.0,0.01,0.0,0.0,0.0,0.01,0.38245934248,-8.58081817627,0.549172401428,0.01,0.0,0.0,0.0,0.01,0.0,0.0,0.0,0.01
1627577871684547975,16211,1627577871679529428,camera_accel_optical_frame,0.0,0.0,0.0,0.0,-1.0,0.0,0.0,0.0,0.0,0.0,0.0,0.0,0.0,0.0,0.0,0.0,0.01,0.0,0.0,0.0,0.01,0.0,0.0,0.0,0.01,-0.107873149216,-8.9044380188,0.431492596865,0.01,0.0,0.0,0.0,0.01,0.0,0.0,0.0,0.01
1627577871700259926,16212,1627577871695357800,camera_accel_optical_frame,0.0,0.0,0.0,0.0,-1.0,0.0,0.0,0.0,0.0,0.0,0.0,0.0,0.0,0.0,0.0,0.0,0.01,0.0,0.0,0.0,0.01,0.0,0.0,0.0,0.01,0.0294199492782,-8.20816612244,-0.00980664975941,0.01,0.0,0.0,0.0,0.01,0.0,0.0,0.0,0.01
1627577871716365225,16213,1627577871711187124,camera_accel_optical_frame,0.0,0.0,0.0,0.0,-1.0,0.0,0.0,0.0,0.0,0.0,0.0,0.0,0.0,0.0,0.0,0.0,0.01,0.0,0.0,0.0,0.01,0.0,0.0,0.0,0.01,-0.0294199492782,-8.18855285645,-0.0882598459721,0.01,0.0,0.0,0.0,0.01,0.0,0.0,0.0,0.01
1627577871732201918,16214,1627577871727017164,camera_accel_optical_frame,0.0,0.0,0.0,0.0,-1.0,0.0,0.0,0.0,0.0,0.0,0.0,0.0,0.0,0.0,0.0,0.0,0.01,0.0,0.0,0.0,0.01,0.0,0.0,0.0,0.01,0.205939650536,-9.07115077972,0.813951909542,0.01,0.0,0.0,0.0,0.01,0.0,0.0,0.0,0.01
1627577871747958909,16215,1627577871742843151,camera_accel_optical_frame,0.0,0.0,0.0,0.0,-1.0,0.0,0.0,0.0,0.0,0.0,0.0,0.0,0.0,0.0,0.0,0.0,0.01,0.0,0.0,0.0,0.01,0.0,0.0,0.0,0.01,-0.0294199492782,-8.99269771576,-1.71616375446,0.01,0.0,0.0,0.0,0.01,0.0,0.0,0.0,0.01
1627577871763783672,16216,1627577871758674383,camera_accel_optical_frame,0.0,0.0,0.0,0.0,-1.0,0.0,0.0,0.0,0.0,0.0,0.0,0.0,0.0,0.0,0.0,0.0,0.01,0.0,0.0,0.0,0.01,0.0,0.0,0.0,0.01,0.0882598459721,-12.0817928314,0.107873149216,0.01,0.0,0.0,0.0,0.01,0.0,0.0,0.0,0.01
1627577871779344322,16217,1627577871774503231,camera_accel_optical_frame,0.0,0.0,0.0,0.0,-1.0,0.0,0.0,0.0,0.0,0.0,0.0,0.0,0.0,0.0,0.0,0.0,0.01,0.0,0.0,0.0,0.01,0.0,0.0,0.0,0.01,1.14737796783,-12.3661851883,0.872791826725,0.01,0.0,0.0,0.0,0.01,0.0,0.0,0.0,0.01
1627577871795222554,16218,1627577871790333986,camera_accel_optical_frame,0.0,0.0,0.0,0.0,-1.0,0.0,0.0,0.0,0.0,0.0,0.0,0.0,0.0,0.0,0.0,0.0,0.01,0.0,0.0,0.0,0.01,0.0,0.0,0.0,0.01,0.568785667419,-11.1207408905,-0.00980664975941,0.01,0.0,0.0,0.0,0.01,0.0,0.0,0.0,0.01
1627577871810945823,16219,1627577871806162834,camera_accel_optical_frame,0.0,0.0,0.0,0.0,-1.0,0.0,0.0,0.0,0.0,0.0,0.0,0.0,0.0,0.0,0.0,0.0,0.01,0.0,0.0,0.0,0.01,0.0,0.0,0.0,0.01,0.608012259007,-10.699054718,-0.549172401428,0.01,0.0,0.0,0.0,0.01,0.0,0.0,0.0,0.01
1627577871826639718,16220,1627577871821992397,camera_accel_optical_frame,0.0,0.0,0.0,0.0,-1.0,0.0,0.0,0.0,0.0,0.0,0.0,0.0,0.0,0.0,0.0,0.0,0.01,0.0,0.0,0.0,0.01,0.0,0.0,0.0,0.01,0.205939650536,-12.0817928314,-0.853178501129,0.01,0.0,0.0,0.0,0.01,0.0,0.0,0.0,0.01
1627577871842689176,16221,1627577871837820053,camera_accel_optical_frame,0.0,0.0,0.0,0.0,-1.0,0.0,0.0,0.0,0.0,0.0,0.0,0.0,0.0,0.0,0.0,0.0,0.01,0.0,0.0,0.0,0.01,0.0,0.0,0.0,0.01,0.451105892658,-11.7385597229,-0.362846046686,0.01,0.0,0.0,0.0,0.01,0.0,0.0,0.0,0.01
1627577871858577237,16222,1627577871853648663,camera_accel_optical_frame,0.0,0.0,0.0,0.0,-1.0,0.0,0.0,0.0,0.0,0.0,0.0,0.0,0.0,0.0,0.0,0.0,0.01,0.0,0.0,0.0,0.01,0.0,0.0,0.0,0.01,0.0490332469344,-12.3857984543,0.225552946329,0.01,0.0,0.0,0.0,0.01,0.0,0.0,0.0,0.01
1627577871874148737,16223,1627577871869477034,camera_accel_optical_frame,0.0,0.0,0.0,0.0,-1.0,0.0,0.0,0.0,0.0,0.0,0.0,0.0,0.0,0.0,0.0,0.0,0.01,0.0,0.0,0.0,0.01,0.0,0.0,0.0,0.01,-0.529559075832,-10.9344148636,-1.63771045208,0.01,0.0,0.0,0.0,0.01,0.0,0.0,0.0,0.01
1627577871890387633,16224,1627577871885306358,camera_accel_optical_frame,0.0,0.0,0.0,0.0,-1.0,0.0,0.0,0.0,0.0,0.0,0.0,0.0,0.0,0.0,0.0,0.0,0.01,0.0,0.0,0.0,0.01,0.0,0.0,0.0,0.01,-0.490332484245,-9.45361042023,-0.725692093372,0.01,0.0,0.0,0.0,0.01,0.0,0.0,0.0,0.01
1627577871906050598,16225,1627577871901133776,camera_accel_optical_frame,0.0,0.0,0.0,0.0,-1.0,0.0,0.0,0.0,0.0,0.0,0.0,0.0,0.0,0.0,0.0,0.0,0.01,0.0,0.0,0.0,0.01,0.0,0.0,0.0,0.01,-0.343232750893,-8.08067893982,0.0686465501785,0.01,0.0,0.0,0.0,0.01,0.0,0.0,0.0,0.01
1627577871922190119,16226,1627577871916963100,camera_accel_optical_frame,0.0,0.0,0.0,0.0,-1.0,0.0,0.0,0.0,0.0,0.0,0.0,0.0,0.0,0.0,0.0,0.0,0.01,0.0,0.0,0.0,0.01,0.0,0.0,0.0,0.01,0.0,-6.95291471481,0.304006129503,0.01,0.0,0.0,0.0,0.01,0.0,0.0,0.0,0.01
1627577871937741901,16227,1627577871932790279,camera_accel_optical_frame,0.0,0.0,0.0,0.0,-1.0,0.0,0.0,0.0,0.0,0.0,0.0,0.0,0.0,0.0,0.0,0.0,0.01,0.0,0.0,0.0,0.01,0.0,0.0,0.0,0.01,-0.549172401428,-7.00194787979,0.343232750893,0.01,0.0,0.0,0.0,0.01,0.0,0.0,0.0,0.01
1627577871953894760,16228,1627577871948619366,camera_accel_optical_frame,0.0,0.0,0.0,0.0,-1.0,0.0,0.0,0.0,0.0,0.0,0.0,0.0,0.0,0.0,0.0,0.0,0.01,0.0,0.0,0.0,0.01,0.0,0.0,0.0,0.01,-0.205939650536,-7.11962795258,-0.431492596865,0.01,0.0,0.0,0.0,0.01,0.0,0.0,0.0,0.01
1627577871970412493,16229,1627577871964448214,camera_accel_optical_frame,0.0,0.0,0.0,0.0,-1.0,0.0,0.0,0.0,0.0,0.0,0.0,0.0,0.0,0.0,0.0,0.0,0.01,0.0,0.0,0.0,0.01,0.0,0.0,0.0,0.01,0.647238910198,-8.32584571838,2.35359597206,0.01,0.0,0.0,0.0,0.01,0.0,0.0,0.0,0.01
1627577871985434211,16230,1627577871980276108,camera_accel_optical_frame,0.0,0.0,0.0,0.0,-1.0,0.0,0.0,0.0,0.0,0.0,0.0,0.0,0.0,0.0,0.0,0.0,0.01,0.0,0.0,0.0,0.01,0.0,0.0,0.0,0.01,0.745305359364,-7.06078767776,0.225552946329,0.01,0.0,0.0,0.0,0.01,0.0,0.0,0.0,0.01
1627577872001533677,16231,1627577871996107101,camera_accel_optical_frame,0.0,0.0,0.0,0.0,-1.0,0.0,0.0,0.0,0.0,0.0,0.0,0.0,0.0,0.0,0.0,0.0,0.01,0.0,0.0,0.0,0.01,0.0,0.0,0.0,0.01,0.627625584602,-9.05153751373,2.63798880577,0.01,0.0,0.0,0.0,0.01,0.0,0.0,0.0,0.01
1627577872017122447,16232,1627577872011935711,camera_accel_optical_frame,0.0,0.0,0.0,0.0,-1.0,0.0,0.0,0.0,0.0,0.0,0.0,0.0,0.0,0.0,0.0,0.0,0.01,0.0,0.0,0.0,0.01,0.0,0.0,0.0,0.01,1.5690639019,-5.60940361023,-0.0686465501785,0.01,0.0,0.0,0.0,0.01,0.0,0.0,0.0,0.01
1627577872032951040,16233,1627577872027764559,camera_accel_optical_frame,0.0,0.0,0.0,0.0,-1.0,0.0,0.0,0.0,0.0,0.0,0.0,0.0,0.0,0.0,0.0,0.0,0.01,0.0,0.0,0.0,0.01,0.0,0.0,0.0,0.01,0.745305359364,-7.46286058426,3.21658110619,0.01,0.0,0.0,0.0,0.01,0.0,0.0,0.0,0.01
1627577872048920701,16234,1627577872043591261,camera_accel_optical_frame,0.0,0.0,0.0,0.0,-1.0,0.0,0.0,0.0,0.0,0.0,0.0,0.0,0.0,0.0,0.0,0.0,0.01,0.0,0.0,0.0,0.01,0.0,0.0,0.0,0.01,1.08853816986,-4.99158477783,0.264779537916,0.01,0.0,0.0,0.0,0.01,0.0,0.0,0.0,0.01
1627577872064949718,16235,1627577872059420824,camera_accel_optical_frame,0.0,0.0,0.0,0.0,-1.0,0.0,0.0,0.0,0.0,0.0,0.0,0.0,0.0,0.0,0.0,0.0,0.01,0.0,0.0,0.0,0.01,0.0,0.0,0.0,0.01,0.568785667419,-10.1498823166,3.15774130821,0.01,0.0,0.0,0.0,0.01,0.0,0.0,0.0,0.01
1627577872080902035,16236,1627577872075247288,camera_accel_optical_frame,0.0,0.0,0.0,0.0,-1.0,0.0,0.0,0.0,0.0,0.0,0.0,0.0,0.0,0.0,0.0,0.0,0.01,0.0,0.0,0.0,0.01,0.0,0.0,0.0,0.01,0.304006129503,-11.1011276245,-0.205939650536,0.01,0.0,0.0,0.0,0.01,0.0,0.0,0.0,0.01
1627577872096403022,16237,1627577872091075659,camera_accel_optical_frame,0.0,0.0,0.0,0.0,-1.0,0.0,0.0,0.0,0.0,0.0,0.0,0.0,0.0,0.0,0.0,0.0,0.01,0.0,0.0,0.0,0.01,0.0,0.0,0.0,0.01,0.166713044047,-14.1902217865,2.94199490547,0.01,0.0,0.0,0.0,0.01,0.0,0.0,0.0,0.01
1627577872112271278,16238,1627577872106903076,camera_accel_optical_frame,0.0,0.0,0.0,0.0,-1.0,0.0,0.0,0.0,0.0,0.0,0.0,0.0,0.0,0.0,0.0,0.0,0.01,0.0,0.0,0.0,0.01,0.0,0.0,0.0,0.01,0.549172401428,-14.0921554565,1.16699135303,0.01,0.0,0.0,0.0,0.01,0.0,0.0,0.0,0.01
1627577872128406175,16239,1627577872122730255,camera_accel_optical_frame,0.0,0.0,0.0,0.0,-1.0,0.0,0.0,0.0,0.0,0.0,0.0,0.0,0.0,0.0,0.0,0.0,0.01,0.0,0.0,0.0,0.01,0.0,0.0,0.0,0.01,0.627625584602,-15.0335941315,1.83384346962,0.01,0.0,0.0,0.0,0.01,0.0,0.0,0.0,0.01
1627577872143673603,16240,1627577872138557673,camera_accel_optical_frame,0.0,0.0,0.0,0.0,-1.0,0.0,0.0,0.0,0.0,0.0,0.0,0.0,0.0,0.0,0.0,0.0,0.01,0.0,0.0,0.0,0.01,0.0,0.0,0.0,0.01,-0.147099748254,-13.4645299911,0.745305359364,0.01,0.0,0.0,0.0,0.01,0.0,0.0,0.0,0.01
1627577872159695927,16241,1627577872154386759,camera_accel_optical_frame,0.0,0.0,0.0,0.0,-1.0,0.0,0.0,0.0,0.0,0.0,0.0,0.0,0.0,0.0,0.0,0.0,0.01,0.0,0.0,0.0,0.01,0.0,0.0,0.0,0.01,0.245166242123,-10.8755741119,-0.951245009899,0.01,0.0,0.0,0.0,0.01,0.0,0.0,0.0,0.01
1627577872175390818,16242,1627577872170213699,camera_accel_optical_frame,0.0,0.0,0.0,0.0,-1.0,0.0,0.0,0.0,0.0,0.0,0.0,0.0,0.0,0.0,0.0,0.0,0.01,0.0,0.0,0.0,0.01,0.0,0.0,0.0,0.01,-0.549172401428,-11.3953266144,0.264779537916,0.01,0.0,0.0,0.0,0.01,0.0,0.0,0.0,0.01
1627577872191219099,16243,1627577872186041594,camera_accel_optical_frame,0.0,0.0,0.0,0.0,-1.0,0.0,0.0,0.0,0.0,0.0,0.0,0.0,0.0,0.0,0.0,0.0,0.01,0.0,0.0,0.0,0.01,0.0,0.0,0.0,0.01,0.343232750893,-10.3362092972,0.147099748254,0.01,0.0,0.0,0.0,0.01,0.0,0.0,0.0,0.01
1627577872207349014,16244,1627577872201866388,camera_accel_optical_frame,0.0,0.0,0.0,0.0,-1.0,0.0,0.0,0.0,0.0,0.0,0.0,0.0,0.0,0.0,0.0,0.0,0.01,0.0,0.0,0.0,0.01,0.0,0.0,0.0,0.01,0.00980664975941,-8.44352531433,-1.12776470184,0.01,0.0,0.0,0.0,0.01,0.0,0.0,0.0,0.01
1627577872222892497,16245,1627577872217695236,camera_accel_optical_frame,0.0,0.0,0.0,0.0,-1.0,0.0,0.0,0.0,0.0,0.0,0.0,0.0,0.0,0.0,0.0,0.0,0.01,0.0,0.0,0.0,0.01,0.0,0.0,0.0,0.01,0.402072638273,-7.13924121857,-0.912018418312,0.01,0.0,0.0,0.0,0.01,0.0,0.0,0.0,0.01
1627577872238678099,16246,1627577872233521938,camera_accel_optical_frame,0.0,0.0,0.0,0.0,-1.0,0.0,0.0,0.0,0.0,0.0,0.0,0.0,0.0,0.0,0.0,0.0,0.01,0.0,0.0,0.0,0.01,0.0,0.0,0.0,0.01,0.225552946329,-8.11990642548,-0.225552946329,0.01,0.0,0.0,0.0,0.01,0.0,0.0,0.0,0.01
1627577872254876019,16247,1627577872249348640,camera_accel_optical_frame,0.0,0.0,0.0,0.0,-1.0,0.0,0.0,0.0,0.0,0.0,0.0,0.0,0.0,0.0,0.0,0.0,0.01,0.0,0.0,0.0,0.01,0.0,0.0,0.0,0.01,0.362846046686,-7.11962795258,-1.02969825268,0.01,0.0,0.0,0.0,0.01,0.0,0.0,0.0,0.01
1627577872270706843,16248,1627577872265177250,camera_accel_optical_frame,0.0,0.0,0.0,0.0,-1.0,0.0,0.0,0.0,0.0,0.0,0.0,0.0,0.0,0.0,0.0,0.0,0.01,0.0,0.0,0.0,0.01,0.0,0.0,0.0,0.01,0.509945809841,-6.89407491684,-0.0490332469344,0.01,0.0,0.0,0.0,0.01,0.0,0.0,0.0,0.01
1627577872286838633,16249,1627577872281004906,camera_accel_optical_frame,0.0,0.0,0.0,0.0,-1.0,0.0,0.0,0.0,0.0,0.0,0.0,0.0,0.0,0.0,0.0,0.0,0.01,0.0,0.0,0.0,0.01,0.0,0.0,0.0,0.01,1.23563790321,-6.3743224144,0.764918684959,0.01,0.0,0.0,0.0,0.01,0.0,0.0,0.0,0.01
1627577872302449523,16250,1627577872296830416,camera_accel_optical_frame,0.0,0.0,0.0,0.0,-1.0,0.0,0.0,0.0,0.0,0.0,0.0,0.0,0.0,0.0,0.0,0.0,0.01,0.0,0.0,0.0,0.01,0.0,0.0,0.0,0.01,0.529559075832,-6.45277547836,-0.323619455099,0.01,0.0,0.0,0.0,0.01,0.0,0.0,0.0,0.01
1627577872317909399,16251,1627577872312654495,camera_accel_optical_frame,0.0,0.0,0.0,0.0,-1.0,0.0,0.0,0.0,0.0,0.0,0.0,0.0,0.0,0.0,0.0,0.0,0.01,0.0,0.0,0.0,0.01,0.0,0.0,0.0,0.01,0.225552946329,-7.23730754852,-1.04931151867,0.01,0.0,0.0,0.0,0.01,0.0,0.0,0.0,0.01
1627577872334167940,16252,1627577872328478098,camera_accel_optical_frame,0.0,0.0,0.0,0.0,-1.0,0.0,0.0,0.0,0.0,0.0,0.0,0.0,0.0,0.0,0.0,0.0,0.01,0.0,0.0,0.0,0.01,0.0,0.0,0.0,0.01,-0.0882598459721,-10.2381420135,-0.686465501785,0.01,0.0,0.0,0.0,0.01,0.0,0.0,0.0,0.01
1627577872349836866,16253,1627577872344303131,camera_accel_optical_frame,0.0,0.0,0.0,0.0,-1.0,0.0,0.0,0.0,0.0,0.0,0.0,0.0,0.0,0.0,0.0,0.0,0.01,0.0,0.0,0.0,0.01,0.0,0.0,0.0,0.01,0.725692093372,-9.85568332672,-0.0490332469344,0.01,0.0,0.0,0.0,0.01,0.0,0.0,0.0,0.01
1627577872365966164,16254,1627577872360129356,camera_accel_optical_frame,0.0,0.0,0.0,0.0,-1.0,0.0,0.0,0.0,0.0,0.0,0.0,0.0,0.0,0.0,0.0,0.0,0.01,0.0,0.0,0.0,0.01,0.0,0.0,0.0,0.01,0.892405152321,-11.6797199249,1.10815143585,0.01,0.0,0.0,0.0,0.01,0.0,0.0,0.0,0.01
1627577872382081595,16255,1627577872375952482,camera_accel_optical_frame,0.0,0.0,0.0,0.0,-1.0,0.0,0.0,0.0,0.0,0.0,0.0,0.0,0.0,0.0,0.0,0.0,0.01,0.0,0.0,0.0,0.01,0.0,0.0,0.0,0.01,0.931631743908,-13.4939498901,1.37293100357,0.01,0.0,0.0,0.0,0.01,0.0,0.0,0.0,0.01
1627577872397704841,16256,1627577872391777277,camera_accel_optical_frame,0.0,0.0,0.0,0.0,-1.0,0.0,0.0,0.0,0.0,0.0,0.0,0.0,0.0,0.0,0.0,0.0,0.01,0.0,0.0,0.0,0.01,0.0,0.0,0.0,0.01,0.205939650536,-13.1114912033,-0.470719188452,0.01,0.0,0.0,0.0,0.01,0.0,0.0,0.0,0.01
1627577872413309549,16257,1627577872407600403,camera_accel_optical_frame,0.0,0.0,0.0,0.0,-1.0,0.0,0.0,0.0,0.0,0.0,0.0,0.0,0.0,0.0,0.0,0.0,0.01,0.0,0.0,0.0,0.01,0.0,0.0,0.0,0.01,-0.166713044047,-11.6993331909,0.225552946329,0.01,0.0,0.0,0.0,0.01,0.0,0.0,0.0,0.01
1627577872429054805,16258,1627577872423427105,camera_accel_optical_frame,0.0,0.0,0.0,0.0,-1.0,0.0,0.0,0.0,0.0,0.0,0.0,0.0,0.0,0.0,0.0,0.0,0.01,0.0,0.0,0.0,0.01,0.0,0.0,0.0,0.01,0.804145276546,-12.8859376907,0.764918684959,0.01,0.0,0.0,0.0,0.01,0.0,0.0,0.0,0.01
1627577872444906257,16259,1627577872439248800,camera_accel_optical_frame,0.0,0.0,0.0,0.0,-1.0,0.0,0.0,0.0,0.0,0.0,0.0,0.0,0.0,0.0,0.0,0.0,0.01,0.0,0.0,0.0,0.01,0.0,0.0,0.0,0.01,0.0294199492782,-15.396440506,1.93191003799,0.01,0.0,0.0,0.0,0.01,0.0,0.0,0.0,0.01
1627577872460837752,16260,1627577872455072403,camera_accel_optical_frame,0.0,0.0,0.0,0.0,-1.0,0.0,0.0,0.0,0.0,0.0,0.0,0.0,0.0,0.0,0.0,0.0,0.01,0.0,0.0,0.0,0.01,0.0,0.0,0.0,0.01,-0.28439283371,-11.6993331909,-1.47099745274,0.01,0.0,0.0,0.0,0.01,0.0,0.0,0.0,0.01
1627577872476402191,16261,1627577872470899105,camera_accel_optical_frame,0.0,0.0,0.0,0.0,-1.0,0.0,0.0,0.0,0.0,0.0,0.0,0.0,0.0,0.0,0.0,0.0,0.01,0.0,0.0,0.0,0.01,0.0,0.0,0.0,0.01,-0.764918684959,-12.5819320679,2.03978323936,0.01,0.0,0.0,0.0,0.01,0.0,0.0,0.0,0.01
1627577872492445252,16262,1627577872486724615,camera_accel_optical_frame,0.0,0.0,0.0,0.0,-1.0,0.0,0.0,0.0,0.0,0.0,0.0,0.0,0.0,0.0,0.0,0.0,0.01,0.0,0.0,0.0,0.01,0.0,0.0,0.0,0.01,-0.205939650536,-9.07115077972,0.225552946329,0.01,0.0,0.0,0.0,0.01,0.0,0.0,0.0,0.01
1627577872508188467,16263,1627577872502550125,camera_accel_optical_frame,0.0,0.0,0.0,0.0,-1.0,0.0,0.0,0.0,0.0,0.0,0.0,0.0,0.0,0.0,0.0,0.0,0.01,0.0,0.0,0.0,0.01,0.0,0.0,0.0,0.01,0.304006129503,-6.95291471481,1.33370435238,0.01,0.0,0.0,0.0,0.01,0.0,0.0,0.0,0.01
1627577872523910680,16264,1627577872518373489,camera_accel_optical_frame,0.0,0.0,0.0,0.0,-1.0,0.0,0.0,0.0,0.0,0.0,0.0,0.0,0.0,0.0,0.0,0.0,0.01,0.0,0.0,0.0,0.01,0.0,0.0,0.0,0.01,0.0490332469344,-5.89379644394,-0.764918684959,0.01,0.0,0.0,0.0,0.01,0.0,0.0,0.0,0.01
1627577872539966456,16265,1627577872534203291,camera_accel_optical_frame,0.0,0.0,0.0,0.0,-1.0,0.0,0.0,0.0,0.0,0.0,0.0,0.0,0.0,0.0,0.0,0.0,0.01,0.0,0.0,0.0,0.01,0.0,0.0,0.0,0.01,-1.77500355244,-9.66935634613,-0.38245934248,0.01,0.0,0.0,0.0,0.01,0.0,0.0,0.0,0.01
1627577872555798047,16266,1627577872550034523,camera_accel_optical_frame,0.0,0.0,0.0,0.0,-1.0,0.0,0.0,0.0,0.0,0.0,0.0,0.0,0.0,0.0,0.0,0.0,0.01,0.0,0.0,0.0,0.01,0.0,0.0,0.0,0.01,0.745305359364,-5.73689031601,1.39254426956,0.01,0.0,0.0,0.0,0.01,0.0,0.0,0.0,0.01
1627577872571850054,16267,1627577872565863609,camera_accel_optical_frame,0.0,0.0,0.0,0.0,-1.0,0.0,0.0,0.0,0.0,0.0,0.0,0.0,0.0,0.0,0.0,0.0,0.01,0.0,0.0,0.0,0.01,0.0,0.0,0.0,0.01,0.951245009899,-5.31520414352,1.06892478466,0.01,0.0,0.0,0.0,0.01,0.0,0.0,0.0,0.01
1627577872587689172,16268,1627577872581692457,camera_accel_optical_frame,0.0,0.0,0.0,0.0,-1.0,0.0,0.0,0.0,0.0,0.0,0.0,0.0,0.0,0.0,0.0,0.0,0.01,0.0,0.0,0.0,0.01,0.0,0.0,0.0,0.01,1.93191003799,-6.31548261642,1.52983736992,0.01,0.0,0.0,0.0,0.01,0.0,0.0,0.0,0.01
1627577872603864579,16269,1627577872597522259,camera_accel_optical_frame,0.0,0.0,0.0,0.0,-1.0,0.0,0.0,0.0,0.0,0.0,0.0,0.0,0.0,0.0,0.0,0.0,0.01,0.0,0.0,0.0,0.01,0.0,0.0,0.0,0.01,1.52983736992,-9.20844459534,2.37320923805,0.01,0.0,0.0,0.0,0.01,0.0,0.0,0.0,0.01
1627577872619570151,16270,1627577872613349915,camera_accel_optical_frame,0.0,0.0,0.0,0.0,-1.0,0.0,0.0,0.0,0.0,0.0,0.0,0.0,0.0,0.0,0.0,0.0,0.01,0.0,0.0,0.0,0.01,0.0,0.0,0.0,0.01,0.264779537916,-9.66935634613,0.362846046686,0.01,0.0,0.0,0.0,0.01,0.0,0.0,0.0,0.01
1627577872635490173,16271,1627577872629180431,camera_accel_optical_frame,0.0,0.0,0.0,0.0,-1.0,0.0,0.0,0.0,0.0,0.0,0.0,0.0,0.0,0.0,0.0,0.0,0.01,0.0,0.0,0.0,0.01,0.0,0.0,0.0,0.01,1.63771045208,-8.34545898438,1.75539028645,0.01,0.0,0.0,0.0,0.01,0.0,0.0,0.0,0.01
1627577872651384247,16272,1627577872645008087,camera_accel_optical_frame,0.0,0.0,0.0,0.0,-1.0,0.0,0.0,0.0,0.0,0.0,0.0,0.0,0.0,0.0,0.0,0.0,0.01,0.0,0.0,0.0,0.01,0.0,0.0,0.0,0.01,0.627625584602,-11.0422878265,-0.107873149216,0.01,0.0,0.0,0.0,0.01,0.0,0.0,0.0,0.01
1627577872667060471,16273,1627577872660839558,camera_accel_optical_frame,0.0,0.0,0.0,0.0,-1.0,0.0,0.0,0.0,0.0,0.0,0.0,0.0,0.0,0.0,0.0,0.0,0.01,0.0,0.0,0.0,0.01,0.0,0.0,0.0,0.01,0.166713044047,-12.6603851318,0.686465501785,0.01,0.0,0.0,0.0,0.01,0.0,0.0,0.0,0.01
1627577872682726559,16274,1627577872676668882,camera_accel_optical_frame,0.0,0.0,0.0,0.0,-1.0,0.0,0.0,0.0,0.0,0.0,0.0,0.0,0.0,0.0,0.0,0.0,0.01,0.0,0.0,0.0,0.01,0.0,0.0,0.0,0.01,0.686465501785,-11.463973999,-0.323619455099,0.01,0.0,0.0,0.0,0.01,0.0,0.0,0.0,0.01
1627577872698545620,16275,1627577872692499161,camera_accel_optical_frame,0.0,0.0,0.0,0.0,-1.0,0.0,0.0,0.0,0.0,0.0,0.0,0.0,0.0,0.0,0.0,0.0,0.01,0.0,0.0,0.0,0.01,0.0,0.0,0.0,0.01,-0.00980664975941,-13.7293100357,0.990471601486,0.01,0.0,0.0,0.0,0.01,0.0,0.0,0.0,0.01
1627577872714324895,16276,1627577872708327532,camera_accel_optical_frame,0.0,0.0,0.0,0.0,-1.0,0.0,0.0,0.0,0.0,0.0,0.0,0.0,0.0,0.0,0.0,0.0,0.01,0.0,0.0,0.0,0.01,0.0,0.0,0.0,0.01,-0.38245934248,-12.7486448288,-0.166713044047,0.01,0.0,0.0,0.0,0.01,0.0,0.0,0.0,0.01
1627577872731047322,16277,1627577872724158049,camera_accel_optical_frame,0.0,0.0,0.0,0.0,-1.0,0.0,0.0,0.0,0.0,0.0,0.0,0.0,0.0,0.0,0.0,0.0,0.01,0.0,0.0,0.0,0.01,0.0,0.0,0.0,0.01,-0.343232750893,-11.7189464569,0.411879301071,0.01,0.0,0.0,0.0,0.01,0.0,0.0,0.0,0.01
1627577872746208961,16278,1627577872739986181,camera_accel_optical_frame,0.0,0.0,0.0,0.0,-1.0,0.0,0.0,0.0,0.0,0.0,0.0,0.0,0.0,0.0,0.0,0.0,0.01,0.0,0.0,0.0,0.01,0.0,0.0,0.0,0.01,0.0,-9.85568332672,-0.28439283371,0.01,0.0,0.0,0.0,0.01,0.0,0.0,0.0,0.01
1627577872761945265,16279,1627577872755815029,camera_accel_optical_frame,0.0,0.0,0.0,0.0,-1.0,0.0,0.0,0.0,0.0,0.0,0.0,0.0,0.0,0.0,0.0,0.0,0.01,0.0,0.0,0.0,0.01,0.0,0.0,0.0,0.01,-0.323619455099,-9.40457725525,0.12748645246,0.01,0.0,0.0,0.0,0.01,0.0,0.0,0.0,0.01
1627577872777724846,16280,1627577872771642208,camera_accel_optical_frame,0.0,0.0,0.0,0.0,-1.0,0.0,0.0,0.0,0.0,0.0,0.0,0.0,0.0,0.0,0.0,0.0,0.01,0.0,0.0,0.0,0.01,0.0,0.0,0.0,0.01,-0.686465501785,-7.36479377747,-2.2163028717,0.01,0.0,0.0,0.0,0.01,0.0,0.0,0.0,0.01
1627577872793508244,16281,1627577872787472010,camera_accel_optical_frame,0.0,0.0,0.0,0.0,-1.0,0.0,0.0,0.0,0.0,0.0,0.0,0.0,0.0,0.0,0.0,0.0,0.01,0.0,0.0,0.0,0.01,0.0,0.0,0.0,0.01,-0.706078767776,-9.97336292267,0.872791826725,0.01,0.0,0.0,0.0,0.01,0.0,0.0,0.0,0.01
1627577872809159473,16282,1627577872803299904,camera_accel_optical_frame,0.0,0.0,0.0,0.0,-1.0,0.0,0.0,0.0,0.0,0.0,0.0,0.0,0.0,0.0,0.0,0.0,0.01,0.0,0.0,0.0,0.01,0.0,0.0,0.0,0.01,0.28439283371,-6.49200201035,-0.588398993015,0.01,0.0,0.0,0.0,0.01,0.0,0.0,0.0,0.01
1627577872825177985,16283,1627577872819127560,camera_accel_optical_frame,0.0,0.0,0.0,0.0,-1.0,0.0,0.0,0.0,0.0,0.0,0.0,0.0,0.0,0.0,0.0,0.0,0.01,0.0,0.0,0.0,0.01,0.0,0.0,0.0,0.01,0.38245934248,-6.10954284668,0.362846046686,0.01,0.0,0.0,0.0,0.01,0.0,0.0,0.0,0.01
1627577872840913899,16284,1627577872834956408,camera_accel_optical_frame,0.0,0.0,0.0,0.0,-1.0,0.0,0.0,0.0,0.0,0.0,0.0,0.0,0.0,0.0,0.0,0.0,0.01,0.0,0.0,0.0,0.01,0.0,0.0,0.0,0.01,0.509945809841,-7.9826130867,0.451105892658,0.01,0.0,0.0,0.0,0.01,0.0,0.0,0.0,0.01
1627577872857016064,16285,1627577872850784779,camera_accel_optical_frame,0.0,0.0,0.0,0.0,-1.0,0.0,0.0,0.0,0.0,0.0,0.0,0.0,0.0,0.0,0.0,0.0,0.01,0.0,0.0,0.0,0.01,0.0,0.0,0.0,0.01,1.5886772871,-8.86521148682,1.60829055309,0.01,0.0,0.0,0.0,0.01,0.0,0.0,0.0,0.01
1627577872872789000,16286,1627577872866613388,camera_accel_optical_frame,0.0,0.0,0.0,0.0,-1.0,0.0,0.0,0.0,0.0,0.0,0.0,0.0,0.0,0.0,0.0,0.0,0.01,0.0,0.0,0.0,0.01,0.0,0.0,0.0,0.01,0.912018418312,-9.78703689575,1.31409108639,0.01,0.0,0.0,0.0,0.01,0.0,0.0,0.0,0.01
1627577872888922135,16287,1627577872882441759,camera_accel_optical_frame,0.0,0.0,0.0,0.0,-1.0,0.0,0.0,0.0,0.0,0.0,0.0,0.0,0.0,0.0,0.0,0.0,0.01,0.0,0.0,0.0,0.01,0.0,0.0,0.0,0.01,0.608012259007,-9.8949098587,0.529559075832,0.01,0.0,0.0,0.0,0.01,0.0,0.0,0.0,0.01
1627577872904687556,16288,1627577872898268938,camera_accel_optical_frame,0.0,0.0,0.0,0.0,-1.0,0.0,0.0,0.0,0.0,0.0,0.0,0.0,0.0,0.0,0.0,0.0,0.01,0.0,0.0,0.0,0.01,0.0,0.0,0.0,0.01,1.02969825268,-10.5519552231,1.71616375446,0.01,0.0,0.0,0.0,0.01,0.0,0.0,0.0,0.01
1627577872920638551,16289,1627577872914094448,camera_accel_optical_frame,0.0,0.0,0.0,0.0,-1.0,0.0,0.0,0.0,0.0,0.0,0.0,0.0,0.0,0.0,0.0,0.0,0.01,0.0,0.0,0.0,0.01,0.0,0.0,0.0,0.01,1.22583127022,-11.1207408905,2.86354184151,0.01,0.0,0.0,0.0,0.01,0.0,0.0,0.0,0.01
1627577872936322205,16290,1627577872929922581,camera_accel_optical_frame,0.0,0.0,0.0,0.0,-1.0,0.0,0.0,0.0,0.0,0.0,0.0,0.0,0.0,0.0,0.0,0.0,0.01,0.0,0.0,0.0,0.01,0.0,0.0,0.0,0.01,0.686465501785,-10.2577552795,0.892405152321,0.01,0.0,0.0,0.0,0.01,0.0,0.0,0.0,0.01
1627577872952205190,16291,1627577872945750713,camera_accel_optical_frame,0.0,0.0,0.0,0.0,-1.0,0.0,0.0,0.0,0.0,0.0,0.0,0.0,0.0,0.0,0.0,0.0,0.01,0.0,0.0,0.0,0.01,0.0,0.0,0.0,0.01,0.323619455099,-11.1403541565,1.62790381908,0.01,0.0,0.0,0.0,0.01,0.0,0.0,0.0,0.01
1627577872968198516,16292,1627577872961578846,camera_accel_optical_frame,0.0,0.0,0.0,0.0,-1.0,0.0,0.0,0.0,0.0,0.0,0.0,0.0,0.0,0.0,0.0,0.0,0.01,0.0,0.0,0.0,0.01,0.0,0.0,0.0,0.01,-0.264779537916,-10.9344148636,0.588398993015,0.01,0.0,0.0,0.0,0.01,0.0,0.0,0.0,0.01
1627577872984030048,16293,1627577872977407932,camera_accel_optical_frame,0.0,0.0,0.0,0.0,-1.0,0.0,0.0,0.0,0.0,0.0,0.0,0.0,0.0,0.0,0.0,0.0,0.01,0.0,0.0,0.0,0.01,0.0,0.0,0.0,0.01,-0.451105892658,-10.0322027206,0.0490332469344,0.01,0.0,0.0,0.0,0.01,0.0,0.0,0.0,0.01
1627577872999491234,16294,1627577872993233919,camera_accel_optical_frame,0.0,0.0,0.0,0.0,-1.0,0.0,0.0,0.0,0.0,0.0,0.0,0.0,0.0,0.0,0.0,0.0,0.01,0.0,0.0,0.0,0.01,0.0,0.0,0.0,0.01,-0.764918684959,-8.74753189087,-1.10815143585,0.01,0.0,0.0,0.0,0.01,0.0,0.0,0.0,0.01
1627577873015655414,16295,1627577873009063721,camera_accel_optical_frame,0.0,0.0,0.0,0.0,-1.0,0.0,0.0,0.0,0.0,0.0,0.0,0.0,0.0,0.0,0.0,0.0,0.01,0.0,0.0,0.0,0.01,0.0,0.0,0.0,0.01,-0.38245934248,-9.55167675018,0.0490332469344,0.01,0.0,0.0,0.0,0.01,0.0,0.0,0.0,0.01
1627577873032040368,16296,1627577873024891376,camera_accel_optical_frame,0.0,0.0,0.0,0.0,-1.0,0.0,0.0,0.0,0.0,0.0,0.0,0.0,0.0,0.0,0.0,0.0,0.01,0.0,0.0,0.0,0.01,0.0,0.0,0.0,0.01,0.28439283371,-9.7281961441,0.813951909542,0.01,0.0,0.0,0.0,0.01,0.0,0.0,0.0,0.01
1627577873047213258,16297,1627577873040717125,camera_accel_optical_frame,0.0,0.0,0.0,0.0,-1.0,0.0,0.0,0.0,0.0,0.0,0.0,0.0,0.0,0.0,0.0,0.0,0.01,0.0,0.0,0.0,0.01,0.0,0.0,0.0,0.01,0.509945809841,-8.30623245239,-0.608012259007,0.01,0.0,0.0,0.0,0.01,0.0,0.0,0.0,0.01
1627577873063265529,16298,1627577873056543589,camera_accel_optical_frame,0.0,0.0,0.0,0.0,-1.0,0.0,0.0,0.0,0.0,0.0,0.0,0.0,0.0,0.0,0.0,0.0,0.01,0.0,0.0,0.0,0.01,0.0,0.0,0.0,0.01,0.323619455099,-9.8949098587,-0.245166242123,0.01,0.0,0.0,0.0,0.01,0.0,0.0,0.0,0.01
1627577873078944901,16299,1627577873072372198,camera_accel_optical_frame,0.0,0.0,0.0,0.0,-1.0,0.0,0.0,0.0,0.0,0.0,0.0,0.0,0.0,0.0,0.0,0.0,0.01,0.0,0.0,0.0,0.01,0.0,0.0,0.0,0.01,0.490332484245,-11.2776470184,1.62790381908,0.01,0.0,0.0,0.0,0.01,0.0,0.0,0.0,0.01
1627577873094428436,16300,1627577873088199615,camera_accel_optical_frame,0.0,0.0,0.0,0.0,-1.0,0.0,0.0,0.0,0.0,0.0,0.0,0.0,0.0,0.0,0.0,0.0,0.01,0.0,0.0,0.0,0.01,0.0,0.0,0.0,0.01,1.12776470184,-8.34545898438,1.83384346962,0.01,0.0,0.0,0.0,0.01,0.0,0.0,0.0,0.01
1627577873110425763,16301,1627577873104027033,camera_accel_optical_frame,0.0,0.0,0.0,0.0,-1.0,0.0,0.0,0.0,0.0,0.0,0.0,0.0,0.0,0.0,0.0,0.0,0.01,0.0,0.0,0.0,0.01,0.0,0.0,0.0,0.01,1.41215753555,-6.23702907562,0.529559075832,0.01,0.0,0.0,0.0,0.01,0.0,0.0,0.0,0.01
1627577873126164814,16302,1627577873119854450,camera_accel_optical_frame,0.0,0.0,0.0,0.0,-1.0,0.0,0.0,0.0,0.0,0.0,0.0,0.0,0.0,0.0,0.0,0.0,0.01,0.0,0.0,0.0,0.01,0.0,0.0,0.0,0.01,1.63771045208,-7.52170038223,1.73577702045,0.01,0.0,0.0,0.0,0.01,0.0,0.0,0.0,0.01
1627577873142208910,16303,1627577873135680676,camera_accel_optical_frame,0.0,0.0,0.0,0.0,-1.0,0.0,0.0,0.0,0.0,0.0,0.0,0.0,0.0,0.0,0.0,0.0,0.01,0.0,0.0,0.0,0.01,0.0,0.0,0.0,0.01,-0.833565235138,-11.2384204865,-1.23563790321,0.01,0.0,0.0,0.0,0.01,0.0,0.0,0.0,0.01
1627577873157976883,16304,1627577873151508808,camera_accel_optical_frame,0.0,0.0,0.0,0.0,-1.0,0.0,0.0,0.0,0.0,0.0,0.0,0.0,0.0,0.0,0.0,0.0,0.01,0.0,0.0,0.0,0.01,0.0,0.0,0.0,0.01,0.764918684959,-10.679441452,1.52983736992,0.01,0.0,0.0,0.0,0.01,0.0,0.0,0.0,0.01
1627577873173914231,16305,1627577873167334080,camera_accel_optical_frame,0.0,0.0,0.0,0.0,-1.0,0.0,0.0,0.0,0.0,0.0,0.0,0.0,0.0,0.0,0.0,0.0,0.01,0.0,0.0,0.0,0.01,0.0,0.0,0.0,0.01,0.813951909542,-9.5124502182,-2.48108243942,0.01,0.0,0.0,0.0,0.01,0.0,0.0,0.0,0.01
1627577873189728802,16306,1627577873183161020,camera_accel_optical_frame,0.0,0.0,0.0,0.0,-1.0,0.0,0.0,0.0,0.0,0.0,0.0,0.0,0.0,0.0,0.0,0.0,0.01,0.0,0.0,0.0,0.01,0.0,0.0,0.0,0.01,0.568785667419,-11.8660459518,2.41243577003,0.01,0.0,0.0,0.0,0.01,0.0,0.0,0.0,0.01
1627577873205619697,16307,1627577873198987007,camera_accel_optical_frame,0.0,0.0,0.0,0.0,-1.0,0.0,0.0,0.0,0.0,0.0,0.0,0.0,0.0,0.0,0.0,0.0,0.01,0.0,0.0,0.0,0.01,0.0,0.0,0.0,0.01,0.627625584602,-10.83634758,0.813951909542,0.01,0.0,0.0,0.0,0.01,0.0,0.0,0.0,0.01
1627577873221696638,16308,1627577873214811802,camera_accel_optical_frame,0.0,0.0,0.0,0.0,-1.0,0.0,0.0,0.0,0.0,0.0,0.0,0.0,0.0,0.0,0.0,0.0,0.01,0.0,0.0,0.0,0.01,0.0,0.0,0.0,0.01,0.225552946329,-8.80637168884,-0.764918684959,0.01,0.0,0.0,0.0,0.01,0.0,0.0,0.0,0.01
1627577873237528342,16309,1627577873230637789,camera_accel_optical_frame,0.0,0.0,0.0,0.0,-1.0,0.0,0.0,0.0,0.0,0.0,0.0,0.0,0.0,0.0,0.0,0.0,0.01,0.0,0.0,0.0,0.01,0.0,0.0,0.0,0.01,0.304006129503,-9.18883037567,2.07900977135,0.01,0.0,0.0,0.0,0.01,0.0,0.0,0.0,0.01
1627577873253247785,16310,1627577873246462345,camera_accel_optical_frame,0.0,0.0,0.0,0.0,-1.0,0.0,0.0,0.0,0.0,0.0,0.0,0.0,0.0,0.0,0.0,0.0,0.01,0.0,0.0,0.0,0.01,0.0,0.0,0.0,0.01,0.166713044047,-9.38496398926,-0.725692093372,0.01,0.0,0.0,0.0,0.01,0.0,0.0,0.0,0.01
1627577873269363326,16311,1627577873262284994,camera_accel_optical_frame,0.0,0.0,0.0,0.0,-1.0,0.0,0.0,0.0,0.0,0.0,0.0,0.0,0.0,0.0,0.0,0.0,0.01,0.0,0.0,0.0,0.01,0.0,0.0,0.0,0.01,-0.529559075832,-11.3168735504,-0.304006129503,0.01,0.0,0.0,0.0,0.01,0.0,0.0,0.0,0.01
1627577873284896355,16312,1627577873278112650,camera_accel_optical_frame,0.0,0.0,0.0,0.0,-1.0,0.0,0.0,0.0,0.0,0.0,0.0,0.0,0.0,0.0,0.0,0.0,0.01,0.0,0.0,0.0,0.01,0.0,0.0,0.0,0.01,-0.12748645246,-11.1795806885,0.813951909542,0.01,0.0,0.0,0.0,0.01,0.0,0.0,0.0,0.01
1627577873300911026,16313,1627577873293936968,camera_accel_optical_frame,0.0,0.0,0.0,0.0,-1.0,0.0,0.0,0.0,0.0,0.0,0.0,0.0,0.0,0.0,0.0,0.0,0.01,0.0,0.0,0.0,0.01,0.0,0.0,0.0,0.01,0.0686465501785,-10.0714292526,-0.00980664975941,0.01,0.0,0.0,0.0,0.01,0.0,0.0,0.0,0.01
1627577873316682002,16314,1627577873309763432,camera_accel_optical_frame,0.0,0.0,0.0,0.0,-1.0,0.0,0.0,0.0,0.0,0.0,0.0,0.0,0.0,0.0,0.0,0.0,0.01,0.0,0.0,0.0,0.01,0.0,0.0,0.0,0.01,0.451105892658,-9.14960384369,1.16699135303,0.01,0.0,0.0,0.0,0.01,0.0,0.0,0.0,0.01
1627577873333063415,16315,1627577873325589895,camera_accel_optical_frame,0.0,0.0,0.0,0.0,-1.0,0.0,0.0,0.0,0.0,0.0,0.0,0.0,0.0,0.0,0.0,0.0,0.01,0.0,0.0,0.0,0.01,0.0,0.0,0.0,0.01,0.264779537916,-9.01231098175,-0.912018418312,0.01,0.0,0.0,0.0,0.01,0.0,0.0,0.0,0.01
1627577873348516318,16316,1627577873341416121,camera_accel_optical_frame,0.0,0.0,0.0,0.0,-1.0,0.0,0.0,0.0,0.0,0.0,0.0,0.0,0.0,0.0,0.0,0.0,0.01,0.0,0.0,0.0,0.01,0.0,0.0,0.0,0.01,-0.813951909542,-13.0624570847,-0.0490332469344,0.01,0.0,0.0,0.0,0.01,0.0,0.0,0.0,0.01
1627577873364250114,16317,1627577873357243299,camera_accel_optical_frame,0.0,0.0,0.0,0.0,-1.0,0.0,0.0,0.0,0.0,0.0,0.0,0.0,0.0,0.0,0.0,0.0,0.01,0.0,0.0,0.0,0.01,0.0,0.0,0.0,0.01,0.529559075832,-9.2868976593,-0.362846046686,0.01,0.0,0.0,0.0,0.01,0.0,0.0,0.0,0.01
1627577873379745035,16318,1627577873373067379,camera_accel_optical_frame,0.0,0.0,0.0,0.0,-1.0,0.0,0.0,0.0,0.0,0.0,0.0,0.0,0.0,0.0,0.0,0.0,0.01,0.0,0.0,0.0,0.01,0.0,0.0,0.0,0.01,-0.0882598459721,-9.03192424774,-1.10815143585,0.01,0.0,0.0,0.0,0.01,0.0,0.0,0.0,0.01
1627577873396848911,16319,1627577873388896465,camera_accel_optical_frame,0.0,0.0,0.0,0.0,-1.0,0.0,0.0,0.0,0.0,0.0,0.0,0.0,0.0,0.0,0.0,0.0,0.01,0.0,0.0,0.0,0.01,0.0,0.0,0.0,0.01,1.04931151867,-10.9540281296,1.16699135303,0.01,0.0,0.0,0.0,0.01,0.0,0.0,0.0,0.01
1627577873411542829,16320,1627577873404722452,camera_accel_optical_frame,0.0,0.0,0.0,0.0,-1.0,0.0,0.0,0.0,0.0,0.0,0.0,0.0,0.0,0.0,0.0,0.0,0.01,0.0,0.0,0.0,0.01,0.0,0.0,0.0,0.01,-0.0490332469344,-13.0624570847,-0.0686465501785,0.01,0.0,0.0,0.0,0.01,0.0,0.0,0.0,0.01
1627577873427381484,16321,1627577873420548439,camera_accel_optical_frame,0.0,0.0,0.0,0.0,-1.0,0.0,0.0,0.0,0.0,0.0,0.0,0.0,0.0,0.0,0.0,0.0,0.01,0.0,0.0,0.0,0.01,0.0,0.0,0.0,0.01,0.12748645246,-11.2188072205,0.402072638273,0.01,0.0,0.0,0.0,0.01,0.0,0.0,0.0,0.01
1627577873443128868,16322,1627577873436374187,camera_accel_optical_frame,0.0,0.0,0.0,0.0,-1.0,0.0,0.0,0.0,0.0,0.0,0.0,0.0,0.0,0.0,0.0,0.0,0.01,0.0,0.0,0.0,0.01,0.0,0.0,0.0,0.01,0.872791826725,-8.9044380188,0.186326339841,0.01,0.0,0.0,0.0,0.01,0.0,0.0,0.0,0.01
1627577873458987591,16323,1627577873452198982,camera_accel_optical_frame,0.0,0.0,0.0,0.0,-1.0,0.0,0.0,0.0,0.0,0.0,0.0,0.0,0.0,0.0,0.0,0.0,0.01,0.0,0.0,0.0,0.01,0.0,0.0,0.0,0.01,-0.0686465501785,-10.9344148636,1.51022410393,0.01,0.0,0.0,0.0,0.01,0.0,0.0,0.0,0.01
1627577873475086022,16324,1627577873468022346,camera_accel_optical_frame,0.0,0.0,0.0,0.0,-1.0,0.0,0.0,0.0,0.0,0.0,0.0,0.0,0.0,0.0,0.0,0.0,0.01,0.0,0.0,0.0,0.01,0.0,0.0,0.0,0.01,0.205939650536,-7.71783351898,-0.853178501129,0.01,0.0,0.0,0.0,0.01,0.0,0.0,0.0,0.01
1627577873490737476,16325,1627577873483850956,camera_accel_optical_frame,0.0,0.0,0.0,0.0,-1.0,0.0,0.0,0.0,0.0,0.0,0.0,0.0,0.0,0.0,0.0,0.0,0.01,0.0,0.0,0.0,0.01,0.0,0.0,0.0,0.01,-0.186326339841,-8.00222587585,0.0686465501785,0.01,0.0,0.0,0.0,0.01,0.0,0.0,0.0,0.01
1627577873506612469,16326,1627577873499675751,camera_accel_optical_frame,0.0,0.0,0.0,0.0,-1.0,0.0,0.0,0.0,0.0,0.0,0.0,0.0,0.0,0.0,0.0,0.0,0.01,0.0,0.0,0.0,0.01,0.0,0.0,0.0,0.01,-0.0490332469344,-9.49283695221,-0.549172401428,0.01,0.0,0.0,0.0,0.01,0.0,0.0,0.0,0.01
1627577873522702218,16327,1627577873515504122,camera_accel_optical_frame,0.0,0.0,0.0,0.0,-1.0,0.0,0.0,0.0,0.0,0.0,0.0,0.0,0.0,0.0,0.0,0.0,0.01,0.0,0.0,0.0,0.01,0.0,0.0,0.0,0.01,0.225552946329,-9.61051654816,0.402072638273,0.01,0.0,0.0,0.0,0.01,0.0,0.0,0.0,0.01
1627577873538585266,16328,1627577873531328440,camera_accel_optical_frame,0.0,0.0,0.0,0.0,-1.0,0.0,0.0,0.0,0.0,0.0,0.0,0.0,0.0,0.0,0.0,0.0,0.01,0.0,0.0,0.0,0.01,0.0,0.0,0.0,0.01,0.0294199492782,-7.65899324417,-0.107873149216,0.01,0.0,0.0,0.0,0.01,0.0,0.0,0.0,0.01
1627577873554419019,16329,1627577873547260523,camera_accel_optical_frame,0.0,0.0,0.0,0.0,-1.0,0.0,0.0,0.0,0.0,0.0,0.0,0.0,0.0,0.0,0.0,0.0,0.01,0.0,0.0,0.0,0.01,0.0,0.0,0.0,0.01,-0.0294199492782,-7.40402078629,0.0490332469344,0.01,0.0,0.0,0.0,0.01,0.0,0.0,0.0,0.01
1627577873570092332,16330,1627577873563191891,camera_accel_optical_frame,0.0,0.0,0.0,0.0,-1.0,0.0,0.0,0.0,0.0,0.0,0.0,0.0,0.0,0.0,0.0,0.0,0.01,0.0,0.0,0.0,0.01,0.0,0.0,0.0,0.01,0.627625584602,-8.61023807526,0.784531950951,0.01,0.0,0.0,0.0,0.01,0.0,0.0,0.0,0.01
1627577873586121786,16331,1627577873579123974,camera_accel_optical_frame,0.0,0.0,0.0,0.0,-1.0,0.0,0.0,0.0,0.0,0.0,0.0,0.0,0.0,0.0,0.0,0.0,0.01,0.0,0.0,0.0,0.01,0.0,0.0,0.0,0.01,0.343232750893,-9.5124502182,1.10815143585,0.01,0.0,0.0,0.0,0.01,0.0,0.0,0.0,0.01
1627577873601965396,16332,1627577873595055580,camera_accel_optical_frame,0.0,0.0,0.0,0.0,-1.0,0.0,0.0,0.0,0.0,0.0,0.0,0.0,0.0,0.0,0.0,0.0,0.01,0.0,0.0,0.0,0.01,0.0,0.0,0.0,0.01,0.38245934248,-7.61976671219,0.00980664975941,0.01,0.0,0.0,0.0,0.01,0.0,0.0,0.0,0.01
1627577873617773348,16333,1627577873610989809,camera_accel_optical_frame,0.0,0.0,0.0,0.0,-1.0,0.0,0.0,0.0,0.0,0.0,0.0,0.0,0.0,0.0,0.0,0.0,0.01,0.0,0.0,0.0,0.01,0.0,0.0,0.0,0.01,0.912018418312,-8.96327781677,1.62790381908,0.01,0.0,0.0,0.0,0.01,0.0,0.0,0.0,0.01
1627577873633788393,16334,1627577873626921415,camera_accel_optical_frame,0.0,0.0,0.0,0.0,-1.0,0.0,0.0,0.0,0.0,0.0,0.0,0.0,0.0,0.0,0.0,0.0,0.01,0.0,0.0,0.0,0.01,0.0,0.0,0.0,0.01,0.833565235138,-8.22777938843,0.490332484245,0.01,0.0,0.0,0.0,0.01,0.0,0.0,0.0,0.01
1627577873649490122,16335,1627577873642855644,camera_accel_optical_frame,0.0,0.0,0.0,0.0,-1.0,0.0,0.0,0.0,0.0,0.0,0.0,0.0,0.0,0.0,0.0,0.0,0.01,0.0,0.0,0.0,0.01,0.0,0.0,0.0,0.01,0.912018418312,-8.04145240784,2.39282250404,0.01,0.0,0.0,0.0,0.01,0.0,0.0,0.0,0.01
1627577873665664984,16336,1627577873658790588,camera_accel_optical_frame,0.0,0.0,0.0,0.0,-1.0,0.0,0.0,0.0,0.0,0.0,0.0,0.0,0.0,0.0,0.0,0.0,0.01,0.0,0.0,0.0,0.01,0.0,0.0,0.0,0.01,0.853178501129,-6.17818927765,1.45138418674,0.01,0.0,0.0,0.0,0.01,0.0,0.0,0.0,0.01
1627577873681066460,16337,1627577873674723864,camera_accel_optical_frame,0.0,0.0,0.0,0.0,-1.0,0.0,0.0,0.0,0.0,0.0,0.0,0.0,0.0,0.0,0.0,0.0,0.01,0.0,0.0,0.0,0.01,0.0,0.0,0.0,0.01,0.784531950951,-6.61948871613,1.14737796783,0.01,0.0,0.0,0.0,0.01,0.0,0.0,0.0,0.01
1627577873697123385,16338,1627577873690658808,camera_accel_optical_frame,0.0,0.0,0.0,0.0,-1.0,0.0,0.0,0.0,0.0,0.0,0.0,0.0,0.0,0.0,0.0,0.0,0.01,0.0,0.0,0.0,0.01,0.0,0.0,0.0,0.01,0.568785667419,-11.2188072205,2.25552940369,0.01,0.0,0.0,0.0,0.01,0.0,0.0,0.0,0.01
1627577873712925308,16339,1627577873706595182,camera_accel_optical_frame,0.0,0.0,0.0,0.0,-1.0,0.0,0.0,0.0,0.0,0.0,0.0,0.0,0.0,0.0,0.0,0.0,0.01,0.0,0.0,0.0,0.01,0.0,0.0,0.0,0.01,0.38245934248,-12.9055509567,1.8926833868,0.01,0.0,0.0,0.0,0.01,0.0,0.0,0.0,0.01
1627577873728580258,16340,1627577873722533226,camera_accel_optical_frame,0.0,0.0,0.0,0.0,-1.0,0.0,0.0,0.0,0.0,0.0,0.0,0.0,0.0,0.0,0.0,0.0,0.01,0.0,0.0,0.0,0.01,0.0,0.0,0.0,0.01,0.686465501785,-14.2294492722,1.93191003799,0.01,0.0,0.0,0.0,0.01,0.0,0.0,0.0,0.01
1627577873744705157,16341,1627577873738468885,camera_accel_optical_frame,0.0,0.0,0.0,0.0,-1.0,0.0,0.0,0.0,0.0,0.0,0.0,0.0,0.0,0.0,0.0,0.0,0.01,0.0,0.0,0.0,0.01,0.0,0.0,0.0,0.01,0.147099748254,-16.2594261169,2.5399222374,0.01,0.0,0.0,0.0,0.01,0.0,0.0,0.0,0.01
1627577873760157442,16342,1627577873754405975,camera_accel_optical_frame,0.0,0.0,0.0,0.0,-1.0,0.0,0.0,0.0,0.0,0.0,0.0,0.0,0.0,0.0,0.0,0.0,0.01,0.0,0.0,0.0,0.01,0.0,0.0,0.0,0.01,0.166713044047,-11.7581729889,-0.509945809841,0.01,0.0,0.0,0.0,0.01,0.0,0.0,0.0,0.01
1627577873775827920,16343,1627577873770345688,camera_accel_optical_frame,0.0,0.0,0.0,0.0,-1.0,0.0,0.0,0.0,0.0,0.0,0.0,0.0,0.0,0.0,0.0,0.0,0.01,0.0,0.0,0.0,0.01,0.0,0.0,0.0,0.01,0.0490332469344,-10.5519552231,2.05939650536,0.01,0.0,0.0,0.0,0.01,0.0,0.0,0.0,0.01
1627577873791912119,16344,1627577873786285877,camera_accel_optical_frame,0.0,0.0,0.0,0.0,-1.0,0.0,0.0,0.0,0.0,0.0,0.0,0.0,0.0,0.0,0.0,0.0,0.01,0.0,0.0,0.0,0.01,0.0,0.0,0.0,0.01,0.107873149216,-9.01231098175,0.205939650536,0.01,0.0,0.0,0.0,0.01,0.0,0.0,0.0,0.01
1627577873807623892,16345,1627577873802222967,camera_accel_optical_frame,0.0,0.0,0.0,0.0,-1.0,0.0,0.0,0.0,0.0,0.0,0.0,0.0,0.0,0.0,0.0,0.0,0.01,0.0,0.0,0.0,0.01,0.0,0.0,0.0,0.01,-0.186326339841,-12.2583122253,0.608012259007,0.01,0.0,0.0,0.0,0.01,0.0,0.0,0.0,0.01
1627577873823459431,16346,1627577873818162203,camera_accel_optical_frame,0.0,0.0,0.0,0.0,-1.0,0.0,0.0,0.0,0.0,0.0,0.0,0.0,0.0,0.0,0.0,0.0,0.01,0.0,0.0,0.0,0.01,0.0,0.0,0.0,0.01,-0.431492596865,-13.5331764221,0.28439283371,0.01,0.0,0.0,0.0,0.01,0.0,0.0,0.0,0.01
1627577873839535831,16347,1627577873834103107,camera_accel_optical_frame,0.0,0.0,0.0,0.0,-1.0,0.0,0.0,0.0,0.0,0.0,0.0,0.0,0.0,0.0,0.0,0.0,0.01,0.0,0.0,0.0,0.01,0.0,0.0,0.0,0.01,0.107873149216,-11.3757133484,0.627625584602,0.01,0.0,0.0,0.0,0.01,0.0,0.0,0.0,0.01
1627577873855389748,16348,1627577873850044489,camera_accel_optical_frame,0.0,0.0,0.0,0.0,-1.0,0.0,0.0,0.0,0.0,0.0,0.0,0.0,0.0,0.0,0.0,0.0,0.01,0.0,0.0,0.0,0.01,0.0,0.0,0.0,0.01,0.588398993015,-8.34545898438,0.568785667419,0.01,0.0,0.0,0.0,0.01,0.0,0.0,0.0,0.01
1627577873871252607,16349,1627577873865984678,camera_accel_optical_frame,0.0,0.0,0.0,0.0,-1.0,0.0,0.0,0.0,0.0,0.0,0.0,0.0,0.0,0.0,0.0,0.0,0.01,0.0,0.0,0.0,0.01,0.0,0.0,0.0,0.01,1.18660461903,-4.70719194412,-1.31409108639,0.01,0.0,0.0,0.0,0.01,0.0,0.0,0.0,0.01
1627577873887167093,16350,1627577873881925106,camera_accel_optical_frame,0.0,0.0,0.0,0.0,-1.0,0.0,0.0,0.0,0.0,0.0,0.0,0.0,0.0,0.0,0.0,0.0,0.01,0.0,0.0,0.0,0.01,0.0,0.0,0.0,0.01,-1.67693710327,-8.30623245239,-0.402072638273,0.01,0.0,0.0,0.0,0.01,0.0,0.0,0.0,0.01
1627577873903523116,16351,1627577873897867203,camera_accel_optical_frame,0.0,0.0,0.0,0.0,-1.0,0.0,0.0,0.0,0.0,0.0,0.0,0.0,0.0,0.0,0.0,0.0,0.01,0.0,0.0,0.0,0.01,0.0,0.0,0.0,0.01,1.43177092075,-0.304006129503,-0.706078767776,0.01,0.0,0.0,0.0,0.01,0.0,0.0,0.0,0.01
1627577873919048637,16352,1627577873913810968,camera_accel_optical_frame,0.0,0.0,0.0,0.0,-1.0,0.0,0.0,0.0,0.0,0.0,0.0,0.0,0.0,0.0,0.0,0.0,0.01,0.0,0.0,0.0,0.01,0.0,0.0,0.0,0.01,-0.205939650536,-4.66796541214,-1.81423020363,0.01,0.0,0.0,0.0,0.01,0.0,0.0,0.0,0.01
1627577873935027205,16353,1627577873929757357,camera_accel_optical_frame,0.0,0.0,0.0,0.0,-1.0,0.0,0.0,0.0,0.0,0.0,0.0,0.0,0.0,0.0,0.0,0.0,0.01,0.0,0.0,0.0,0.01,0.0,0.0,0.0,0.01,0.264779537916,-10.1694955826,-0.509945809841,0.01,0.0,0.0,0.0,0.01,0.0,0.0,0.0,0.01
1627577873950810738,16354,1627577873945701838,camera_accel_optical_frame,0.0,0.0,0.0,0.0,-1.0,0.0,0.0,0.0,0.0,0.0,0.0,0.0,0.0,0.0,0.0,0.0,0.01,0.0,0.0,0.0,0.01,0.0,0.0,0.0,0.01,1.2944778204,-11.620880127,2.25552940369,0.01,0.0,0.0,0.0,0.01,0.0,0.0,0.0,0.01
1627577873966227439,16355,1627577873961645365,camera_accel_optical_frame,0.0,0.0,0.0,0.0,-1.0,0.0,0.0,0.0,0.0,0.0,0.0,0.0,0.0,0.0,0.0,0.0,0.01,0.0,0.0,0.0,0.01,0.0,0.0,0.0,0.01,-0.549172401428,-12.8859376907,-0.529559075832,0.01,0.0,0.0,0.0,0.01,0.0,0.0,0.0,0.01
1627577873982452459,16356,1627577873977592230,camera_accel_optical_frame,0.0,0.0,0.0,0.0,-1.0,0.0,0.0,0.0,0.0,0.0,0.0,0.0,0.0,0.0,0.0,0.0,0.01,0.0,0.0,0.0,0.01,0.0,0.0,0.0,0.01,-0.28439283371,-13.5724029541,1.10815143585,0.01,0.0,0.0,0.0,0.01,0.0,0.0,0.0,0.01
1627577873998699865,16357,1627577873993537903,camera_accel_optical_frame,0.0,0.0,0.0,0.0,-1.0,0.0,0.0,0.0,0.0,0.0,0.0,0.0,0.0,0.0,0.0,0.0,0.01,0.0,0.0,0.0,0.01,0.0,0.0,0.0,0.01,-0.107873149216,-12.6603851318,-0.411879301071,0.01,0.0,0.0,0.0,0.01,0.0,0.0,0.0,0.01
1627577874015244673,16358,1627577874009485722,camera_accel_optical_frame,0.0,0.0,0.0,0.0,-1.0,0.0,0.0,0.0,0.0,0.0,0.0,0.0,0.0,0.0,0.0,0.0,0.01,0.0,0.0,0.0,0.01,0.0,0.0,0.0,0.01,-0.12748645246,-12.7094182968,1.18660461903,0.01,0.0,0.0,0.0,0.01,0.0,0.0,0.0,0.01
1627577874030038713,16359,1627577874025431395,camera_accel_optical_frame,0.0,0.0,0.0,0.0,-1.0,0.0,0.0,0.0,0.0,0.0,0.0,0.0,0.0,0.0,0.0,0.0,0.01,0.0,0.0,0.0,0.01,0.0,0.0,0.0,0.01,1.10815143585,-10.0125894547,-0.833565235138,0.01,0.0,0.0,0.0,0.01,0.0,0.0,0.0,0.01
1627577874045510500,16360,1627577874041380405,camera_accel_optical_frame,0.0,0.0,0.0,0.0,-1.0,0.0,0.0,0.0,0.0,0.0,0.0,0.0,0.0,0.0,0.0,0.0,0.01,0.0,0.0,0.0,0.01,0.0,0.0,0.0,0.01,-0.0882598459721,-15.4748935699,1.99074995518,0.01,0.0,0.0,0.0,0.01,0.0,0.0,0.0,0.01
1627577874061149821,16361,1627577874057327032,camera_accel_optical_frame,0.0,0.0,0.0,0.0,-1.0,0.0,0.0,0.0,0.0,0.0,0.0,0.0,0.0,0.0,0.0,0.0,0.01,0.0,0.0,0.0,0.01,0.0,0.0,0.0,0.01,-0.12748645246,-12.1798591614,-0.745305359364,0.01,0.0,0.0,0.0,0.01,0.0,0.0,0.0,0.01
1627577874077118129,16362,1627577874073276281,camera_accel_optical_frame,0.0,0.0,0.0,0.0,-1.0,0.0,0.0,0.0,0.0,0.0,0.0,0.0,0.0,0.0,0.0,0.0,0.01,0.0,0.0,0.0,0.01,0.0,0.0,0.0,0.01,-0.0294199492782,-9.2868976593,0.470719188452,0.01,0.0,0.0,0.0,0.01,0.0,0.0,0.0,0.01
1627577874092918895,16363,1627577874089229345,camera_accel_optical_frame,0.0,0.0,0.0,0.0,-1.0,0.0,0.0,0.0,0.0,0.0,0.0,0.0,0.0,0.0,0.0,0.0,0.01,0.0,0.0,0.0,0.01,0.0,0.0,0.0,0.01,0.745305359364,-8.30623245239,0.304006129503,0.01,0.0,0.0,0.0,0.01,0.0,0.0,0.0,0.01
1627577874108962773,16364,1627577874105177402,camera_accel_optical_frame,0.0,0.0,0.0,0.0,-1.0,0.0,0.0,0.0,0.0,0.0,0.0,0.0,0.0,0.0,0.0,0.0,0.01,0.0,0.0,0.0,0.01,0.0,0.0,0.0,0.01,0.0686465501785,-7.78647994995,0.706078767776,0.01,0.0,0.0,0.0,0.01,0.0,0.0,0.0,0.01
1627577874124671086,16365,1627577874121126413,camera_accel_optical_frame,0.0,0.0,0.0,0.0,-1.0,0.0,0.0,0.0,0.0,0.0,0.0,0.0,0.0,0.0,0.0,0.0,0.01,0.0,0.0,0.0,0.01,0.0,0.0,0.0,0.01,-0.107873149216,-3.94227313995,-0.951245009899,0.01,0.0,0.0,0.0,0.01,0.0,0.0,0.0,0.01
1627577874140514322,16366,1627577874137078762,camera_accel_optical_frame,0.0,0.0,0.0,0.0,-1.0,0.0,0.0,0.0,0.0,0.0,0.0,0.0,0.0,0.0,0.0,0.0,0.01,0.0,0.0,0.0,0.01,0.0,0.0,0.0,0.01,0.186326339841,-3.78536677361,0.411879301071,0.01,0.0,0.0,0.0,0.01,0.0,0.0,0.0,0.01
1627577874156458217,16367,1627577874153029680,camera_accel_optical_frame,0.0,0.0,0.0,0.0,-1.0,0.0,0.0,0.0,0.0,0.0,0.0,0.0,0.0,0.0,0.0,0.0,0.01,0.0,0.0,0.0,0.01,0.0,0.0,0.0,0.01,0.853178501129,-3.67749357224,-0.0686465501785,0.01,0.0,0.0,0.0,0.01,0.0,0.0,0.0,0.01
1627577874172275225,16368,1627577874168983459,camera_accel_optical_frame,0.0,0.0,0.0,0.0,-1.0,0.0,0.0,0.0,0.0,0.0,0.0,0.0,0.0,0.0,0.0,0.0,0.01,0.0,0.0,0.0,0.01,0.0,0.0,0.0,0.01,0.647238910198,-5.41327047348,0.608012259007,0.01,0.0,0.0,0.0,0.01,0.0,0.0,0.0,0.01
1627577874188476374,16369,1627577874184935570,camera_accel_optical_frame,0.0,0.0,0.0,0.0,-1.0,0.0,0.0,0.0,0.0,0.0,0.0,0.0,0.0,0.0,0.0,0.0,0.01,0.0,0.0,0.0,0.01,0.0,0.0,0.0,0.01,0.470719188452,-6.79600811005,-0.686465501785,0.01,0.0,0.0,0.0,0.01,0.0,0.0,0.0,0.01
1627577874204185801,16370,1627577874200890064,camera_accel_optical_frame,0.0,0.0,0.0,0.0,-1.0,0.0,0.0,0.0,0.0,0.0,0.0,0.0,0.0,0.0,0.0,0.0,0.01,0.0,0.0,0.0,0.01,0.0,0.0,0.0,0.01,0.529559075832,-10.4931154251,0.892405152321,0.01,0.0,0.0,0.0,0.01,0.0,0.0,0.0,0.01
1627577874220238149,16371,1627577874216841459,camera_accel_optical_frame,0.0,0.0,0.0,0.0,-1.0,0.0,0.0,0.0,0.0,0.0,0.0,0.0,0.0,0.0,0.0,0.0,0.01,0.0,0.0,0.0,0.01,0.0,0.0,0.0,0.01,1.2748644352,-12.5427045822,3.72652697563,0.01,0.0,0.0,0.0,0.01,0.0,0.0,0.0,0.01
1627577874236120086,16372,1627577874232795238,camera_accel_optical_frame,0.0,0.0,0.0,0.0,-1.0,0.0,0.0,0.0,0.0,0.0,0.0,0.0,0.0,0.0,0.0,0.0,0.01,0.0,0.0,0.0,0.01,0.0,0.0,0.0,0.01,1.31409108639,-11.7385597229,1.5690639019,0.01,0.0,0.0,0.0,0.01,0.0,0.0,0.0,0.01
1627577874251919727,16373,1627577874248747587,camera_accel_optical_frame,0.0,0.0,0.0,0.0,-1.0,0.0,0.0,0.0,0.0,0.0,0.0,0.0,0.0,0.0,0.0,0.0,0.01,0.0,0.0,0.0,0.01,0.0,0.0,0.0,0.01,0.0,-13.0036172867,1.99074995518,0.01,0.0,0.0,0.0,0.01,0.0,0.0,0.0,0.01
1627577874267339074,16374,1627577874264700413,camera_accel_optical_frame,0.0,0.0,0.0,0.0,-1.0,0.0,0.0,0.0,0.0,0.0,0.0,0.0,0.0,0.0,0.0,0.0,0.01,0.0,0.0,0.0,0.01,0.0,0.0,0.0,0.01,0.0294199492782,-12.0425662994,0.304006129503,0.01,0.0,0.0,0.0,0.01,0.0,0.0,0.0,0.01
1627577874283486828,16375,1627577874280653715,camera_accel_optical_frame,0.0,0.0,0.0,0.0,-1.0,0.0,0.0,0.0,0.0,0.0,0.0,0.0,0.0,0.0,0.0,0.0,0.01,0.0,0.0,0.0,0.01,0.0,0.0,0.0,0.01,0.0294199492782,-13.5920162201,3.30484104156,0.01,0.0,0.0,0.0,0.01,0.0,0.0,0.0,0.01
1627577874299256980,16376,1627577874296607971,camera_accel_optical_frame,0.0,0.0,0.0,0.0,-1.0,0.0,0.0,0.0,0.0,0.0,0.0,0.0,0.0,0.0,0.0,0.0,0.01,0.0,0.0,0.0,0.01,0.0,0.0,0.0,0.01,0.470719188452,-11.2972602844,-0.12748645246,0.01,0.0,0.0,0.0,0.01,0.0,0.0,0.0,0.01
1627577874315496306,16377,1627577874312564373,camera_accel_optical_frame,0.0,0.0,0.0,0.0,-1.0,0.0,0.0,0.0,0.0,0.0,0.0,0.0,0.0,0.0,0.0,0.0,0.01,0.0,0.0,0.0,0.01,0.0,0.0,0.0,0.01,-0.0686465501785,-15.1120471954,3.04006147385,0.01,0.0,0.0,0.0,0.01,0.0,0.0,0.0,0.01
1627577874331227939,16378,1627577874328521490,camera_accel_optical_frame,0.0,0.0,0.0,0.0,-1.0,0.0,0.0,0.0,0.0,0.0,0.0,0.0,0.0,0.0,0.0,0.0,0.01,0.0,0.0,0.0,0.01,0.0,0.0,0.0,0.01,0.00980664975941,-11.8856592178,0.0490332469344,0.01,0.0,0.0,0.0,0.01,0.0,0.0,0.0,0.01
1627577874346591432,16379,1627577874344480276,camera_accel_optical_frame,0.0,0.0,0.0,0.0,-1.0,0.0,0.0,0.0,0.0,0.0,0.0,0.0,0.0,0.0,0.0,0.0,0.01,0.0,0.0,0.0,0.01,0.0,0.0,0.0,0.01,0.304006129503,-11.562040329,2.2163028717,0.01,0.0,0.0,0.0,0.01,0.0,0.0,0.0,0.01
1627577874362587431,16380,1627577874360438585,camera_accel_optical_frame,0.0,0.0,0.0,0.0,-1.0,0.0,0.0,0.0,0.0,0.0,0.0,0.0,0.0,0.0,0.0,0.0,0.01,0.0,0.0,0.0,0.01,0.0,0.0,0.0,0.01,0.304006129503,-8.74753189087,1.08853816986,0.01,0.0,0.0,0.0,0.01,0.0,0.0,0.0,0.01
1627577874378195275,16381,1627577874376399279,camera_accel_optical_frame,0.0,0.0,0.0,0.0,-1.0,0.0,0.0,0.0,0.0,0.0,0.0,0.0,0.0,0.0,0.0,0.0,0.01,0.0,0.0,0.0,0.01,0.0,0.0,0.0,0.01,0.00980664975941,-5.68785667419,0.706078767776,0.01,0.0,0.0,0.0,0.01,0.0,0.0,0.0,0.01
1627577874394194966,16382,1627577874392359257,camera_accel_optical_frame,0.0,0.0,0.0,0.0,-1.0,0.0,0.0,0.0,0.0,0.0,0.0,0.0,0.0,0.0,0.0,0.0,0.01,0.0,0.0,0.0,0.01,0.0,0.0,0.0,0.01,0.431492596865,-2.59876227379,-0.912018418312,0.01,0.0,0.0,0.0,0.01,0.0,0.0,0.0,0.01
1627577874409925948,16383,1627577874408322573,camera_accel_optical_frame,0.0,0.0,0.0,0.0,-1.0,0.0,0.0,0.0,0.0,0.0,0.0,0.0,0.0,0.0,0.0,0.0,0.01,0.0,0.0,0.0,0.01,0.0,0.0,0.0,0.01,0.166713044047,-5.49172401428,1.18660461903,0.01,0.0,0.0,0.0,0.01,0.0,0.0,0.0,0.01
1627577874425673837,16384,1627577874424282789,camera_accel_optical_frame,0.0,0.0,0.0,0.0,-1.0,0.0,0.0,0.0,0.0,0.0,0.0,0.0,0.0,0.0,0.0,0.0,0.01,0.0,0.0,0.0,0.01,0.0,0.0,0.0,0.01,0.402072638273,-5.70746994019,-1.43177092075,0.01,0.0,0.0,0.0,0.01,0.0,0.0,0.0,0.01
1627577874441790288,16385,1627577874440246820,camera_accel_optical_frame,0.0,0.0,0.0,0.0,-1.0,0.0,0.0,0.0,0.0,0.0,0.0,0.0,0.0,0.0,0.0,0.0,0.01,0.0,0.0,0.0,0.01,0.0,0.0,0.0,0.01,0.725692093372,-8.46313858032,1.85345685482,0.01,0.0,0.0,0.0,0.01,0.0,0.0,0.0,0.01
1627577874457397562,16386,1627577874456212521,camera_accel_optical_frame,0.0,0.0,0.0,0.0,-1.0,0.0,0.0,0.0,0.0,0.0,0.0,0.0,0.0,0.0,0.0,0.0,0.01,0.0,0.0,0.0,0.01,0.0,0.0,0.0,0.01,0.833565235138,-7.84531974792,0.0490332469344,0.01,0.0,0.0,0.0,0.01,0.0,0.0,0.0,0.01
1627577874473425127,16387,1627577874472175598,camera_accel_optical_frame,0.0,0.0,0.0,0.0,-1.0,0.0,0.0,0.0,0.0,0.0,0.0,0.0,0.0,0.0,0.0,0.0,0.01,0.0,0.0,0.0,0.01,0.0,0.0,0.0,0.01,0.402072638273,-8.84559822083,1.2748644352,0.01,0.0,0.0,0.0,0.01,0.0,0.0,0.0,0.01
1627577874489188063,16388,1627577874488137245,camera_accel_optical_frame,0.0,0.0,0.0,0.0,-1.0,0.0,0.0,0.0,0.0,0.0,0.0,0.0,0.0,0.0,0.0,0.0,0.01,0.0,0.0,0.0,0.01,0.0,0.0,0.0,0.01,0.490332484245,-7.23730754852,-0.568785667419,0.01,0.0,0.0,0.0,0.01,0.0,0.0,0.0,0.01
1627577874505097249,16389,1627577874504100323,camera_accel_optical_frame,0.0,0.0,0.0,0.0,-1.0,0.0,0.0,0.0,0.0,0.0,0.0,0.0,0.0,0.0,0.0,0.0,0.01,0.0,0.0,0.0,0.01,0.0,0.0,0.0,0.01,0.784531950951,-10.1498823166,2.77528190613,0.01,0.0,0.0,0.0,0.01,0.0,0.0,0.0,0.01
1627577874521317948,16390,1627577874520065069,camera_accel_optical_frame,0.0,0.0,0.0,0.0,-1.0,0.0,0.0,0.0,0.0,0.0,0.0,0.0,0.0,0.0,0.0,0.0,0.01,0.0,0.0,0.0,0.01,0.0,0.0,0.0,0.01,0.872791826725,-11.562040329,0.990471601486,0.01,0.0,0.0,0.0,0.01,0.0,0.0,0.0,0.01
1627577874537246080,16391,1627577874536029577,camera_accel_optical_frame,0.0,0.0,0.0,0.0,-1.0,0.0,0.0,0.0,0.0,0.0,0.0,0.0,0.0,0.0,0.0,0.0,0.01,0.0,0.0,0.0,0.01,0.0,0.0,0.0,0.01,0.0490332469344,-12.7682580948,0.323619455099,0.01,0.0,0.0,0.0,0.01,0.0,0.0,0.0,0.01
1627577874552899450,16392,1627577874551878452,camera_accel_optical_frame,0.0,0.0,0.0,0.0,-1.0,0.0,0.0,0.0,0.0,0.0,0.0,0.0,0.0,0.0,0.0,0.0,0.01,0.0,0.0,0.0,0.01,0.0,0.0,0.0,0.01,0.627625584602,-14.9551410675,1.04931151867,0.01,0.0,0.0,0.0,0.01,0.0,0.0,0.0,0.01
1627577874568761012,16393,1627577874567728281,camera_accel_optical_frame,0.0,0.0,0.0,0.0,-1.0,0.0,0.0,0.0,0.0,0.0,0.0,0.0,0.0,0.0,0.0,0.0,0.01,0.0,0.0,0.0,0.01,0.0,0.0,0.0,0.01,0.764918684959,-15.9652261734,2.15746283531,0.01,0.0,0.0,0.0,0.01,0.0,0.0,0.0,0.01
1627577874584402079,16394,1627577874583575249,camera_accel_optical_frame,0.0,0.0,0.0,0.0,-1.0,0.0,0.0,0.0,0.0,0.0,0.0,0.0,0.0,0.0,0.0,0.0,0.01,0.0,0.0,0.0,0.01,0.0,0.0,0.0,0.01,-0.0686465501785,-12.7878713608,0.323619455099,0.01,0.0,0.0,0.0,0.01,0.0,0.0,0.0,0.01
1627577874600321237,16395,1627577874599421978,camera_accel_optical_frame,0.0,0.0,0.0,0.0,-1.0,0.0,0.0,0.0,0.0,0.0,0.0,0.0,0.0,0.0,0.0,0.0,0.01,0.0,0.0,0.0,0.01,0.0,0.0,0.0,0.01,-0.205939650536,-9.78703689575,-0.245166242123,0.01,0.0,0.0,0.0,0.01,0.0,0.0,0.0,0.01
1627577874616330564,16396,1627577874615271807,camera_accel_optical_frame,0.0,0.0,0.0,0.0,-1.0,0.0,0.0,0.0,0.0,0.0,0.0,0.0,0.0,0.0,0.0,0.0,0.01,0.0,0.0,0.0,0.01,0.0,0.0,0.0,0.01,-0.323619455099,-10.5519552231,-0.323619455099,0.01,0.0,0.0,0.0,0.01,0.0,0.0,0.0,0.01
1627577874632492467,16397,1627577874631119728,camera_accel_optical_frame,0.0,0.0,0.0,0.0,-1.0,0.0,0.0,0.0,0.0,0.0,0.0,0.0,0.0,0.0,0.0,0.0,0.01,0.0,0.0,0.0,0.01,0.0,0.0,0.0,0.01,-0.107873149216,-10.4538888931,0.627625584602,0.01,0.0,0.0,0.0,0.01,0.0,0.0,0.0,0.01
1627577874647846890,16398,1627577874646966457,camera_accel_optical_frame,0.0,0.0,0.0,0.0,-1.0,0.0,0.0,0.0,0.0,0.0,0.0,0.0,0.0,0.0,0.0,0.0,0.01,0.0,0.0,0.0,0.01,0.0,0.0,0.0,0.01,-0.431492596865,-8.78675842285,-0.686465501785,0.01,0.0,0.0,0.0,0.01,0.0,0.0,0.0,0.01
1627577874663575258,16399,1627577874662817478,camera_accel_optical_frame,0.0,0.0,0.0,0.0,-1.0,0.0,0.0,0.0,0.0,0.0,0.0,0.0,0.0,0.0,0.0,0.0,0.01,0.0,0.0,0.0,0.01,0.0,0.0,0.0,0.01,0.0882598459721,-8.54159164429,0.0,0.01,0.0,0.0,0.0,0.01,0.0,0.0,0.0,0.01
1627577874679464343,16400,1627577874678665400,camera_accel_optical_frame,0.0,0.0,0.0,0.0,-1.0,0.0,0.0,0.0,0.0,0.0,0.0,0.0,0.0,0.0,0.0,0.0,0.01,0.0,0.0,0.0,0.01,0.0,0.0,0.0,0.01,0.0882598459721,-8.46313858032,0.0490332469344,0.01,0.0,0.0,0.0,0.01,0.0,0.0,0.0,0.01
1627577874695154930,16401,1627577874694510221,camera_accel_optical_frame,0.0,0.0,0.0,0.0,-1.0,0.0,0.0,0.0,0.0,0.0,0.0,0.0,0.0,0.0,0.0,0.0,0.01,0.0,0.0,0.0,0.01,0.0,0.0,0.0,0.01,0.0882598459721,-6.54103517532,-1.33370435238,0.01,0.0,0.0,0.0,0.01,0.0,0.0,0.0,0.01
1627577874710877770,16402,1627577874710361004,camera_accel_optical_frame,0.0,0.0,0.0,0.0,-1.0,0.0,0.0,0.0,0.0,0.0,0.0,0.0,0.0,0.0,0.0,0.0,0.01,0.0,0.0,0.0,0.01,0.0,0.0,0.0,0.01,0.686465501785,-7.82570648193,0.970858335495,0.01,0.0,0.0,0.0,0.01,0.0,0.0,0.0,0.01
1627577874726951980,16403,1627577874726207972,camera_accel_optical_frame,0.0,0.0,0.0,0.0,-1.0,0.0,0.0,0.0,0.0,0.0,0.0,0.0,0.0,0.0,0.0,0.0,0.01,0.0,0.0,0.0,0.01,0.0,0.0,0.0,0.01,0.804145276546,-8.04145240784,0.28439283371,0.01,0.0,0.0,0.0,0.01,0.0,0.0,0.0,0.01
1627577874742649335,16404,1627577874742056847,camera_accel_optical_frame,0.0,0.0,0.0,0.0,-1.0,0.0,0.0,0.0,0.0,0.0,0.0,0.0,0.0,0.0,0.0,0.0,0.01,0.0,0.0,0.0,0.01,0.0,0.0,0.0,0.01,0.529559075832,-9.09076404572,0.343232750893,0.01,0.0,0.0,0.0,0.01,0.0,0.0,0.0,0.01
1627577874758686837,16405,1627577874757903814,camera_accel_optical_frame,0.0,0.0,0.0,0.0,-1.0,0.0,0.0,0.0,0.0,0.0,0.0,0.0,0.0,0.0,0.0,0.0,0.01,0.0,0.0,0.0,0.01,0.0,0.0,0.0,0.01,0.28439283371,-10.1498823166,-0.0490332469344,0.01,0.0,0.0,0.0,0.01,0.0,0.0,0.0,0.01
1627577874774389776,16406,1627577874773752689,camera_accel_optical_frame,0.0,0.0,0.0,0.0,-1.0,0.0,0.0,0.0,0.0,0.0,0.0,0.0,0.0,0.0,0.0,0.0,0.01,0.0,0.0,0.0,0.01,0.0,0.0,0.0,0.01,0.529559075832,-11.601266861,1.35331761837,0.01,0.0,0.0,0.0,0.01,0.0,0.0,0.0,0.01
1627577874790160075,16407,1627577874789601564,camera_accel_optical_frame,0.0,0.0,0.0,0.0,-1.0,0.0,0.0,0.0,0.0,0.0,0.0,0.0,0.0,0.0,0.0,0.0,0.01,0.0,0.0,0.0,0.01,0.0,0.0,0.0,0.01,0.764918684959,-12.3661851883,2.52030897141,0.01,0.0,0.0,0.0,0.01,0.0,0.0,0.0,0.01
1627577874806304064,16408,1627577874805449486,camera_accel_optical_frame,0.0,0.0,0.0,0.0,-1.0,0.0,0.0,0.0,0.0,0.0,0.0,0.0,0.0,0.0,0.0,0.0,0.01,0.0,0.0,0.0,0.01,0.0,0.0,0.0,0.01,0.245166242123,-10.8951883316,0.784531950951,0.01,0.0,0.0,0.0,0.01,0.0,0.0,0.0,0.01
1627577874822401107,16409,1627577874821296453,camera_accel_optical_frame,0.0,0.0,0.0,0.0,-1.0,0.0,0.0,0.0,0.0,0.0,0.0,0.0,0.0,0.0,0.0,0.0,0.01,0.0,0.0,0.0,0.01,0.0,0.0,0.0,0.01,0.323619455099,-8.6886920929,0.245166242123,0.01,0.0,0.0,0.0,0.01,0.0,0.0,0.0,0.01
1627577874837886355,16410,1627577874837145329,camera_accel_optical_frame,0.0,0.0,0.0,0.0,-1.0,0.0,0.0,0.0,0.0,0.0,0.0,0.0,0.0,0.0,0.0,0.0,0.01,0.0,0.0,0.0,0.01,0.0,0.0,0.0,0.01,0.0686465501785,-8.04145240784,0.470719188452,0.01,0.0,0.0,0.0,0.01,0.0,0.0,0.0,0.01
1627577874853953978,16411,1627577874852992296,camera_accel_optical_frame,0.0,0.0,0.0,0.0,-1.0,0.0,0.0,0.0,0.0,0.0,0.0,0.0,0.0,0.0,0.0,0.0,0.01,0.0,0.0,0.0,0.01,0.0,0.0,0.0,0.01,0.0686465501785,-7.48247385025,-0.451105892658,0.01,0.0,0.0,0.0,0.01,0.0,0.0,0.0,0.01
1627577874869620510,16412,1627577874868839979,camera_accel_optical_frame,0.0,0.0,0.0,0.0,-1.0,0.0,0.0,0.0,0.0,0.0,0.0,0.0,0.0,0.0,0.0,0.0,0.01,0.0,0.0,0.0,0.01,0.0,0.0,0.0,0.01,0.0686465501785,-8.44352531433,0.225552946329,0.01,0.0,0.0,0.0,0.01,0.0,0.0,0.0,0.01
1627577874885682717,16413,1627577874884685993,camera_accel_optical_frame,0.0,0.0,0.0,0.0,-1.0,0.0,0.0,0.0,0.0,0.0,0.0,0.0,0.0,0.0,0.0,0.0,0.01,0.0,0.0,0.0,0.01,0.0,0.0,0.0,0.01,0.107873149216,-8.44352531433,-0.245166242123,0.01,0.0,0.0,0.0,0.01,0.0,0.0,0.0,0.01
1627577874901467223,16414,1627577874900536776,camera_accel_optical_frame,0.0,0.0,0.0,0.0,-1.0,0.0,0.0,0.0,0.0,0.0,0.0,0.0,0.0,0.0,0.0,0.0,0.01,0.0,0.0,0.0,0.01,0.0,0.0,0.0,0.01,0.588398993015,-9.22805786133,1.04931151867,0.01,0.0,0.0,0.0,0.01,0.0,0.0,0.0,0.01
1627577874917727125,16415,1627577874916383743,camera_accel_optical_frame,0.0,0.0,0.0,0.0,-1.0,0.0,0.0,0.0,0.0,0.0,0.0,0.0,0.0,0.0,0.0,0.0,0.01,0.0,0.0,0.0,0.01,0.0,0.0,0.0,0.01,0.343232750893,-9.03192424774,-0.490332484245,0.01,0.0,0.0,0.0,0.01,0.0,0.0,0.0,0.01
1627577874933219270,16416,1627577874932233572,camera_accel_optical_frame,0.0,0.0,0.0,0.0,-1.0,0.0,0.0,0.0,0.0,0.0,0.0,0.0,0.0,0.0,0.0,0.0,0.01,0.0,0.0,0.0,0.01,0.0,0.0,0.0,0.01,0.431492596865,-9.8949098587,0.912018418312,0.01,0.0,0.0,0.0,0.01,0.0,0.0,0.0,0.01
1627577874948920201,16417,1627577874948081493,camera_accel_optical_frame,0.0,0.0,0.0,0.0,-1.0,0.0,0.0,0.0,0.0,0.0,0.0,0.0,0.0,0.0,0.0,0.0,0.01,0.0,0.0,0.0,0.01,0.0,0.0,0.0,0.01,0.431492596865,-10.3558225632,1.02969825268,0.01,0.0,0.0,0.0,0.01,0.0,0.0,0.0,0.01
1627577874965245826,16418,1627577874963930368,camera_accel_optical_frame,0.0,0.0,0.0,0.0,-1.0,0.0,0.0,0.0,0.0,0.0,0.0,0.0,0.0,0.0,0.0,0.0,0.01,0.0,0.0,0.0,0.01,0.0,0.0,0.0,0.01,0.402072638273,-9.7281961441,0.490332484245,0.01,0.0,0.0,0.0,0.01,0.0,0.0,0.0,0.01
1627577874980659351,16419,1627577874979777336,camera_accel_optical_frame,0.0,0.0,0.0,0.0,-1.0,0.0,0.0,0.0,0.0,0.0,0.0,0.0,0.0,0.0,0.0,0.0,0.01,0.0,0.0,0.0,0.01,0.0,0.0,0.0,0.01,0.872791826725,-10.83634758,1.5886772871,0.01,0.0,0.0,0.0,0.01,0.0,0.0,0.0,0.01
1627577874996815697,16420,1627577874995626211,camera_accel_optical_frame,0.0,0.0,0.0,0.0,-1.0,0.0,0.0,0.0,0.0,0.0,0.0,0.0,0.0,0.0,0.0,0.0,0.01,0.0,0.0,0.0,0.01,0.0,0.0,0.0,0.01,0.686465501785,-11.3168735504,-0.107873149216,0.01,0.0,0.0,0.0,0.01,0.0,0.0,0.0,0.01
