%time,field.header.seq,field.header.stamp,field.header.frame_id,field.orientation.x,field.orientation.y,field.orientation.z,field.orientation.w,field.orientation_covariance0,field.orientation_covariance1,field.orientation_covariance2,field.orientation_covariance3,field.orientation_covariance4,field.orientation_covariance5,field.orientation_covariance6,field.orientation_covariance7,field.orientation_covariance8,field.angular_velocity.x,field.angular_velocity.y,field.angular_velocity.z,field.angular_velocity_covariance0,field.angular_velocity_covariance1,field.angular_velocity_covariance2,field.angular_velocity_covariance3,field.angular_velocity_covariance4,field.angular_velocity_covariance5,field.angular_velocity_covariance6,field.angular_velocity_covariance7,field.angular_velocity_covariance8,field.linear_acceleration.x,field.linear_acceleration.y,field.linear_acceleration.z,field.linear_acceleration_covariance0,field.linear_acceleration_covariance1,field.linear_acceleration_covariance2,field.linear_acceleration_covariance3,field.linear_acceleration_covariance4,field.linear_acceleration_covariance5,field.linear_acceleration_covariance6,field.linear_acceleration_covariance7,field.linear_acceleration_covariance8
1627577691446824618,4839,1627577691445815325,camera_accel_optical_frame,0.0,0.0,0.0,0.0,-1.0,0.0,0.0,0.0,0.0,0.0,0.0,0.0,0.0,0.0,0.0,0.0,0.01,0.0,0.0,0.0,0.01,0.0,0.0,0.0,0.01,0.402072638273,-8.54159164429,-0.264779537916,0.01,0.0,0.0,0.0,0.01,0.0,0.0,0.0,0.01
1627577691462403705,4840,1627577691461665392,camera_accel_optical_frame,0.0,0.0,0.0,0.0,-1.0,0.0,0.0,0.0,0.0,0.0,0.0,0.0,0.0,0.0,0.0,0.0,0.01,0.0,0.0,0.0,0.01,0.0,0.0,0.0,0.01,0.549172401428,-9.85568332672,1.52983736992,0.01,0.0,0.0,0.0,0.01,0.0,0.0,0.0,0.01
1627577691478859470,4841,1627577691477517366,camera_accel_optical_frame,0.0,0.0,0.0,0.0,-1.0,0.0,0.0,0.0,0.0,0.0,0.0,0.0,0.0,0.0,0.0,0.0,0.01,0.0,0.0,0.0,0.01,0.0,0.0,0.0,0.01,0.431492596865,-9.41438388824,0.666852176189,0.01,0.0,0.0,0.0,0.01,0.0,0.0,0.0,0.01
1627577691494080657,4842,1627577691493367195,camera_accel_optical_frame,0.0,0.0,0.0,0.0,-1.0,0.0,0.0,0.0,0.0,0.0,0.0,0.0,0.0,0.0,0.0,0.0,0.01,0.0,0.0,0.0,0.01,0.0,0.0,0.0,0.01,0.186326339841,-8.61023807526,1.45138418674,0.01,0.0,0.0,0.0,0.01,0.0,0.0,0.0,0.01
1627577691510222875,4843,1627577691509215117,camera_accel_optical_frame,0.0,0.0,0.0,0.0,-1.0,0.0,0.0,0.0,0.0,0.0,0.0,0.0,0.0,0.0,0.0,0.0,0.01,0.0,0.0,0.0,0.01,0.0,0.0,0.0,0.01,-0.186326339841,-7.71783351898,-0.568785667419,0.01,0.0,0.0,0.0,0.01,0.0,0.0,0.0,0.01
1627577691526128889,4844,1627577691525064945,camera_accel_optical_frame,0.0,0.0,0.0,0.0,-1.0,0.0,0.0,0.0,0.0,0.0,0.0,0.0,0.0,0.0,0.0,0.0,0.01,0.0,0.0,0.0,0.01,0.0,0.0,0.0,0.01,-0.28439283371,-10.0125894547,0.813951909542,0.01,0.0,0.0,0.0,0.01,0.0,0.0,0.0,0.01
1627577691541903875,4845,1627577691540912867,camera_accel_optical_frame,0.0,0.0,0.0,0.0,-1.0,0.0,0.0,0.0,0.0,0.0,0.0,0.0,0.0,0.0,0.0,0.0,0.01,0.0,0.0,0.0,0.01,0.0,0.0,0.0,0.01,-0.0294199492782,-10.3754358292,-0.00980664975941,0.01,0.0,0.0,0.0,0.01,0.0,0.0,0.0,0.01
1627577691557934458,4846,1627577691556762934,camera_accel_optical_frame,0.0,0.0,0.0,0.0,-1.0,0.0,0.0,0.0,0.0,0.0,0.0,0.0,0.0,0.0,0.0,0.0,0.01,0.0,0.0,0.0,0.01,0.0,0.0,0.0,0.01,0.323619455099,-12.2386989594,2.31436944008,0.01,0.0,0.0,0.0,0.01,0.0,0.0,0.0,0.01
1627577691573835259,4847,1627577691572611809,camera_accel_optical_frame,0.0,0.0,0.0,0.0,-1.0,0.0,0.0,0.0,0.0,0.0,0.0,0.0,0.0,0.0,0.0,0.0,0.01,0.0,0.0,0.0,0.01,0.0,0.0,0.0,0.01,0.12748645246,-11.454167366,0.402072638273,0.01,0.0,0.0,0.0,0.01,0.0,0.0,0.0,0.01
1627577691589505050,4848,1627577691588460684,camera_accel_optical_frame,0.0,0.0,0.0,0.0,-1.0,0.0,0.0,0.0,0.0,0.0,0.0,0.0,0.0,0.0,0.0,0.0,0.01,0.0,0.0,0.0,0.01,0.0,0.0,0.0,0.01,0.12748645246,-9.93413639069,-0.0686465501785,0.01,0.0,0.0,0.0,0.01,0.0,0.0,0.0,0.01
1627577691605377093,4849,1627577691604312420,camera_accel_optical_frame,0.0,0.0,0.0,0.0,-1.0,0.0,0.0,0.0,0.0,0.0,0.0,0.0,0.0,0.0,0.0,0.0,0.01,0.0,0.0,0.0,0.01,0.0,0.0,0.0,0.01,0.166713044047,-10.3165950775,0.411879301071,0.01,0.0,0.0,0.0,0.01,0.0,0.0,0.0,0.01
1627577691621266681,4850,1627577691620161295,camera_accel_optical_frame,0.0,0.0,0.0,0.0,-1.0,0.0,0.0,0.0,0.0,0.0,0.0,0.0,0.0,0.0,0.0,0.0,0.01,0.0,0.0,0.0,0.01,0.0,0.0,0.0,0.01,0.745305359364,-11.2776470184,1.01008486748,0.01,0.0,0.0,0.0,0.01,0.0,0.0,0.0,0.01
1627577691637103561,4851,1627577691636011362,camera_accel_optical_frame,0.0,0.0,0.0,0.0,-1.0,0.0,0.0,0.0,0.0,0.0,0.0,0.0,0.0,0.0,0.0,0.0,0.01,0.0,0.0,0.0,0.01,0.0,0.0,0.0,0.01,0.529559075832,-11.8366260529,0.529559075832,0.01,0.0,0.0,0.0,0.01,0.0,0.0,0.0,0.01
1627577691652478554,4852,1627577691651861429,camera_accel_optical_frame,0.0,0.0,0.0,0.0,-1.0,0.0,0.0,0.0,0.0,0.0,0.0,0.0,0.0,0.0,0.0,0.0,0.01,0.0,0.0,0.0,0.01,0.0,0.0,0.0,0.01,0.411879301071,-10.9736413956,0.431492596865,0.01,0.0,0.0,0.0,0.01,0.0,0.0,0.0,0.01
1627577691668639485,4853,1627577691667713165,camera_accel_optical_frame,0.0,0.0,0.0,0.0,-1.0,0.0,0.0,0.0,0.0,0.0,0.0,0.0,0.0,0.0,0.0,0.0,0.01,0.0,0.0,0.0,0.01,0.0,0.0,0.0,0.01,0.568785667419,-9.47322368622,0.245166242123,0.01,0.0,0.0,0.0,0.01,0.0,0.0,0.0,0.01
1627577691684243052,4854,1627577691683564186,camera_accel_optical_frame,0.0,0.0,0.0,0.0,-1.0,0.0,0.0,0.0,0.0,0.0,0.0,0.0,0.0,0.0,0.0,0.0,0.01,0.0,0.0,0.0,0.01,0.0,0.0,0.0,0.01,0.588398993015,-8.9044380188,0.892405152321,0.01,0.0,0.0,0.0,0.01,0.0,0.0,0.0,0.01
1627577691700101797,4855,1627577691699414015,camera_accel_optical_frame,0.0,0.0,0.0,0.0,-1.0,0.0,0.0,0.0,0.0,0.0,0.0,0.0,0.0,0.0,0.0,0.0,0.01,0.0,0.0,0.0,0.01,0.0,0.0,0.0,0.01,0.343232750893,-7.10001420975,0.411879301071,0.01,0.0,0.0,0.0,0.01,0.0,0.0,0.0,0.01
1627577691715983523,4856,1627577691715264797,camera_accel_optical_frame,0.0,0.0,0.0,0.0,-1.0,0.0,0.0,0.0,0.0,0.0,0.0,0.0,0.0,0.0,0.0,0.0,0.01,0.0,0.0,0.0,0.01,0.0,0.0,0.0,0.01,0.205939650536,-6.25664234161,-0.490332484245,0.01,0.0,0.0,0.0,0.01,0.0,0.0,0.0,0.01
1627577691731765677,4857,1627577691731114864,camera_accel_optical_frame,0.0,0.0,0.0,0.0,-1.0,0.0,0.0,0.0,0.0,0.0,0.0,0.0,0.0,0.0,0.0,0.0,0.01,0.0,0.0,0.0,0.01,0.0,0.0,0.0,0.01,-0.0490332469344,-8.72791862488,-0.264779537916,0.01,0.0,0.0,0.0,0.01,0.0,0.0,0.0,0.01
1627577691747988028,4858,1627577691746966839,camera_accel_optical_frame,0.0,0.0,0.0,0.0,-1.0,0.0,0.0,0.0,0.0,0.0,0.0,0.0,0.0,0.0,0.0,0.0,0.01,0.0,0.0,0.0,0.01,0.0,0.0,0.0,0.01,0.225552946329,-8.44352531433,-0.323619455099,0.01,0.0,0.0,0.0,0.01,0.0,0.0,0.0,0.01
1627577691763659957,4859,1627577691762818575,camera_accel_optical_frame,0.0,0.0,0.0,0.0,-1.0,0.0,0.0,0.0,0.0,0.0,0.0,0.0,0.0,0.0,0.0,0.0,0.01,0.0,0.0,0.0,0.01,0.0,0.0,0.0,0.01,0.608012259007,-8.2866191864,0.147099748254,0.01,0.0,0.0,0.0,0.01,0.0,0.0,0.0,0.01
1627577691779289702,4860,1627577691778667450,camera_accel_optical_frame,0.0,0.0,0.0,0.0,-1.0,0.0,0.0,0.0,0.0,0.0,0.0,0.0,0.0,0.0,0.0,0.0,0.01,0.0,0.0,0.0,0.01,0.0,0.0,0.0,0.01,0.411879301071,-9.45361042023,0.264779537916,0.01,0.0,0.0,0.0,0.01,0.0,0.0,0.0,0.01
1627577691795487015,4861,1627577691794514418,camera_accel_optical_frame,0.0,0.0,0.0,0.0,-1.0,0.0,0.0,0.0,0.0,0.0,0.0,0.0,0.0,0.0,0.0,0.0,0.01,0.0,0.0,0.0,0.01,0.0,0.0,0.0,0.01,0.666852176189,-9.64974308014,-0.147099748254,0.01,0.0,0.0,0.0,0.01,0.0,0.0,0.0,0.01
1627577691811341376,4862,1627577691810363293,camera_accel_optical_frame,0.0,0.0,0.0,0.0,-1.0,0.0,0.0,0.0,0.0,0.0,0.0,0.0,0.0,0.0,0.0,0.0,0.01,0.0,0.0,0.0,0.01,0.0,0.0,0.0,0.01,0.509945809841,-9.14960384369,-0.362846046686,0.01,0.0,0.0,0.0,0.01,0.0,0.0,0.0,0.01
1627577691827108149,4863,1627577691826212406,camera_accel_optical_frame,0.0,0.0,0.0,0.0,-1.0,0.0,0.0,0.0,0.0,0.0,0.0,0.0,0.0,0.0,0.0,0.0,0.01,0.0,0.0,0.0,0.01,0.0,0.0,0.0,0.01,0.784531950951,-9.53206348419,0.0490332469344,0.01,0.0,0.0,0.0,0.01,0.0,0.0,0.0,0.01
1627577691843173879,4864,1627577691842062235,camera_accel_optical_frame,0.0,0.0,0.0,0.0,-1.0,0.0,0.0,0.0,0.0,0.0,0.0,0.0,0.0,0.0,0.0,0.0,0.01,0.0,0.0,0.0,0.01,0.0,0.0,0.0,0.01,0.813951909542,-11.0324811935,1.16699135303,0.01,0.0,0.0,0.0,0.01,0.0,0.0,0.0,0.01
1627577691858971485,4865,1627577691857908249,camera_accel_optical_frame,0.0,0.0,0.0,0.0,-1.0,0.0,0.0,0.0,0.0,0.0,0.0,0.0,0.0,0.0,0.0,0.0,0.01,0.0,0.0,0.0,0.01,0.0,0.0,0.0,0.01,0.362846046686,-9.97336292267,-0.343232750893,0.01,0.0,0.0,0.0,0.01,0.0,0.0,0.0,0.01
1627577691875267434,4866,1627577691873758078,camera_accel_optical_frame,0.0,0.0,0.0,0.0,-1.0,0.0,0.0,0.0,0.0,0.0,0.0,0.0,0.0,0.0,0.0,0.0,0.01,0.0,0.0,0.0,0.01,0.0,0.0,0.0,0.01,0.627625584602,-9.87529659271,0.725692093372,0.01,0.0,0.0,0.0,0.01,0.0,0.0,0.0,0.01
1627577691890349688,4867,1627577691889605999,camera_accel_optical_frame,0.0,0.0,0.0,0.0,-1.0,0.0,0.0,0.0,0.0,0.0,0.0,0.0,0.0,0.0,0.0,0.0,0.01,0.0,0.0,0.0,0.01,0.0,0.0,0.0,0.01,0.647238910198,-9.99297618866,0.245166242123,0.01,0.0,0.0,0.0,0.01,0.0,0.0,0.0,0.01
1627577691906634113,4868,1627577691905452967,camera_accel_optical_frame,0.0,0.0,0.0,0.0,-1.0,0.0,0.0,0.0,0.0,0.0,0.0,0.0,0.0,0.0,0.0,0.0,0.01,0.0,0.0,0.0,0.01,0.0,0.0,0.0,0.01,0.813951909542,-10.3950490952,1.43177092075,0.01,0.0,0.0,0.0,0.01,0.0,0.0,0.0,0.01
1627577691922439468,4869,1627577691921300888,camera_accel_optical_frame,0.0,0.0,0.0,0.0,-1.0,0.0,0.0,0.0,0.0,0.0,0.0,0.0,0.0,0.0,0.0,0.0,0.01,0.0,0.0,0.0,0.01,0.0,0.0,0.0,0.01,0.608012259007,-9.18883037567,0.225552946329,0.01,0.0,0.0,0.0,0.01,0.0,0.0,0.0,0.01
1627577691938312533,4870,1627577691937149763,camera_accel_optical_frame,0.0,0.0,0.0,0.0,-1.0,0.0,0.0,0.0,0.0,0.0,0.0,0.0,0.0,0.0,0.0,0.0,0.01,0.0,0.0,0.0,0.01,0.0,0.0,0.0,0.01,0.725692093372,-10.3362092972,2.13784956932,0.01,0.0,0.0,0.0,0.01,0.0,0.0,0.0,0.01
1627577691953983324,4871,1627577691952998877,camera_accel_optical_frame,0.0,0.0,0.0,0.0,-1.0,0.0,0.0,0.0,0.0,0.0,0.0,0.0,0.0,0.0,0.0,0.0,0.01,0.0,0.0,0.0,0.01,0.0,0.0,0.0,0.01,1.22583127022,-9.59090328217,1.65732383728,0.01,0.0,0.0,0.0,0.01,0.0,0.0,0.0,0.01
1627577691969515049,4872,1627577691968847752,camera_accel_optical_frame,0.0,0.0,0.0,0.0,-1.0,0.0,0.0,0.0,0.0,0.0,0.0,0.0,0.0,0.0,0.0,0.0,0.01,0.0,0.0,0.0,0.01,0.0,0.0,0.0,0.01,0.362846046686,-10.4538888931,1.91229665279,0.01,0.0,0.0,0.0,0.01,0.0,0.0,0.0,0.01
1627577691985517347,4873,1627577691984695673,camera_accel_optical_frame,0.0,0.0,0.0,0.0,-1.0,0.0,0.0,0.0,0.0,0.0,0.0,0.0,0.0,0.0,0.0,0.0,0.01,0.0,0.0,0.0,0.01,0.0,0.0,0.0,0.01,0.0294199492782,-10.0910425186,0.931631743908,0.01,0.0,0.0,0.0,0.01,0.0,0.0,0.0,0.01
1627577692001228304,4874,1627577692000545502,camera_accel_optical_frame,0.0,0.0,0.0,0.0,-1.0,0.0,0.0,0.0,0.0,0.0,0.0,0.0,0.0,0.0,0.0,0.0,0.01,0.0,0.0,0.0,0.01,0.0,0.0,0.0,0.01,0.166713044047,-10.8559608459,2.39282250404,0.01,0.0,0.0,0.0,0.01,0.0,0.0,0.0,0.01
1627577692017128926,4875,1627577692016392231,camera_accel_optical_frame,0.0,0.0,0.0,0.0,-1.0,0.0,0.0,0.0,0.0,0.0,0.0,0.0,0.0,0.0,0.0,0.0,0.01,0.0,0.0,0.0,0.01,0.0,0.0,0.0,0.01,0.264779537916,-8.70830535889,0.0490332469344,0.01,0.0,0.0,0.0,0.01,0.0,0.0,0.0,0.01
1627577692033223580,4876,1627577692032241106,camera_accel_optical_frame,0.0,0.0,0.0,0.0,-1.0,0.0,0.0,0.0,0.0,0.0,0.0,0.0,0.0,0.0,0.0,0.0,0.01,0.0,0.0,0.0,0.01,0.0,0.0,0.0,0.01,-0.225552946329,-9.63012981415,1.01008486748,0.01,0.0,0.0,0.0,0.01,0.0,0.0,0.0,0.01
1627577692048797578,4877,1627577692048092365,camera_accel_optical_frame,0.0,0.0,0.0,0.0,-1.0,0.0,0.0,0.0,0.0,0.0,0.0,0.0,0.0,0.0,0.0,0.0,0.01,0.0,0.0,0.0,0.01,0.0,0.0,0.0,0.01,0.186326339841,-8.62985134125,0.0686465501785,0.01,0.0,0.0,0.0,0.01,0.0,0.0,0.0,0.01
1627577692064841512,4878,1627577692063943148,camera_accel_optical_frame,0.0,0.0,0.0,0.0,-1.0,0.0,0.0,0.0,0.0,0.0,0.0,0.0,0.0,0.0,0.0,0.0,0.01,0.0,0.0,0.0,0.01,0.0,0.0,0.0,0.01,0.28439283371,-9.8949098587,1.08853816986,0.01,0.0,0.0,0.0,0.01,0.0,0.0,0.0,0.01
1627577692080514101,4879,1627577692079794168,camera_accel_optical_frame,0.0,0.0,0.0,0.0,-1.0,0.0,0.0,0.0,0.0,0.0,0.0,0.0,0.0,0.0,0.0,0.0,0.01,0.0,0.0,0.0,0.01,0.0,0.0,0.0,0.01,0.431492596865,-10.5323419571,0.411879301071,0.01,0.0,0.0,0.0,0.01,0.0,0.0,0.0,0.01
1627577692096309776,4880,1627577692095644951,camera_accel_optical_frame,0.0,0.0,0.0,0.0,-1.0,0.0,0.0,0.0,0.0,0.0,0.0,0.0,0.0,0.0,0.0,0.0,0.01,0.0,0.0,0.0,0.01,0.0,0.0,0.0,0.01,0.627625584602,-12.5427045822,2.48108243942,0.01,0.0,0.0,0.0,0.01,0.0,0.0,0.0,0.01
1627577692112468960,4881,1627577692111494780,camera_accel_optical_frame,0.0,0.0,0.0,0.0,-1.0,0.0,0.0,0.0,0.0,0.0,0.0,0.0,0.0,0.0,0.0,0.0,0.01,0.0,0.0,0.0,0.01,0.0,0.0,0.0,0.01,0.490332484245,-10.2087221146,0.225552946329,0.01,0.0,0.0,0.0,0.01,0.0,0.0,0.0,0.01
1627577692128445868,4882,1627577692127346992,camera_accel_optical_frame,0.0,0.0,0.0,0.0,-1.0,0.0,0.0,0.0,0.0,0.0,0.0,0.0,0.0,0.0,0.0,0.0,0.01,0.0,0.0,0.0,0.01,0.0,0.0,0.0,0.01,0.323619455099,-10.4735021591,1.62790381908,0.01,0.0,0.0,0.0,0.01,0.0,0.0,0.0,0.01
1627577692144282789,4883,1627577692143196821,camera_accel_optical_frame,0.0,0.0,0.0,0.0,-1.0,0.0,0.0,0.0,0.0,0.0,0.0,0.0,0.0,0.0,0.0,0.0,0.01,0.0,0.0,0.0,0.01,0.0,0.0,0.0,0.01,0.343232750893,-9.68896961212,0.186326339841,0.01,0.0,0.0,0.0,0.01,0.0,0.0,0.0,0.01
1627577692160291607,4884,1627577692159049749,camera_accel_optical_frame,0.0,0.0,0.0,0.0,-1.0,0.0,0.0,0.0,0.0,0.0,0.0,0.0,0.0,0.0,0.0,0.0,0.01,0.0,0.0,0.0,0.01,0.0,0.0,0.0,0.01,0.529559075832,-8.94366455078,0.990471601486,0.01,0.0,0.0,0.0,0.01,0.0,0.0,0.0,0.01
1627577692175720703,4885,1627577692174900532,camera_accel_optical_frame,0.0,0.0,0.0,0.0,-1.0,0.0,0.0,0.0,0.0,0.0,0.0,0.0,0.0,0.0,0.0,0.0,0.01,0.0,0.0,0.0,0.01,0.0,0.0,0.0,0.01,0.647238910198,-8.11990642548,-0.00980664975941,0.01,0.0,0.0,0.0,0.01,0.0,0.0,0.0,0.01
1627577692191944541,4886,1627577692190752745,camera_accel_optical_frame,0.0,0.0,0.0,0.0,-1.0,0.0,0.0,0.0,0.0,0.0,0.0,0.0,0.0,0.0,0.0,0.0,0.01,0.0,0.0,0.0,0.01,0.0,0.0,0.0,0.01,0.343232750893,-8.70830535889,-0.402072638273,0.01,0.0,0.0,0.0,0.01,0.0,0.0,0.0,0.01
1627577692207503465,4887,1627577692206601620,camera_accel_optical_frame,0.0,0.0,0.0,0.0,-1.0,0.0,0.0,0.0,0.0,0.0,0.0,0.0,0.0,0.0,0.0,0.0,0.01,0.0,0.0,0.0,0.01,0.0,0.0,0.0,0.01,0.431492596865,-7.92377281189,-0.813951909542,0.01,0.0,0.0,0.0,0.01,0.0,0.0,0.0,0.01
1627577692223568110,4888,1627577692222454548,camera_accel_optical_frame,0.0,0.0,0.0,0.0,-1.0,0.0,0.0,0.0,0.0,0.0,0.0,0.0,0.0,0.0,0.0,0.0,0.01,0.0,0.0,0.0,0.01,0.0,0.0,0.0,0.01,0.402072638273,-8.6690788269,-1.23563790321,0.01,0.0,0.0,0.0,0.01,0.0,0.0,0.0,0.01
1627577692239478835,4889,1627577692238308668,camera_accel_optical_frame,0.0,0.0,0.0,0.0,-1.0,0.0,0.0,0.0,0.0,0.0,0.0,0.0,0.0,0.0,0.0,0.0,0.01,0.0,0.0,0.0,0.01,0.0,0.0,0.0,0.01,0.588398993015,-10.5323419571,-0.225552946329,0.01,0.0,0.0,0.0,0.01,0.0,0.0,0.0,0.01
1627577692255051003,4890,1627577692254160643,camera_accel_optical_frame,0.0,0.0,0.0,0.0,-1.0,0.0,0.0,0.0,0.0,0.0,0.0,0.0,0.0,0.0,0.0,0.0,0.01,0.0,0.0,0.0,0.01,0.0,0.0,0.0,0.01,0.588398993015,-10.1302690506,-0.411879301071,0.01,0.0,0.0,0.0,0.01,0.0,0.0,0.0,0.01
1627577692271068622,4891,1627577692270009756,camera_accel_optical_frame,0.0,0.0,0.0,0.0,-1.0,0.0,0.0,0.0,0.0,0.0,0.0,0.0,0.0,0.0,0.0,0.0,0.01,0.0,0.0,0.0,0.01,0.0,0.0,0.0,0.01,-0.12748645246,-9.91452312469,-1.31409108639,0.01,0.0,0.0,0.0,0.01,0.0,0.0,0.0,0.01
1627577692286518381,4892,1627577692285863876,camera_accel_optical_frame,0.0,0.0,0.0,0.0,-1.0,0.0,0.0,0.0,0.0,0.0,0.0,0.0,0.0,0.0,0.0,0.0,0.01,0.0,0.0,0.0,0.01,0.0,0.0,0.0,0.01,0.304006129503,-10.797121048,0.0490332469344,0.01,0.0,0.0,0.0,0.01,0.0,0.0,0.0,0.01
1627577692302458594,4893,1627577692301713943,camera_accel_optical_frame,0.0,0.0,0.0,0.0,-1.0,0.0,0.0,0.0,0.0,0.0,0.0,0.0,0.0,0.0,0.0,0.0,0.01,0.0,0.0,0.0,0.01,0.0,0.0,0.0,0.01,0.666852176189,-10.3165950775,-0.0490332469344,0.01,0.0,0.0,0.0,0.01,0.0,0.0,0.0,0.01
1627577692318567005,4894,1627577692317562103,camera_accel_optical_frame,0.0,0.0,0.0,0.0,-1.0,0.0,0.0,0.0,0.0,0.0,0.0,0.0,0.0,0.0,0.0,0.0,0.01,0.0,0.0,0.0,0.01,0.0,0.0,0.0,0.01,0.225552946329,-10.797121048,-0.490332484245,0.01,0.0,0.0,0.0,0.01,0.0,0.0,0.0,0.01
1627577692333993692,4895,1627577692333410978,camera_accel_optical_frame,0.0,0.0,0.0,0.0,-1.0,0.0,0.0,0.0,0.0,0.0,0.0,0.0,0.0,0.0,0.0,0.0,0.01,0.0,0.0,0.0,0.01,0.0,0.0,0.0,0.01,0.264779537916,-10.4931154251,-0.912018418312,0.01,0.0,0.0,0.0,0.01,0.0,0.0,0.0,0.01
1627577692350414857,4896,1627577692349261999,camera_accel_optical_frame,0.0,0.0,0.0,0.0,-1.0,0.0,0.0,0.0,0.0,0.0,0.0,0.0,0.0,0.0,0.0,0.0,0.01,0.0,0.0,0.0,0.01,0.0,0.0,0.0,0.01,-0.264779537916,-12.0817928314,-0.872791826725,0.01,0.0,0.0,0.0,0.01,0.0,0.0,0.0,0.01
1627577692365699938,4897,1627577692365114927,camera_accel_optical_frame,0.0,0.0,0.0,0.0,-1.0,0.0,0.0,0.0,0.0,0.0,0.0,0.0,0.0,0.0,0.0,0.0,0.01,0.0,0.0,0.0,0.01,0.0,0.0,0.0,0.01,0.28439283371,-10.2969818115,-0.304006129503,0.01,0.0,0.0,0.0,0.01,0.0,0.0,0.0,0.01
1627577692381761882,4898,1627577692380967140,camera_accel_optical_frame,0.0,0.0,0.0,0.0,-1.0,0.0,0.0,0.0,0.0,0.0,0.0,0.0,0.0,0.0,0.0,0.0,0.01,0.0,0.0,0.0,0.01,0.0,0.0,0.0,0.01,0.166713044047,-9.40457725525,-1.2944778204,0.01,0.0,0.0,0.0,0.01,0.0,0.0,0.0,0.01
1627577692397497874,4899,1627577692396819115,camera_accel_optical_frame,0.0,0.0,0.0,0.0,-1.0,0.0,0.0,0.0,0.0,0.0,0.0,0.0,0.0,0.0,0.0,0.0,0.01,0.0,0.0,0.0,0.01,0.0,0.0,0.0,0.01,0.402072638273,-10.4931154251,0.627625584602,0.01,0.0,0.0,0.0,0.01,0.0,0.0,0.0,0.01
1627577692413361600,4900,1627577692412669182,camera_accel_optical_frame,0.0,0.0,0.0,0.0,-1.0,0.0,0.0,0.0,0.0,0.0,0.0,0.0,0.0,0.0,0.0,0.0,0.01,0.0,0.0,0.0,0.01,0.0,0.0,0.0,0.01,1.16699135303,-9.32612419128,-0.186326339841,0.01,0.0,0.0,0.0,0.01,0.0,0.0,0.0,0.01
1627577692429663024,4901,1627577692428521156,camera_accel_optical_frame,0.0,0.0,0.0,0.0,-1.0,0.0,0.0,0.0,0.0,0.0,0.0,0.0,0.0,0.0,0.0,0.0,0.01,0.0,0.0,0.0,0.01,0.0,0.0,0.0,0.01,0.245166242123,-10.816734314,1.12776470184,0.01,0.0,0.0,0.0,0.01,0.0,0.0,0.0,0.01
1627577692445739490,4902,1627577692444372416,camera_accel_optical_frame,0.0,0.0,0.0,0.0,-1.0,0.0,0.0,0.0,0.0,0.0,0.0,0.0,0.0,0.0,0.0,0.0,0.01,0.0,0.0,0.0,0.01,0.0,0.0,0.0,0.01,0.706078767776,-9.55167675018,0.166713044047,0.01,0.0,0.0,0.0,0.01,0.0,0.0,0.0,0.01
1627577692461391423,4903,1627577692460223436,camera_accel_optical_frame,0.0,0.0,0.0,0.0,-1.0,0.0,0.0,0.0,0.0,0.0,0.0,0.0,0.0,0.0,0.0,0.0,0.01,0.0,0.0,0.0,0.01,0.0,0.0,0.0,0.01,0.362846046686,-11.542427063,2.15746283531,0.01,0.0,0.0,0.0,0.01,0.0,0.0,0.0,0.01
1627577692477103414,4904,1627577692476072550,camera_accel_optical_frame,0.0,0.0,0.0,0.0,-1.0,0.0,0.0,0.0,0.0,0.0,0.0,0.0,0.0,0.0,0.0,0.0,0.01,0.0,0.0,0.0,0.01,0.0,0.0,0.0,0.01,0.431492596865,-9.59090328217,0.343232750893,0.01,0.0,0.0,0.0,0.01,0.0,0.0,0.0,0.01
1627577692492689416,4905,1627577692491920471,camera_accel_optical_frame,0.0,0.0,0.0,0.0,-1.0,0.0,0.0,0.0,0.0,0.0,0.0,0.0,0.0,0.0,0.0,0.0,0.01,0.0,0.0,0.0,0.01,0.0,0.0,0.0,0.01,0.0294199492782,-9.38496398926,2.41243577003,0.01,0.0,0.0,0.0,0.01,0.0,0.0,0.0,0.01
1627577692508792985,4906,1627577692507767677,camera_accel_optical_frame,0.0,0.0,0.0,0.0,-1.0,0.0,0.0,0.0,0.0,0.0,0.0,0.0,0.0,0.0,0.0,0.0,0.01,0.0,0.0,0.0,0.01,0.0,0.0,0.0,0.01,0.12748645246,-7.38440704346,0.166713044047,0.01,0.0,0.0,0.0,0.01,0.0,0.0,0.0,0.01
1627577692524518597,4907,1627577692523618698,camera_accel_optical_frame,0.0,0.0,0.0,0.0,-1.0,0.0,0.0,0.0,0.0,0.0,0.0,0.0,0.0,0.0,0.0,0.0,0.01,0.0,0.0,0.0,0.01,0.0,0.0,0.0,0.01,0.12748645246,-8.58081817627,1.69655036926,0.01,0.0,0.0,0.0,0.01,0.0,0.0,0.0,0.01
1627577692540780111,4908,1627577692539468765,camera_accel_optical_frame,0.0,0.0,0.0,0.0,-1.0,0.0,0.0,0.0,0.0,0.0,0.0,0.0,0.0,0.0,0.0,0.0,0.01,0.0,0.0,0.0,0.01,0.0,0.0,0.0,0.01,0.323619455099,-8.32584571838,0.931631743908,0.01,0.0,0.0,0.0,0.01,0.0,0.0,0.0,0.01
1627577692556308751,4909,1627577692555315733,camera_accel_optical_frame,0.0,0.0,0.0,0.0,-1.0,0.0,0.0,0.0,0.0,0.0,0.0,0.0,0.0,0.0,0.0,0.0,0.01,0.0,0.0,0.0,0.01,0.0,0.0,0.0,0.01,0.264779537916,-8.24739265442,1.33370435238,0.01,0.0,0.0,0.0,0.01,0.0,0.0,0.0,0.01
1627577692572090634,4910,1627577692571165800,camera_accel_optical_frame,0.0,0.0,0.0,0.0,-1.0,0.0,0.0,0.0,0.0,0.0,0.0,0.0,0.0,0.0,0.0,0.0,0.01,0.0,0.0,0.0,0.01,0.0,0.0,0.0,0.01,0.343232750893,-8.22777938843,1.47099745274,0.01,0.0,0.0,0.0,0.01,0.0,0.0,0.0,0.01
1627577692588389369,4911,1627577692587013960,camera_accel_optical_frame,0.0,0.0,0.0,0.0,-1.0,0.0,0.0,0.0,0.0,0.0,0.0,0.0,0.0,0.0,0.0,0.0,0.01,0.0,0.0,0.0,0.01,0.0,0.0,0.0,0.01,0.323619455099,-8.84559822083,1.31409108639,0.01,0.0,0.0,0.0,0.01,0.0,0.0,0.0,0.01
1627577692603470108,4912,1627577692602860928,camera_accel_optical_frame,0.0,0.0,0.0,0.0,-1.0,0.0,0.0,0.0,0.0,0.0,0.0,0.0,0.0,0.0,0.0,0.0,0.01,0.0,0.0,0.0,0.01,0.0,0.0,0.0,0.01,0.205939650536,-9.63012981415,1.69655036926,0.01,0.0,0.0,0.0,0.01,0.0,0.0,0.0,0.01
1627577692619513787,4913,1627577692618710041,camera_accel_optical_frame,0.0,0.0,0.0,0.0,-1.0,0.0,0.0,0.0,0.0,0.0,0.0,0.0,0.0,0.0,0.0,0.0,0.01,0.0,0.0,0.0,0.01,0.0,0.0,0.0,0.01,0.490332484245,-9.16921710968,1.2748644352,0.01,0.0,0.0,0.0,0.01,0.0,0.0,0.0,0.01
1627577692635333204,4914,1627577692634557247,camera_accel_optical_frame,0.0,0.0,0.0,0.0,-1.0,0.0,0.0,0.0,0.0,0.0,0.0,0.0,0.0,0.0,0.0,0.0,0.01,0.0,0.0,0.0,0.01,0.0,0.0,0.0,0.01,0.362846046686,-10.2577552795,2.09862303734,0.01,0.0,0.0,0.0,0.01,0.0,0.0,0.0,0.01
1627577692651007992,4915,1627577692650406122,camera_accel_optical_frame,0.0,0.0,0.0,0.0,-1.0,0.0,0.0,0.0,0.0,0.0,0.0,0.0,0.0,0.0,0.0,0.0,0.01,0.0,0.0,0.0,0.01,0.0,0.0,0.0,0.01,0.264779537916,-10.3165950775,0.725692093372,0.01,0.0,0.0,0.0,0.01,0.0,0.0,0.0,0.01
1627577692666985042,4916,1627577692666254044,camera_accel_optical_frame,0.0,0.0,0.0,0.0,-1.0,0.0,0.0,0.0,0.0,0.0,0.0,0.0,0.0,0.0,0.0,0.0,0.01,0.0,0.0,0.0,0.01,0.0,0.0,0.0,0.01,0.107873149216,-11.7189464569,1.14737796783,0.01,0.0,0.0,0.0,0.01,0.0,0.0,0.0,0.01
1627577692682785307,4917,1627577692682105303,camera_accel_optical_frame,0.0,0.0,0.0,0.0,-1.0,0.0,0.0,0.0,0.0,0.0,0.0,0.0,0.0,0.0,0.0,0.0,0.01,0.0,0.0,0.0,0.01,0.0,0.0,0.0,0.01,0.686465501785,-10.2087221146,0.666852176189,0.01,0.0,0.0,0.0,0.01,0.0,0.0,0.0,0.01
1627577692698727296,4918,1627577692697956324,camera_accel_optical_frame,0.0,0.0,0.0,0.0,-1.0,0.0,0.0,0.0,0.0,0.0,0.0,0.0,0.0,0.0,0.0,0.0,0.01,0.0,0.0,0.0,0.01,0.0,0.0,0.0,0.01,0.745305359364,-11.1403541565,1.33370435238,0.01,0.0,0.0,0.0,0.01,0.0,0.0,0.0,0.01
1627577692714507743,4919,1627577692713803530,camera_accel_optical_frame,0.0,0.0,0.0,0.0,-1.0,0.0,0.0,0.0,0.0,0.0,0.0,0.0,0.0,0.0,0.0,0.0,0.01,0.0,0.0,0.0,0.01,0.0,0.0,0.0,0.01,0.470719188452,-11.1795806885,-0.245166242123,0.01,0.0,0.0,0.0,0.01,0.0,0.0,0.0,0.01
1627577692730442272,4920,1627577692729652405,camera_accel_optical_frame,0.0,0.0,0.0,0.0,-1.0,0.0,0.0,0.0,0.0,0.0,0.0,0.0,0.0,0.0,0.0,0.0,0.01,0.0,0.0,0.0,0.01,0.0,0.0,0.0,0.01,-0.166713044047,-11.9052724838,0.264779537916,0.01,0.0,0.0,0.0,0.01,0.0,0.0,0.0,0.01
1627577692746313344,4921,1627577692745501518,camera_accel_optical_frame,0.0,0.0,0.0,0.0,-1.0,0.0,0.0,0.0,0.0,0.0,0.0,0.0,0.0,0.0,0.0,0.0,0.01,0.0,0.0,0.0,0.01,0.0,0.0,0.0,0.01,0.402072638273,-9.66935634613,-0.0882598459721,0.01,0.0,0.0,0.0,0.01,0.0,0.0,0.0,0.01
1627577692762006285,4922,1627577692761350632,camera_accel_optical_frame,0.0,0.0,0.0,0.0,-1.0,0.0,0.0,0.0,0.0,0.0,0.0,0.0,0.0,0.0,0.0,0.0,0.01,0.0,0.0,0.0,0.01,0.0,0.0,0.0,0.01,0.323619455099,-8.92405128479,0.186326339841,0.01,0.0,0.0,0.0,0.01,0.0,0.0,0.0,0.01
1627577692778212730,4923,1627577692777195454,camera_accel_optical_frame,0.0,0.0,0.0,0.0,-1.0,0.0,0.0,0.0,0.0,0.0,0.0,0.0,0.0,0.0,0.0,0.0,0.01,0.0,0.0,0.0,0.01,0.0,0.0,0.0,0.01,-0.00980664975941,-8.20816612244,-1.33370435238,0.01,0.0,0.0,0.0,0.01,0.0,0.0,0.0,0.01
1627577692794060998,4924,1627577692793046713,camera_accel_optical_frame,0.0,0.0,0.0,0.0,-1.0,0.0,0.0,0.0,0.0,0.0,0.0,0.0,0.0,0.0,0.0,0.0,0.01,0.0,0.0,0.0,0.01,0.0,0.0,0.0,0.01,0.0294199492782,-9.11037731171,-0.107873149216,0.01,0.0,0.0,0.0,0.01,0.0,0.0,0.0,0.01
1627577692809733426,4925,1627577692808895826,camera_accel_optical_frame,0.0,0.0,0.0,0.0,-1.0,0.0,0.0,0.0,0.0,0.0,0.0,0.0,0.0,0.0,0.0,0.0,0.01,0.0,0.0,0.0,0.01,0.0,0.0,0.0,0.01,0.28439283371,-8.48275184631,-0.745305359364,0.01,0.0,0.0,0.0,0.01,0.0,0.0,0.0,0.01
1627577692825887753,4926,1627577692824745893,camera_accel_optical_frame,0.0,0.0,0.0,0.0,-1.0,0.0,0.0,0.0,0.0,0.0,0.0,0.0,0.0,0.0,0.0,0.0,0.01,0.0,0.0,0.0,0.01,0.0,0.0,0.0,0.01,0.225552946329,-8.11990642548,-1.2748644352,0.01,0.0,0.0,0.0,0.01,0.0,0.0,0.0,0.01
1627577692841363053,4927,1627577692840595007,camera_accel_optical_frame,0.0,0.0,0.0,0.0,-1.0,0.0,0.0,0.0,0.0,0.0,0.0,0.0,0.0,0.0,0.0,0.0,0.01,0.0,0.0,0.0,0.01,0.0,0.0,0.0,0.01,0.509945809841,-9.63012981415,-0.264779537916,0.01,0.0,0.0,0.0,0.01,0.0,0.0,0.0,0.01
1627577692857577558,4928,1627577692856444120,camera_accel_optical_frame,0.0,0.0,0.0,0.0,-1.0,0.0,0.0,0.0,0.0,0.0,0.0,0.0,0.0,0.0,0.0,0.0,0.01,0.0,0.0,0.0,0.01,0.0,0.0,0.0,0.01,0.470719188452,-10.1498823166,-0.411879301071,0.01,0.0,0.0,0.0,0.01,0.0,0.0,0.0,0.01
1627577692873383935,4929,1627577692872294188,camera_accel_optical_frame,0.0,0.0,0.0,0.0,-1.0,0.0,0.0,0.0,0.0,0.0,0.0,0.0,0.0,0.0,0.0,0.0,0.01,0.0,0.0,0.0,0.01,0.0,0.0,0.0,0.01,0.549172401428,-9.57129001617,0.304006129503,0.01,0.0,0.0,0.0,0.01,0.0,0.0,0.0,0.01
1627577692889242476,4930,1627577692888143301,camera_accel_optical_frame,0.0,0.0,0.0,0.0,-1.0,0.0,0.0,0.0,0.0,0.0,0.0,0.0,0.0,0.0,0.0,0.0,0.01,0.0,0.0,0.0,0.01,0.0,0.0,0.0,0.01,0.470719188452,-9.30651092529,0.166713044047,0.01,0.0,0.0,0.0,0.01,0.0,0.0,0.0,0.01
1627577692905147495,4931,1627577692903992176,camera_accel_optical_frame,0.0,0.0,0.0,0.0,-1.0,0.0,0.0,0.0,0.0,0.0,0.0,0.0,0.0,0.0,0.0,0.0,0.01,0.0,0.0,0.0,0.01,0.0,0.0,0.0,0.01,0.12748645246,-10.659828186,0.833565235138,0.01,0.0,0.0,0.0,0.01,0.0,0.0,0.0,0.01
1627577692920691373,4932,1627577692919838428,camera_accel_optical_frame,0.0,0.0,0.0,0.0,-1.0,0.0,0.0,0.0,0.0,0.0,0.0,0.0,0.0,0.0,0.0,0.0,0.01,0.0,0.0,0.0,0.01,0.0,0.0,0.0,0.01,-0.107873149216,-10.2381420135,-0.28439283371,0.01,0.0,0.0,0.0,0.01,0.0,0.0,0.0,0.01
1627577692936227745,4933,1627577692935686588,camera_accel_optical_frame,0.0,0.0,0.0,0.0,-1.0,0.0,0.0,0.0,0.0,0.0,0.0,0.0,0.0,0.0,0.0,0.0,0.01,0.0,0.0,0.0,0.01,0.0,0.0,0.0,0.01,-0.627625584602,-10.757894516,-0.549172401428,0.01,0.0,0.0,0.0,0.01,0.0,0.0,0.0,0.01
1627577692952358032,4934,1627577692951539516,camera_accel_optical_frame,0.0,0.0,0.0,0.0,-1.0,0.0,0.0,0.0,0.0,0.0,0.0,0.0,0.0,0.0,0.0,0.0,0.01,0.0,0.0,0.0,0.01,0.0,0.0,0.0,0.01,0.304006129503,-11.483587265,0.666852176189,0.01,0.0,0.0,0.0,0.01,0.0,0.0,0.0,0.01
1627577692967953739,4935,1627577692967387676,camera_accel_optical_frame,0.0,0.0,0.0,0.0,-1.0,0.0,0.0,0.0,0.0,0.0,0.0,0.0,0.0,0.0,0.0,0.0,0.01,0.0,0.0,0.0,0.01,0.0,0.0,0.0,0.01,0.509945809841,-10.718667984,1.18660461903,0.01,0.0,0.0,0.0,0.01,0.0,0.0,0.0,0.01
1627577692984004322,4936,1627577692983235836,camera_accel_optical_frame,0.0,0.0,0.0,0.0,-1.0,0.0,0.0,0.0,0.0,0.0,0.0,0.0,0.0,0.0,0.0,0.0,0.01,0.0,0.0,0.0,0.01,0.0,0.0,0.0,0.01,0.490332484245,-9.05153751373,-0.0882598459721,0.01,0.0,0.0,0.0,0.01,0.0,0.0,0.0,0.01
1627577692999756609,4937,1627577692999085903,camera_accel_optical_frame,0.0,0.0,0.0,0.0,-1.0,0.0,0.0,0.0,0.0,0.0,0.0,0.0,0.0,0.0,0.0,0.0,0.01,0.0,0.0,0.0,0.01,0.0,0.0,0.0,0.01,-0.0686465501785,-11.0815143585,1.18660461903,0.01,0.0,0.0,0.0,0.01,0.0,0.0,0.0,0.01
1627577693015639098,4938,1627577693014935970,camera_accel_optical_frame,0.0,0.0,0.0,0.0,-1.0,0.0,0.0,0.0,0.0,0.0,0.0,0.0,0.0,0.0,0.0,0.0,0.01,0.0,0.0,0.0,0.01,0.0,0.0,0.0,0.01,0.931631743908,-7.71783351898,0.509945809841,0.01,0.0,0.0,0.0,0.01,0.0,0.0,0.0,0.01
1627577693031847190,4939,1627577693030784845,camera_accel_optical_frame,0.0,0.0,0.0,0.0,-1.0,0.0,0.0,0.0,0.0,0.0,0.0,0.0,0.0,0.0,0.0,0.0,0.01,0.0,0.0,0.0,0.01,0.0,0.0,0.0,0.01,0.745305359364,-7.42363405228,1.51022410393,0.01,0.0,0.0,0.0,0.01,0.0,0.0,0.0,0.01
1627577693047330717,4940,1627577693046633005,camera_accel_optical_frame,0.0,0.0,0.0,0.0,-1.0,0.0,0.0,0.0,0.0,0.0,0.0,0.0,0.0,0.0,0.0,0.0,0.01,0.0,0.0,0.0,0.01,0.0,0.0,0.0,0.01,0.568785667419,-7.48247385025,0.186326339841,0.01,0.0,0.0,0.0,0.01,0.0,0.0,0.0,0.01
1627577693063200355,4941,1627577693062481165,camera_accel_optical_frame,0.0,0.0,0.0,0.0,-1.0,0.0,0.0,0.0,0.0,0.0,0.0,0.0,0.0,0.0,0.0,0.0,0.01,0.0,0.0,0.0,0.01,0.0,0.0,0.0,0.01,0.588398993015,-9.24767112732,1.5690639019,0.01,0.0,0.0,0.0,0.01,0.0,0.0,0.0,0.01
1627577693079182018,4942,1627577693078331232,camera_accel_optical_frame,0.0,0.0,0.0,0.0,-1.0,0.0,0.0,0.0,0.0,0.0,0.0,0.0,0.0,0.0,0.0,0.0,0.01,0.0,0.0,0.0,0.01,0.0,0.0,0.0,0.01,0.931631743908,-10.1891088486,1.18660461903,0.01,0.0,0.0,0.0,0.01,0.0,0.0,0.0,0.01
1627577693095042254,4943,1627577693094180346,camera_accel_optical_frame,0.0,0.0,0.0,0.0,-1.0,0.0,0.0,0.0,0.0,0.0,0.0,0.0,0.0,0.0,0.0,0.0,0.01,0.0,0.0,0.0,0.01,0.0,0.0,0.0,0.01,0.745305359364,-12.0425662994,2.11823630333,0.01,0.0,0.0,0.0,0.01,0.0,0.0,0.0,0.01
1627577693111554177,4944,1627577693110031605,camera_accel_optical_frame,0.0,0.0,0.0,0.0,-1.0,0.0,0.0,0.0,0.0,0.0,0.0,0.0,0.0,0.0,0.0,0.0,0.01,0.0,0.0,0.0,0.01,0.0,0.0,0.0,0.01,0.509945809841,-10.1302690506,-0.0490332469344,0.01,0.0,0.0,0.0,0.01,0.0,0.0,0.0,0.01
1627577693126999430,4945,1627577693125882626,camera_accel_optical_frame,0.0,0.0,0.0,0.0,-1.0,0.0,0.0,0.0,0.0,0.0,0.0,0.0,0.0,0.0,0.0,0.0,0.01,0.0,0.0,0.0,0.01,0.0,0.0,0.0,0.01,0.431492596865,-11.2580337524,1.51022410393,0.01,0.0,0.0,0.0,0.01,0.0,0.0,0.0,0.01
1627577693142872207,4946,1627577693141730785,camera_accel_optical_frame,0.0,0.0,0.0,0.0,-1.0,0.0,0.0,0.0,0.0,0.0,0.0,0.0,0.0,0.0,0.0,0.0,0.01,0.0,0.0,0.0,0.01,0.0,0.0,0.0,0.01,-0.147099748254,-10.3165950775,0.0,0.01,0.0,0.0,0.0,0.01,0.0,0.0,0.0,0.01
1627577693158414621,4947,1627577693157581806,camera_accel_optical_frame,0.0,0.0,0.0,0.0,-1.0,0.0,0.0,0.0,0.0,0.0,0.0,0.0,0.0,0.0,0.0,0.0,0.01,0.0,0.0,0.0,0.01,0.0,0.0,0.0,0.01,0.245166242123,-8.18855285645,0.431492596865,0.01,0.0,0.0,0.0,0.01,0.0,0.0,0.0,0.01
1627577693174205766,4948,1627577693173429966,camera_accel_optical_frame,0.0,0.0,0.0,0.0,-1.0,0.0,0.0,0.0,0.0,0.0,0.0,0.0,0.0,0.0,0.0,0.0,0.01,0.0,0.0,0.0,0.01,0.0,0.0,0.0,0.01,-0.205939650536,-9.47322368622,-0.0882598459721,0.01,0.0,0.0,0.0,0.01,0.0,0.0,0.0,0.01
1627577693190270101,4949,1627577693189281940,camera_accel_optical_frame,0.0,0.0,0.0,0.0,-1.0,0.0,0.0,0.0,0.0,0.0,0.0,0.0,0.0,0.0,0.0,0.0,0.01,0.0,0.0,0.0,0.01,0.0,0.0,0.0,0.01,0.304006129503,-10.9540281296,0.970858335495,0.01,0.0,0.0,0.0,0.01,0.0,0.0,0.0,0.01
1627577693206202336,4950,1627577693205131531,camera_accel_optical_frame,0.0,0.0,0.0,0.0,-1.0,0.0,0.0,0.0,0.0,0.0,0.0,0.0,0.0,0.0,0.0,0.0,0.01,0.0,0.0,0.0,0.01,0.0,0.0,0.0,0.01,0.38245934248,-10.2969818115,1.69655036926,0.01,0.0,0.0,0.0,0.01,0.0,0.0,0.0,0.01
1627577693223313178,4951,1627577693220978260,camera_accel_optical_frame,0.0,0.0,0.0,0.0,-1.0,0.0,0.0,0.0,0.0,0.0,0.0,0.0,0.0,0.0,0.0,0.0,0.01,0.0,0.0,0.0,0.01,0.0,0.0,0.0,0.01,0.431492596865,-6.91368818283,-0.264779537916,0.01,0.0,0.0,0.0,0.01,0.0,0.0,0.0,0.01
1627577693237849510,4952,1627577693236828804,camera_accel_optical_frame,0.0,0.0,0.0,0.0,-1.0,0.0,0.0,0.0,0.0,0.0,0.0,0.0,0.0,0.0,0.0,0.0,0.01,0.0,0.0,0.0,0.01,0.0,0.0,0.0,0.01,0.12748645246,-8.13951969147,0.872791826725,0.01,0.0,0.0,0.0,0.01,0.0,0.0,0.0,0.01
1627577693253246282,4953,1627577693252677202,camera_accel_optical_frame,0.0,0.0,0.0,0.0,-1.0,0.0,0.0,0.0,0.0,0.0,0.0,0.0,0.0,0.0,0.0,0.0,0.01,0.0,0.0,0.0,0.01,0.0,0.0,0.0,0.01,0.588398993015,-6.77639484406,-0.264779537916,0.01,0.0,0.0,0.0,0.01,0.0,0.0,0.0,0.01
1627577693269246524,4954,1627577693268527746,camera_accel_optical_frame,0.0,0.0,0.0,0.0,-1.0,0.0,0.0,0.0,0.0,0.0,0.0,0.0,0.0,0.0,0.0,0.0,0.01,0.0,0.0,0.0,0.01,0.0,0.0,0.0,0.01,0.362846046686,-7.58054018021,0.0,0.01,0.0,0.0,0.0,0.01,0.0,0.0,0.0,0.01
1627577693285016120,4955,1627577693284376383,camera_accel_optical_frame,0.0,0.0,0.0,0.0,-1.0,0.0,0.0,0.0,0.0,0.0,0.0,0.0,0.0,0.0,0.0,0.0,0.01,0.0,0.0,0.0,0.01,0.0,0.0,0.0,0.01,0.451105892658,-8.88482475281,0.402072638273,0.01,0.0,0.0,0.0,0.01,0.0,0.0,0.0,0.01
1627577693301339557,4956,1627577693300225973,camera_accel_optical_frame,0.0,0.0,0.0,0.0,-1.0,0.0,0.0,0.0,0.0,0.0,0.0,0.0,0.0,0.0,0.0,0.0,0.01,0.0,0.0,0.0,0.01,0.0,0.0,0.0,0.01,0.813951909542,-8.84559822083,0.304006129503,0.01,0.0,0.0,0.0,0.01,0.0,0.0,0.0,0.01
1627577693317123941,4957,1627577693316074610,camera_accel_optical_frame,0.0,0.0,0.0,0.0,-1.0,0.0,0.0,0.0,0.0,0.0,0.0,0.0,0.0,0.0,0.0,0.0,0.01,0.0,0.0,0.0,0.01,0.0,0.0,0.0,0.01,0.411879301071,-9.24767112732,-0.402072638273,0.01,0.0,0.0,0.0,0.01,0.0,0.0,0.0,0.01
1627577693332483839,4958,1627577693331925392,camera_accel_optical_frame,0.0,0.0,0.0,0.0,-1.0,0.0,0.0,0.0,0.0,0.0,0.0,0.0,0.0,0.0,0.0,0.0,0.01,0.0,0.0,0.0,0.01,0.0,0.0,0.0,0.01,0.245166242123,-11.0128679276,0.431492596865,0.01,0.0,0.0,0.0,0.01,0.0,0.0,0.0,0.01
1627577693348418324,4959,1627577693347774029,camera_accel_optical_frame,0.0,0.0,0.0,0.0,-1.0,0.0,0.0,0.0,0.0,0.0,0.0,0.0,0.0,0.0,0.0,0.0,0.01,0.0,0.0,0.0,0.01,0.0,0.0,0.0,0.01,0.725692093372,-12.1406326294,1.04931151867,0.01,0.0,0.0,0.0,0.01,0.0,0.0,0.0,0.01
1627577693364365103,4960,1627577693363622665,camera_accel_optical_frame,0.0,0.0,0.0,0.0,-1.0,0.0,0.0,0.0,0.0,0.0,0.0,0.0,0.0,0.0,0.0,0.0,0.01,0.0,0.0,0.0,0.01,0.0,0.0,0.0,0.01,0.912018418312,-12.3465719223,1.08853816986,0.01,0.0,0.0,0.0,0.01,0.0,0.0,0.0,0.01
1627577693380367523,4961,1627577693379472256,camera_accel_optical_frame,0.0,0.0,0.0,0.0,-1.0,0.0,0.0,0.0,0.0,0.0,0.0,0.0,0.0,0.0,0.0,0.0,0.01,0.0,0.0,0.0,0.01,0.0,0.0,0.0,0.01,0.666852176189,-12.8270978928,0.343232750893,0.01,0.0,0.0,0.0,0.01,0.0,0.0,0.0,0.01
1627577693396202035,4962,1627577693395322800,camera_accel_optical_frame,0.0,0.0,0.0,0.0,-1.0,0.0,0.0,0.0,0.0,0.0,0.0,0.0,0.0,0.0,0.0,0.0,0.01,0.0,0.0,0.0,0.01,0.0,0.0,0.0,0.01,0.853178501129,-12.6015453339,2.05939650536,0.01,0.0,0.0,0.0,0.01,0.0,0.0,0.0,0.01
1627577693412291498,4963,1627577693411175251,camera_accel_optical_frame,0.0,0.0,0.0,0.0,-1.0,0.0,0.0,0.0,0.0,0.0,0.0,0.0,0.0,0.0,0.0,0.0,0.01,0.0,0.0,0.0,0.01,0.0,0.0,0.0,0.01,0.764918684959,-10.3754358292,0.970858335495,0.01,0.0,0.0,0.0,0.01,0.0,0.0,0.0,0.01
1627577693428035724,4964,1627577693427023888,camera_accel_optical_frame,0.0,0.0,0.0,0.0,-1.0,0.0,0.0,0.0,0.0,0.0,0.0,0.0,0.0,0.0,0.0,0.0,0.01,0.0,0.0,0.0,0.01,0.0,0.0,0.0,0.01,0.166713044047,-9.61051654816,-0.107873149216,0.01,0.0,0.0,0.0,0.01,0.0,0.0,0.0,0.01
1627577693443713275,4965,1627577693442876577,camera_accel_optical_frame,0.0,0.0,0.0,0.0,-1.0,0.0,0.0,0.0,0.0,0.0,0.0,0.0,0.0,0.0,0.0,0.0,0.01,0.0,0.0,0.0,0.01,0.0,0.0,0.0,0.01,0.186326339841,-10.0910425186,0.0294199492782,0.01,0.0,0.0,0.0,0.01,0.0,0.0,0.0,0.01
1627577693460019943,4966,1627577693458728075,camera_accel_optical_frame,0.0,0.0,0.0,0.0,-1.0,0.0,0.0,0.0,0.0,0.0,0.0,0.0,0.0,0.0,0.0,0.0,0.01,0.0,0.0,0.0,0.01,0.0,0.0,0.0,0.01,-0.107873149216,-9.43399715424,-0.0294199492782,0.01,0.0,0.0,0.0,0.01,0.0,0.0,0.0,0.01
1627577693475486583,4967,1627577693474577665,camera_accel_optical_frame,0.0,0.0,0.0,0.0,-1.0,0.0,0.0,0.0,0.0,0.0,0.0,0.0,0.0,0.0,0.0,0.0,0.01,0.0,0.0,0.0,0.01,0.0,0.0,0.0,0.01,-0.264779537916,-8.78675842285,-0.706078767776,0.01,0.0,0.0,0.0,0.01,0.0,0.0,0.0,0.01
1627577693491225166,4968,1627577693490431070,camera_accel_optical_frame,0.0,0.0,0.0,0.0,-1.0,0.0,0.0,0.0,0.0,0.0,0.0,0.0,0.0,0.0,0.0,0.0,0.01,0.0,0.0,0.0,0.01,0.0,0.0,0.0,0.01,0.12748645246,-9.53206348419,0.813951909542,0.01,0.0,0.0,0.0,0.01,0.0,0.0,0.0,0.01
1627577693507651340,4969,1627577693506280661,camera_accel_optical_frame,0.0,0.0,0.0,0.0,-1.0,0.0,0.0,0.0,0.0,0.0,0.0,0.0,0.0,0.0,0.0,0.0,0.01,0.0,0.0,0.0,0.01,0.0,0.0,0.0,0.01,0.451105892658,-7.44324731827,-1.06892478466,0.01,0.0,0.0,0.0,0.01,0.0,0.0,0.0,0.01
1627577693523132304,4970,1627577693522130489,camera_accel_optical_frame,0.0,0.0,0.0,0.0,-1.0,0.0,0.0,0.0,0.0,0.0,0.0,0.0,0.0,0.0,0.0,0.0,0.01,0.0,0.0,0.0,0.01,0.0,0.0,0.0,0.01,0.0686465501785,-9.78703689575,1.62790381908,0.01,0.0,0.0,0.0,0.01,0.0,0.0,0.0,0.01
1627577693539206049,4971,1627577693537980080,camera_accel_optical_frame,0.0,0.0,0.0,0.0,-1.0,0.0,0.0,0.0,0.0,0.0,0.0,0.0,0.0,0.0,0.0,0.0,0.01,0.0,0.0,0.0,0.01,0.0,0.0,0.0,0.01,0.147099748254,-8.96327781677,-1.2552511692,0.01,0.0,0.0,0.0,0.01,0.0,0.0,0.0,0.01
1627577693555118403,4972,1627577693553831577,camera_accel_optical_frame,0.0,0.0,0.0,0.0,-1.0,0.0,0.0,0.0,0.0,0.0,0.0,0.0,0.0,0.0,0.0,0.0,0.01,0.0,0.0,0.0,0.01,0.0,0.0,0.0,0.01,0.323619455099,-10.2969818115,1.77500355244,0.01,0.0,0.0,0.0,0.01,0.0,0.0,0.0,0.01
1627577693570405806,4973,1627577693569679976,camera_accel_optical_frame,0.0,0.0,0.0,0.0,-1.0,0.0,0.0,0.0,0.0,0.0,0.0,0.0,0.0,0.0,0.0,0.0,0.01,0.0,0.0,0.0,0.01,0.0,0.0,0.0,0.01,0.588398993015,-8.58081817627,-0.411879301071,0.01,0.0,0.0,0.0,0.01,0.0,0.0,0.0,0.01
1627577693586279165,4974,1627577693585530519,camera_accel_optical_frame,0.0,0.0,0.0,0.0,-1.0,0.0,0.0,0.0,0.0,0.0,0.0,0.0,0.0,0.0,0.0,0.0,0.01,0.0,0.0,0.0,0.01,0.0,0.0,0.0,0.01,0.490332484245,-10.4538888931,1.33370435238,0.01,0.0,0.0,0.0,0.01,0.0,0.0,0.0,0.01
1627577693602174019,4975,1627577693601379156,camera_accel_optical_frame,0.0,0.0,0.0,0.0,-1.0,0.0,0.0,0.0,0.0,0.0,0.0,0.0,0.0,0.0,0.0,0.0,0.01,0.0,0.0,0.0,0.01,0.0,0.0,0.0,0.01,0.588398993015,-9.43399715424,-0.0686465501785,0.01,0.0,0.0,0.0,0.01,0.0,0.0,0.0,0.01
1627577693617971718,4976,1627577693617228746,camera_accel_optical_frame,0.0,0.0,0.0,0.0,-1.0,0.0,0.0,0.0,0.0,0.0,0.0,0.0,0.0,0.0,0.0,0.0,0.01,0.0,0.0,0.0,0.01,0.0,0.0,0.0,0.01,-0.00980664975941,-10.699054718,0.990471601486,0.01,0.0,0.0,0.0,0.01,0.0,0.0,0.0,0.01
1627577693633771191,4977,1627577693633078337,camera_accel_optical_frame,0.0,0.0,0.0,0.0,-1.0,0.0,0.0,0.0,0.0,0.0,0.0,0.0,0.0,0.0,0.0,0.0,0.01,0.0,0.0,0.0,0.01,0.0,0.0,0.0,0.01,0.706078767776,-8.64946556091,-0.451105892658,0.01,0.0,0.0,0.0,0.01,0.0,0.0,0.0,0.01
1627577693649475344,4978,1627577693648927927,camera_accel_optical_frame,0.0,0.0,0.0,0.0,-1.0,0.0,0.0,0.0,0.0,0.0,0.0,0.0,0.0,0.0,0.0,0.0,0.01,0.0,0.0,0.0,0.01,0.0,0.0,0.0,0.01,0.470719188452,-9.78703689575,1.14737796783,0.01,0.0,0.0,0.0,0.01,0.0,0.0,0.0,0.01
1627577693665518046,4979,1627577693664775372,camera_accel_optical_frame,0.0,0.0,0.0,0.0,-1.0,0.0,0.0,0.0,0.0,0.0,0.0,0.0,0.0,0.0,0.0,0.0,0.01,0.0,0.0,0.0,0.01,0.0,0.0,0.0,0.01,0.323619455099,-8.78675842285,-0.784531950951,0.01,0.0,0.0,0.0,0.01,0.0,0.0,0.0,0.01
1627577693681449057,4980,1627577693680625916,camera_accel_optical_frame,0.0,0.0,0.0,0.0,-1.0,0.0,0.0,0.0,0.0,0.0,0.0,0.0,0.0,0.0,0.0,0.0,0.01,0.0,0.0,0.0,0.01,0.0,0.0,0.0,0.01,0.107873149216,-10.5323419571,0.323619455099,0.01,0.0,0.0,0.0,0.01,0.0,0.0,0.0,0.01
1627577693697532592,4981,1627577693696474552,camera_accel_optical_frame,0.0,0.0,0.0,0.0,-1.0,0.0,0.0,0.0,0.0,0.0,0.0,0.0,0.0,0.0,0.0,0.0,0.01,0.0,0.0,0.0,0.01,0.0,0.0,0.0,0.01,0.402072638273,-9.05153751373,-1.22583127022,0.01,0.0,0.0,0.0,0.01,0.0,0.0,0.0,0.01
1627577693712956341,4982,1627577693712326288,camera_accel_optical_frame,0.0,0.0,0.0,0.0,-1.0,0.0,0.0,0.0,0.0,0.0,0.0,0.0,0.0,0.0,0.0,0.0,0.01,0.0,0.0,0.0,0.01,0.0,0.0,0.0,0.01,0.529559075832,-10.4342756271,0.951245009899,0.01,0.0,0.0,0.0,0.01,0.0,0.0,0.0,0.01
1627577693729394238,4983,1627577693728173733,camera_accel_optical_frame,0.0,0.0,0.0,0.0,-1.0,0.0,0.0,0.0,0.0,0.0,0.0,0.0,0.0,0.0,0.0,0.0,0.01,0.0,0.0,0.0,0.01,0.0,0.0,0.0,0.01,0.38245934248,-11.7385597229,0.509945809841,0.01,0.0,0.0,0.0,0.01,0.0,0.0,0.0,0.01
1627577693745150932,4984,1627577693744022131,camera_accel_optical_frame,0.0,0.0,0.0,0.0,-1.0,0.0,0.0,0.0,0.0,0.0,0.0,0.0,0.0,0.0,0.0,0.0,0.01,0.0,0.0,0.0,0.01,0.0,0.0,0.0,0.01,0.490332484245,-10.630408287,0.245166242123,0.01,0.0,0.0,0.0,0.01,0.0,0.0,0.0,0.01
1627577693760850087,4985,1627577693759871721,camera_accel_optical_frame,0.0,0.0,0.0,0.0,-1.0,0.0,0.0,0.0,0.0,0.0,0.0,0.0,0.0,0.0,0.0,0.0,0.01,0.0,0.0,0.0,0.01,0.0,0.0,0.0,0.01,0.470719188452,-9.97336292267,0.0490332469344,0.01,0.0,0.0,0.0,0.01,0.0,0.0,0.0,0.01
1627577693777364645,4986,1627577693775718451,camera_accel_optical_frame,0.0,0.0,0.0,0.0,-1.0,0.0,0.0,0.0,0.0,0.0,0.0,0.0,0.0,0.0,0.0,0.0,0.01,0.0,0.0,0.0,0.01,0.0,0.0,0.0,0.01,0.431492596865,-10.5127286911,-0.362846046686,0.01,0.0,0.0,0.0,0.01,0.0,0.0,0.0,0.01
1627577693792828973,4987,1627577693791567087,camera_accel_optical_frame,0.0,0.0,0.0,0.0,-1.0,0.0,0.0,0.0,0.0,0.0,0.0,0.0,0.0,0.0,0.0,0.0,0.01,0.0,0.0,0.0,0.01,0.0,0.0,0.0,0.01,0.0,-11.8366260529,0.451105892658,0.01,0.0,0.0,0.0,0.01,0.0,0.0,0.0,0.01
1627577693808121193,4988,1627577693807415485,camera_accel_optical_frame,0.0,0.0,0.0,0.0,-1.0,0.0,0.0,0.0,0.0,0.0,0.0,0.0,0.0,0.0,0.0,0.0,0.01,0.0,0.0,0.0,0.01,0.0,0.0,0.0,0.01,0.549172401428,-8.5219783783,-0.529559075832,0.01,0.0,0.0,0.0,0.01,0.0,0.0,0.0,0.01
1627577693824507383,4989,1627577693823265076,camera_accel_optical_frame,0.0,0.0,0.0,0.0,-1.0,0.0,0.0,0.0,0.0,0.0,0.0,0.0,0.0,0.0,0.0,0.0,0.01,0.0,0.0,0.0,0.01,0.0,0.0,0.0,0.01,0.608012259007,-8.10029315948,0.627625584602,0.01,0.0,0.0,0.0,0.01,0.0,0.0,0.0,0.01
1627577693840540876,4990,1627577693839114666,camera_accel_optical_frame,0.0,0.0,0.0,0.0,-1.0,0.0,0.0,0.0,0.0,0.0,0.0,0.0,0.0,0.0,0.0,0.0,0.01,0.0,0.0,0.0,0.01,0.0,0.0,0.0,0.01,-0.00980664975941,-10.3950490952,0.804145276546,0.01,0.0,0.0,0.0,0.01,0.0,0.0,0.0,0.01
1627577693856129298,4991,1627577693854965448,camera_accel_optical_frame,0.0,0.0,0.0,0.0,-1.0,0.0,0.0,0.0,0.0,0.0,0.0,0.0,0.0,0.0,0.0,0.0,0.01,0.0,0.0,0.0,0.01,0.0,0.0,0.0,0.01,0.431492596865,-8.80637168884,0.627625584602,0.01,0.0,0.0,0.0,0.01,0.0,0.0,0.0,0.01
1627577693871873083,4992,1627577693870815039,camera_accel_optical_frame,0.0,0.0,0.0,0.0,-1.0,0.0,0.0,0.0,0.0,0.0,0.0,0.0,0.0,0.0,0.0,0.0,0.01,0.0,0.0,0.0,0.01,0.0,0.0,0.0,0.01,0.362846046686,-8.62985134125,0.470719188452,0.01,0.0,0.0,0.0,0.01,0.0,0.0,0.0,0.01
1627577693887896960,4993,1627577693886662245,camera_accel_optical_frame,0.0,0.0,0.0,0.0,-1.0,0.0,0.0,0.0,0.0,0.0,0.0,0.0,0.0,0.0,0.0,0.0,0.01,0.0,0.0,0.0,0.01,0.0,0.0,0.0,0.01,0.12748645246,-9.40457725525,1.2552511692,0.01,0.0,0.0,0.0,0.01,0.0,0.0,0.0,0.01
1627577693903365083,4994,1627577693902513027,camera_accel_optical_frame,0.0,0.0,0.0,0.0,-1.0,0.0,0.0,0.0,0.0,0.0,0.0,0.0,0.0,0.0,0.0,0.0,0.01,0.0,0.0,0.0,0.01,0.0,0.0,0.0,0.01,0.245166242123,-8.78675842285,0.264779537916,0.01,0.0,0.0,0.0,0.01,0.0,0.0,0.0,0.01
1627577693918971015,4995,1627577693918361664,camera_accel_optical_frame,0.0,0.0,0.0,0.0,-1.0,0.0,0.0,0.0,0.0,0.0,0.0,0.0,0.0,0.0,0.0,0.0,0.01,0.0,0.0,0.0,0.01,0.0,0.0,0.0,0.01,0.784531950951,-9.76742362976,1.54945063591,0.01,0.0,0.0,0.0,0.01,0.0,0.0,0.0,0.01
1627577693934988279,4996,1627577693934211254,camera_accel_optical_frame,0.0,0.0,0.0,0.0,-1.0,0.0,0.0,0.0,0.0,0.0,0.0,0.0,0.0,0.0,0.0,0.0,0.01,0.0,0.0,0.0,0.01,0.0,0.0,0.0,0.01,0.627625584602,-10.2577552795,0.872791826725,0.01,0.0,0.0,0.0,0.01,0.0,0.0,0.0,0.01
1627577693950736138,4997,1627577693950059652,camera_accel_optical_frame,0.0,0.0,0.0,0.0,-1.0,0.0,0.0,0.0,0.0,0.0,0.0,0.0,0.0,0.0,0.0,0.0,0.01,0.0,0.0,0.0,0.01,0.0,0.0,0.0,0.01,0.568785667419,-11.503200531,1.5886772871,0.01,0.0,0.0,0.0,0.01,0.0,0.0,0.0,0.01
1627577693966534787,4998,1627577693965908289,camera_accel_optical_frame,0.0,0.0,0.0,0.0,-1.0,0.0,0.0,0.0,0.0,0.0,0.0,0.0,0.0,0.0,0.0,0.0,0.01,0.0,0.0,0.0,0.01,0.0,0.0,0.0,0.01,0.431492596865,-11.522813797,1.06892478466,0.01,0.0,0.0,0.0,0.01,0.0,0.0,0.0,0.01
1627577693982654412,4999,1627577693981757879,camera_accel_optical_frame,0.0,0.0,0.0,0.0,-1.0,0.0,0.0,0.0,0.0,0.0,0.0,0.0,0.0,0.0,0.0,0.0,0.01,0.0,0.0,0.0,0.01,0.0,0.0,0.0,0.01,0.38245934248,-10.9540281296,1.52983736992,0.01,0.0,0.0,0.0,0.01,0.0,0.0,0.0,0.01
1627577693998276960,5000,1627577693997607231,camera_accel_optical_frame,0.0,0.0,0.0,0.0,-1.0,0.0,0.0,0.0,0.0,0.0,0.0,0.0,0.0,0.0,0.0,0.0,0.01,0.0,0.0,0.0,0.01,0.0,0.0,0.0,0.01,0.225552946329,-10.4538888931,0.892405152321,0.01,0.0,0.0,0.0,0.01,0.0,0.0,0.0,0.01
1627577694014223950,5001,1627577694013453960,camera_accel_optical_frame,0.0,0.0,0.0,0.0,-1.0,0.0,0.0,0.0,0.0,0.0,0.0,0.0,0.0,0.0,0.0,0.0,0.01,0.0,0.0,0.0,0.01,0.0,0.0,0.0,0.01,-0.0490332469344,-10.9344148636,0.951245009899,0.01,0.0,0.0,0.0,0.01,0.0,0.0,0.0,0.01
1627577694030074343,5002,1627577694029302597,camera_accel_optical_frame,0.0,0.0,0.0,0.0,-1.0,0.0,0.0,0.0,0.0,0.0,0.0,0.0,0.0,0.0,0.0,0.0,0.01,0.0,0.0,0.0,0.01,0.0,0.0,0.0,0.01,0.107873149216,-9.57129001617,-0.0294199492782,0.01,0.0,0.0,0.0,0.01,0.0,0.0,0.0,0.01
1627577694045916445,5003,1627577694045152903,camera_accel_optical_frame,0.0,0.0,0.0,0.0,-1.0,0.0,0.0,0.0,0.0,0.0,0.0,0.0,0.0,0.0,0.0,0.0,0.01,0.0,0.0,0.0,0.01,0.0,0.0,0.0,0.01,-0.0294199492782,-10.8755741119,1.2552511692,0.01,0.0,0.0,0.0,0.01,0.0,0.0,0.0,0.01
1627577694062477038,5004,1627577694061002493,camera_accel_optical_frame,0.0,0.0,0.0,0.0,-1.0,0.0,0.0,0.0,0.0,0.0,0.0,0.0,0.0,0.0,0.0,0.0,0.01,0.0,0.0,0.0,0.01,0.0,0.0,0.0,0.01,0.0294199492782,-9.20844459534,-0.304006129503,0.01,0.0,0.0,0.0,0.01,0.0,0.0,0.0,0.01
1627577694078082294,5005,1627577694076853037,camera_accel_optical_frame,0.0,0.0,0.0,0.0,-1.0,0.0,0.0,0.0,0.0,0.0,0.0,0.0,0.0,0.0,0.0,0.0,0.01,0.0,0.0,0.0,0.01,0.0,0.0,0.0,0.01,0.264779537916,-8.62985134125,0.470719188452,0.01,0.0,0.0,0.0,0.01,0.0,0.0,0.0,0.01
1627577694093818934,5006,1627577694092700720,camera_accel_optical_frame,0.0,0.0,0.0,0.0,-1.0,0.0,0.0,0.0,0.0,0.0,0.0,0.0,0.0,0.0,0.0,0.0,0.01,0.0,0.0,0.0,0.01,0.0,0.0,0.0,0.01,0.28439283371,-7.78647994995,-0.343232750893,0.01,0.0,0.0,0.0,0.01,0.0,0.0,0.0,0.01
1627577694109535360,5007,1627577694108549118,camera_accel_optical_frame,0.0,0.0,0.0,0.0,-1.0,0.0,0.0,0.0,0.0,0.0,0.0,0.0,0.0,0.0,0.0,0.0,0.01,0.0,0.0,0.0,0.01,0.0,0.0,0.0,0.01,0.813951909542,-8.15913295746,0.853178501129,0.01,0.0,0.0,0.0,0.01,0.0,0.0,0.0,0.01
1627577694125270491,5008,1627577694124396801,camera_accel_optical_frame,0.0,0.0,0.0,0.0,-1.0,0.0,0.0,0.0,0.0,0.0,0.0,0.0,0.0,0.0,0.0,0.0,0.01,0.0,0.0,0.0,0.01,0.0,0.0,0.0,0.01,0.529559075832,-8.34545898438,0.627625584602,0.01,0.0,0.0,0.0,0.01,0.0,0.0,0.0,0.01
1627577694141327726,5009,1627577694140244246,camera_accel_optical_frame,0.0,0.0,0.0,0.0,-1.0,0.0,0.0,0.0,0.0,0.0,0.0,0.0,0.0,0.0,0.0,0.0,0.01,0.0,0.0,0.0,0.01,0.0,0.0,0.0,0.01,0.362846046686,-7.13924121857,-0.627625584602,0.01,0.0,0.0,0.0,0.01,0.0,0.0,0.0,0.01
1627577694156965239,5010,1627577694156093836,camera_accel_optical_frame,0.0,0.0,0.0,0.0,-1.0,0.0,0.0,0.0,0.0,0.0,0.0,0.0,0.0,0.0,0.0,0.0,0.01,0.0,0.0,0.0,0.01,0.0,0.0,0.0,0.01,0.431492596865,-8.61023807526,0.804145276546,0.01,0.0,0.0,0.0,0.01,0.0,0.0,0.0,0.01
1627577694173425722,5011,1627577694171942472,camera_accel_optical_frame,0.0,0.0,0.0,0.0,-1.0,0.0,0.0,0.0,0.0,0.0,0.0,0.0,0.0,0.0,0.0,0.0,0.01,0.0,0.0,0.0,0.01,0.0,0.0,0.0,0.01,0.813951909542,-7.9041595459,-0.343232750893,0.01,0.0,0.0,0.0,0.01,0.0,0.0,0.0,0.01
1627577694189324519,5012,1627577694187793970,camera_accel_optical_frame,0.0,0.0,0.0,0.0,-1.0,0.0,0.0,0.0,0.0,0.0,0.0,0.0,0.0,0.0,0.0,0.0,0.01,0.0,0.0,0.0,0.01,0.0,0.0,0.0,0.01,0.402072638273,-9.16921710968,1.45138418674,0.01,0.0,0.0,0.0,0.01,0.0,0.0,0.0,0.01
1627577694204490218,5013,1627577694203641653,camera_accel_optical_frame,0.0,0.0,0.0,0.0,-1.0,0.0,0.0,0.0,0.0,0.0,0.0,0.0,0.0,0.0,0.0,0.0,0.01,0.0,0.0,0.0,0.01,0.0,0.0,0.0,0.01,0.362846046686,-8.02183914185,-0.529559075832,0.01,0.0,0.0,0.0,0.01,0.0,0.0,0.0,0.01
1627577694220886318,5014,1627577694219490528,camera_accel_optical_frame,0.0,0.0,0.0,0.0,-1.0,0.0,0.0,0.0,0.0,0.0,0.0,0.0,0.0,0.0,0.0,0.0,0.01,0.0,0.0,0.0,0.01,0.0,0.0,0.0,0.01,-0.0686465501785,-9.99297618866,0.804145276546,0.01,0.0,0.0,0.0,0.01,0.0,0.0,0.0,0.01
1627577694235960728,5015,1627577694235340118,camera_accel_optical_frame,0.0,0.0,0.0,0.0,-1.0,0.0,0.0,0.0,0.0,0.0,0.0,0.0,0.0,0.0,0.0,0.0,0.01,0.0,0.0,0.0,0.01,0.0,0.0,0.0,0.01,0.225552946329,-8.9044380188,-0.323619455099,0.01,0.0,0.0,0.0,0.01,0.0,0.0,0.0,0.01
1627577694252088663,5016,1627577694251190901,camera_accel_optical_frame,0.0,0.0,0.0,0.0,-1.0,0.0,0.0,0.0,0.0,0.0,0.0,0.0,0.0,0.0,0.0,0.0,0.01,0.0,0.0,0.0,0.01,0.0,0.0,0.0,0.01,0.470719188452,-10.3950490952,1.93191003799,0.01,0.0,0.0,0.0,0.01,0.0,0.0,0.0,0.01
1627577694267876140,5017,1627577694267222643,camera_accel_optical_frame,0.0,0.0,0.0,0.0,-1.0,0.0,0.0,0.0,0.0,0.0,0.0,0.0,0.0,0.0,0.0,0.0,0.01,0.0,0.0,0.0,0.01,0.0,0.0,0.0,0.01,0.568785667419,-10.9344148636,0.745305359364,0.01,0.0,0.0,0.0,0.01,0.0,0.0,0.0,0.01
1627577694283635866,5018,1627577694283253670,camera_accel_optical_frame,0.0,0.0,0.0,0.0,-1.0,0.0,0.0,0.0,0.0,0.0,0.0,0.0,0.0,0.0,0.0,0.0,0.01,0.0,0.0,0.0,0.01,0.0,0.0,0.0,0.01,0.343232750893,-11.7385597229,1.5690639019,0.01,0.0,0.0,0.0,0.01,0.0,0.0,0.0,0.01
1627577694299404819,5019,1627577694299287319,camera_accel_optical_frame,0.0,0.0,0.0,0.0,-1.0,0.0,0.0,0.0,0.0,0.0,0.0,0.0,0.0,0.0,0.0,0.0,0.01,0.0,0.0,0.0,0.01,0.0,0.0,0.0,0.01,0.343232750893,-11.601266861,0.951245009899,0.01,0.0,0.0,0.0,0.01,0.0,0.0,0.0,0.01
1627577694315359169,5020,1627577694315320730,camera_accel_optical_frame,0.0,0.0,0.0,0.0,-1.0,0.0,0.0,0.0,0.0,0.0,0.0,0.0,0.0,0.0,0.0,0.0,0.01,0.0,0.0,0.0,0.01,0.0,0.0,0.0,0.01,0.588398993015,-12.1014060974,2.09862303734,0.01,0.0,0.0,0.0,0.01,0.0,0.0,0.0,0.01
1627577694331044210,5021,1627577694331351519,camera_accel_optical_frame,0.0,0.0,0.0,0.0,-1.0,0.0,0.0,0.0,0.0,0.0,0.0,0.0,0.0,0.0,0.0,0.0,0.01,0.0,0.0,0.0,0.01,0.0,0.0,0.0,0.01,0.764918684959,-10.3950490952,-0.0490332469344,0.01,0.0,0.0,0.0,0.01,0.0,0.0,0.0,0.01
1627577694347461184,5022,1627577694347385883,camera_accel_optical_frame,0.0,0.0,0.0,0.0,-1.0,0.0,0.0,0.0,0.0,0.0,0.0,0.0,0.0,0.0,0.0,0.0,0.01,0.0,0.0,0.0,0.01,0.0,0.0,0.0,0.01,-0.147099748254,-12.3269586563,2.35359597206,0.01,0.0,0.0,0.0,0.01,0.0,0.0,0.0,0.01
1627577694362994263,5023,1627577694363420963,camera_accel_optical_frame,0.0,0.0,0.0,0.0,-1.0,0.0,0.0,0.0,0.0,0.0,0.0,0.0,0.0,0.0,0.0,0.0,0.01,0.0,0.0,0.0,0.01,0.0,0.0,0.0,0.01,0.608012259007,-7.38440704346,-0.872791826725,0.01,0.0,0.0,0.0,0.01,0.0,0.0,0.0,0.01
1627577694378987983,5024,1627577694379454374,camera_accel_optical_frame,0.0,0.0,0.0,0.0,-1.0,0.0,0.0,0.0,0.0,0.0,0.0,0.0,0.0,0.0,0.0,0.0,0.01,0.0,0.0,0.0,0.01,0.0,0.0,0.0,0.01,0.0294199492782,-9.5124502182,1.49061071873,0.01,0.0,0.0,0.0,0.01,0.0,0.0,0.0,0.01
1627577694394615107,5025,1627577694395488262,camera_accel_optical_frame,0.0,0.0,0.0,0.0,-1.0,0.0,0.0,0.0,0.0,0.0,0.0,0.0,0.0,0.0,0.0,0.0,0.01,0.0,0.0,0.0,0.01,0.0,0.0,0.0,0.01,0.490332484245,-8.72791862488,0.0294199492782,0.01,0.0,0.0,0.0,0.01,0.0,0.0,0.0,0.01
1627577694410845853,5026,1627577694411523819,camera_accel_optical_frame,0.0,0.0,0.0,0.0,-1.0,0.0,0.0,0.0,0.0,0.0,0.0,0.0,0.0,0.0,0.0,0.0,0.01,0.0,0.0,0.0,0.01,0.0,0.0,0.0,0.01,0.568785667419,-9.80665016174,1.75539028645,0.01,0.0,0.0,0.0,0.01,0.0,0.0,0.0,0.01
1627577694426600035,5027,1627577694427559137,camera_accel_optical_frame,0.0,0.0,0.0,0.0,-1.0,0.0,0.0,0.0,0.0,0.0,0.0,0.0,0.0,0.0,0.0,0.0,0.01,0.0,0.0,0.0,0.01,0.0,0.0,0.0,0.01,0.411879301071,-8.18855285645,-0.343232750893,0.01,0.0,0.0,0.0,0.01,0.0,0.0,0.0,0.01
1627577694442441639,5028,1627577694443596601,camera_accel_optical_frame,0.0,0.0,0.0,0.0,-1.0,0.0,0.0,0.0,0.0,0.0,0.0,0.0,0.0,0.0,0.0,0.0,0.01,0.0,0.0,0.0,0.01,0.0,0.0,0.0,0.01,0.451105892658,-8.78675842285,1.2944778204,0.01,0.0,0.0,0.0,0.01,0.0,0.0,0.0,0.01
1627577694458419923,5029,1627577694459632158,camera_accel_optical_frame,0.0,0.0,0.0,0.0,-1.0,0.0,0.0,0.0,0.0,0.0,0.0,0.0,0.0,0.0,0.0,0.0,0.01,0.0,0.0,0.0,0.01,0.0,0.0,0.0,0.01,1.22583127022,-7.19808101654,0.872791826725,0.01,0.0,0.0,0.0,0.01,0.0,0.0,0.0,0.01
1627577694473987746,5030,1627577694475668669,camera_accel_optical_frame,0.0,0.0,0.0,0.0,-1.0,0.0,0.0,0.0,0.0,0.0,0.0,0.0,0.0,0.0,0.0,0.0,0.01,0.0,0.0,0.0,0.01,0.0,0.0,0.0,0.01,0.411879301071,-8.34545898438,0.588398993015,0.01,0.0,0.0,0.0,0.01,0.0,0.0,0.0,0.01
1627577694489670280,5031,1627577694491705179,camera_accel_optical_frame,0.0,0.0,0.0,0.0,-1.0,0.0,0.0,0.0,0.0,0.0,0.0,0.0,0.0,0.0,0.0,0.0,0.01,0.0,0.0,0.0,0.01,0.0,0.0,0.0,0.01,0.225552946329,-8.74753189087,-0.431492596865,0.01,0.0,0.0,0.0,0.01,0.0,0.0,0.0,0.01
1627577694505837680,5032,1627577694507744074,camera_accel_optical_frame,0.0,0.0,0.0,0.0,-1.0,0.0,0.0,0.0,0.0,0.0,0.0,0.0,0.0,0.0,0.0,0.0,0.01,0.0,0.0,0.0,0.01,0.0,0.0,0.0,0.01,0.205939650536,-9.45361042023,0.853178501129,0.01,0.0,0.0,0.0,0.01,0.0,0.0,0.0,0.01
1627577694521678511,5033,1627577694523778439,camera_accel_optical_frame,0.0,0.0,0.0,0.0,-1.0,0.0,0.0,0.0,0.0,0.0,0.0,0.0,0.0,0.0,0.0,0.0,0.01,0.0,0.0,0.0,0.01,0.0,0.0,0.0,0.01,-0.147099748254,-9.14960384369,-0.686465501785,0.01,0.0,0.0,0.0,0.01,0.0,0.0,0.0,0.01
1627577694538214469,5034,1627577694539818287,camera_accel_optical_frame,0.0,0.0,0.0,0.0,-1.0,0.0,0.0,0.0,0.0,0.0,0.0,0.0,0.0,0.0,0.0,0.0,0.01,0.0,0.0,0.0,0.01,0.0,0.0,0.0,0.01,0.529559075832,-10.630408287,1.20621788502,0.01,0.0,0.0,0.0,0.01,0.0,0.0,0.0,0.01
1627577694553094567,5035,1627577694555859089,camera_accel_optical_frame,0.0,0.0,0.0,0.0,-1.0,0.0,0.0,0.0,0.0,0.0,0.0,0.0,0.0,0.0,0.0,0.0,0.01,0.0,0.0,0.0,0.01,0.0,0.0,0.0,0.01,0.431492596865,-11.0619010925,0.245166242123,0.01,0.0,0.0,0.0,0.01,0.0,0.0,0.0,0.01
1627577694568753631,5036,1627577694571896076,camera_accel_optical_frame,0.0,0.0,0.0,0.0,-1.0,0.0,0.0,0.0,0.0,0.0,0.0,0.0,0.0,0.0,0.0,0.0,0.01,0.0,0.0,0.0,0.01,0.0,0.0,0.0,0.01,0.0294199492782,-11.9052724838,0.38245934248,0.01,0.0,0.0,0.0,0.01,0.0,0.0,0.0,0.01
1627577694584705237,5037,1627577694587937832,camera_accel_optical_frame,0.0,0.0,0.0,0.0,-1.0,0.0,0.0,0.0,0.0,0.0,0.0,0.0,0.0,0.0,0.0,0.0,0.01,0.0,0.0,0.0,0.01,0.0,0.0,0.0,0.01,0.362846046686,-11.9248857498,0.706078767776,0.01,0.0,0.0,0.0,0.01,0.0,0.0,0.0,0.01
1627577694600451837,5038,1627577694603979111,camera_accel_optical_frame,0.0,0.0,0.0,0.0,-1.0,0.0,0.0,0.0,0.0,0.0,0.0,0.0,0.0,0.0,0.0,0.0,0.01,0.0,0.0,0.0,0.01,0.0,0.0,0.0,0.01,0.706078767776,-11.6993331909,1.23563790321,0.01,0.0,0.0,0.0,0.01,0.0,0.0,0.0,0.01
1627577694616496856,5039,1627577694620024920,camera_accel_optical_frame,0.0,0.0,0.0,0.0,-1.0,0.0,0.0,0.0,0.0,0.0,0.0,0.0,0.0,0.0,0.0,0.0,0.01,0.0,0.0,0.0,0.01,0.0,0.0,0.0,0.01,0.990471601486,-11.1795806885,1.35331761837,0.01,0.0,0.0,0.0,0.01,0.0,0.0,0.0,0.01
1627577694632314026,5040,1627577694636069298,camera_accel_optical_frame,0.0,0.0,0.0,0.0,-1.0,0.0,0.0,0.0,0.0,0.0,0.0,0.0,0.0,0.0,0.0,0.0,0.01,0.0,0.0,0.0,0.01,0.0,0.0,0.0,0.01,0.931631743908,-10.1891088486,0.706078767776,0.01,0.0,0.0,0.0,0.01,0.0,0.0,0.0,0.01
1627577694648072702,5041,1627577694652111053,camera_accel_optical_frame,0.0,0.0,0.0,0.0,-1.0,0.0,0.0,0.0,0.0,0.0,0.0,0.0,0.0,0.0,0.0,0.0,0.01,0.0,0.0,0.0,0.01,0.0,0.0,0.0,0.01,0.147099748254,-10.630408287,-0.686465501785,0.01,0.0,0.0,0.0,0.01,0.0,0.0,0.0,0.01
1627577694664301639,5042,1627577694668157578,camera_accel_optical_frame,0.0,0.0,0.0,0.0,-1.0,0.0,0.0,0.0,0.0,0.0,0.0,0.0,0.0,0.0,0.0,0.0,0.01,0.0,0.0,0.0,0.01,0.0,0.0,0.0,0.01,-0.264779537916,-12.6799983978,0.892405152321,0.01,0.0,0.0,0.0,0.01,0.0,0.0,0.0,0.01
1627577694679720688,5043,1627577694684204578,camera_accel_optical_frame,0.0,0.0,0.0,0.0,-1.0,0.0,0.0,0.0,0.0,0.0,0.0,0.0,0.0,0.0,0.0,0.0,0.01,0.0,0.0,0.0,0.01,0.0,0.0,0.0,0.01,0.549172401428,-7.86493301392,-2.01036310196,0.01,0.0,0.0,0.0,0.01,0.0,0.0,0.0,0.01
1627577694695882071,5044,1627577694700253248,camera_accel_optical_frame,0.0,0.0,0.0,0.0,-1.0,0.0,0.0,0.0,0.0,0.0,0.0,0.0,0.0,0.0,0.0,0.0,0.01,0.0,0.0,0.0,0.01,0.0,0.0,0.0,0.01,0.245166242123,-8.59062480927,0.784531950951,0.01,0.0,0.0,0.0,0.01,0.0,0.0,0.0,0.01
1627577694711921355,5045,1627577694716298342,camera_accel_optical_frame,0.0,0.0,0.0,0.0,-1.0,0.0,0.0,0.0,0.0,0.0,0.0,0.0,0.0,0.0,0.0,0.0,0.01,0.0,0.0,0.0,0.01,0.0,0.0,0.0,0.01,-0.225552946329,-10.2577552795,-0.804145276546,0.01,0.0,0.0,0.0,0.01,0.0,0.0,0.0,0.01
1627577694727678920,5046,1627577694732346058,camera_accel_optical_frame,0.0,0.0,0.0,0.0,-1.0,0.0,0.0,0.0,0.0,0.0,0.0,0.0,0.0,0.0,0.0,0.0,0.01,0.0,0.0,0.0,0.01,0.0,0.0,0.0,0.01,-0.0294199492782,-8.62985134125,-0.186326339841,0.01,0.0,0.0,0.0,0.01,0.0,0.0,0.0,0.01
1627577694743599939,5047,1627577694748394251,camera_accel_optical_frame,0.0,0.0,0.0,0.0,-1.0,0.0,0.0,0.0,0.0,0.0,0.0,0.0,0.0,0.0,0.0,0.0,0.01,0.0,0.0,0.0,0.01,0.0,0.0,0.0,0.01,0.264779537916,-6.59987545013,-0.931631743908,0.01,0.0,0.0,0.0,0.01,0.0,0.0,0.0,0.01
1627577694759895641,5048,1627577694764445066,camera_accel_optical_frame,0.0,0.0,0.0,0.0,-1.0,0.0,0.0,0.0,0.0,0.0,0.0,0.0,0.0,0.0,0.0,0.0,0.01,0.0,0.0,0.0,0.01,0.0,0.0,0.0,0.01,0.647238910198,-9.57129001617,1.8926833868,0.01,0.0,0.0,0.0,0.01,0.0,0.0,0.0,0.01
1627577694775135631,5049,1627577694780493498,camera_accel_optical_frame,0.0,0.0,0.0,0.0,-1.0,0.0,0.0,0.0,0.0,0.0,0.0,0.0,0.0,0.0,0.0,0.0,0.01,0.0,0.0,0.0,0.01,0.0,0.0,0.0,0.01,0.951245009899,-9.55167675018,1.67693710327,0.01,0.0,0.0,0.0,0.01,0.0,0.0,0.0,0.01
1627577694791269515,5050,1627577694796542168,camera_accel_optical_frame,0.0,0.0,0.0,0.0,-1.0,0.0,0.0,0.0,0.0,0.0,0.0,0.0,0.0,0.0,0.0,0.0,0.01,0.0,0.0,0.0,0.01,0.0,0.0,0.0,0.01,0.951245009899,-7.27653408051,0.912018418312,0.01,0.0,0.0,0.0,0.01,0.0,0.0,0.0,0.01
1627577694806831938,5051,1627577694812590837,camera_accel_optical_frame,0.0,0.0,0.0,0.0,-1.0,0.0,0.0,0.0,0.0,0.0,0.0,0.0,0.0,0.0,0.0,0.0,0.01,0.0,0.0,0.0,0.01,0.0,0.0,0.0,0.01,1.2552511692,-7.52170038223,1.49061071873,0.01,0.0,0.0,0.0,0.01,0.0,0.0,0.0,0.01
1627577694822894454,5052,1627577694828640699,camera_accel_optical_frame,0.0,0.0,0.0,0.0,-1.0,0.0,0.0,0.0,0.0,0.0,0.0,0.0,0.0,0.0,0.0,0.0,0.01,0.0,0.0,0.0,0.01,0.0,0.0,0.0,0.01,0.343232750893,-9.87529659271,0.470719188452,0.01,0.0,0.0,0.0,0.01,0.0,0.0,0.0,0.01
1627577694838707240,5053,1627577694844690084,camera_accel_optical_frame,0.0,0.0,0.0,0.0,-1.0,0.0,0.0,0.0,0.0,0.0,0.0,0.0,0.0,0.0,0.0,0.0,0.01,0.0,0.0,0.0,0.01,0.0,0.0,0.0,0.01,0.470719188452,-10.83634758,1.47099745274,0.01,0.0,0.0,0.0,0.01,0.0,0.0,0.0,0.01
1627577694854942647,5054,1627577694860741377,camera_accel_optical_frame,0.0,0.0,0.0,0.0,-1.0,0.0,0.0,0.0,0.0,0.0,0.0,0.0,0.0,0.0,0.0,0.0,0.01,0.0,0.0,0.0,0.01,0.0,0.0,0.0,0.01,0.323619455099,-8.08067893982,-2.55953550339,0.01,0.0,0.0,0.0,0.01,0.0,0.0,0.0,0.01
1627577694870022195,5055,1627577694876796246,camera_accel_optical_frame,0.0,0.0,0.0,0.0,-1.0,0.0,0.0,0.0,0.0,0.0,0.0,0.0,0.0,0.0,0.0,0.0,0.01,0.0,0.0,0.0,0.01,0.0,0.0,0.0,0.01,0.402072638273,-13.2683973312,2.8341217041,0.01,0.0,0.0,0.0,0.01,0.0,0.0,0.0,0.01
1627577694885725110,5056,1627577694892848492,camera_accel_optical_frame,0.0,0.0,0.0,0.0,-1.0,0.0,0.0,0.0,0.0,0.0,0.0,0.0,0.0,0.0,0.0,0.0,0.01,0.0,0.0,0.0,0.01,0.0,0.0,0.0,0.01,0.431492596865,-12.2190856934,-0.12748645246,0.01,0.0,0.0,0.0,0.01,0.0,0.0,0.0,0.01
1627577694901768533,5057,1627577694908902168,camera_accel_optical_frame,0.0,0.0,0.0,0.0,-1.0,0.0,0.0,0.0,0.0,0.0,0.0,0.0,0.0,0.0,0.0,0.0,0.01,0.0,0.0,0.0,0.01,0.0,0.0,0.0,0.01,-0.304006129503,-12.2681188583,1.06892478466,0.01,0.0,0.0,0.0,0.01,0.0,0.0,0.0,0.01
1627577694917525249,5058,1627577694924956322,camera_accel_optical_frame,0.0,0.0,0.0,0.0,-1.0,0.0,0.0,0.0,0.0,0.0,0.0,0.0,0.0,0.0,0.0,0.0,0.01,0.0,0.0,0.0,0.01,0.0,0.0,0.0,0.01,0.186326339841,-11.0619010925,-0.549172401428,0.01,0.0,0.0,0.0,0.01,0.0,0.0,0.0,0.01
1627577694933538064,5059,1627577694941011190,camera_accel_optical_frame,0.0,0.0,0.0,0.0,-1.0,0.0,0.0,0.0,0.0,0.0,0.0,0.0,0.0,0.0,0.0,0.0,0.01,0.0,0.0,0.0,0.01,0.0,0.0,0.0,0.01,-0.0490332469344,-12.5427045822,1.62790381908,0.01,0.0,0.0,0.0,0.01,0.0,0.0,0.0,0.01
1627577694949276873,5060,1627577694957067728,camera_accel_optical_frame,0.0,0.0,0.0,0.0,-1.0,0.0,0.0,0.0,0.0,0.0,0.0,0.0,0.0,0.0,0.0,0.0,0.01,0.0,0.0,0.0,0.01,0.0,0.0,0.0,0.01,0.0490332469344,-10.4931154251,0.431492596865,0.01,0.0,0.0,0.0,0.01,0.0,0.0,0.0,0.01
1627577694964995880,5061,1627577694973123789,camera_accel_optical_frame,0.0,0.0,0.0,0.0,-1.0,0.0,0.0,0.0,0.0,0.0,0.0,0.0,0.0,0.0,0.0,0.0,0.01,0.0,0.0,0.0,0.01,0.0,0.0,0.0,0.01,0.0686465501785,-9.7478094101,0.588398993015,0.01,0.0,0.0,0.0,0.01,0.0,0.0,0.0,0.01
1627577694981073143,5062,1627577694989178181,camera_accel_optical_frame,0.0,0.0,0.0,0.0,-1.0,0.0,0.0,0.0,0.0,0.0,0.0,0.0,0.0,0.0,0.0,0.0,0.01,0.0,0.0,0.0,0.01,0.0,0.0,0.0,0.01,0.490332484245,-8.32584571838,-0.411879301071,0.01,0.0,0.0,0.0,0.01,0.0,0.0,0.0,0.01
1627577694996981246,5063,1627577695005236387,camera_accel_optical_frame,0.0,0.0,0.0,0.0,-1.0,0.0,0.0,0.0,0.0,0.0,0.0,0.0,0.0,0.0,0.0,0.0,0.01,0.0,0.0,0.0,0.01,0.0,0.0,0.0,0.01,0.343232750893,-8.78675842285,0.706078767776,0.01,0.0,0.0,0.0,0.01,0.0,0.0,0.0,0.01
1627577695013227602,5064,1627577695021293879,camera_accel_optical_frame,0.0,0.0,0.0,0.0,-1.0,0.0,0.0,0.0,0.0,0.0,0.0,0.0,0.0,0.0,0.0,0.0,0.01,0.0,0.0,0.0,0.01,0.0,0.0,0.0,0.01,-0.0294199492782,-8.46313858032,0.304006129503,0.01,0.0,0.0,0.0,0.01,0.0,0.0,0.0,0.01
