%time,field.header.seq,field.header.stamp,field.header.frame_id,field.sentence
1627577991469862556,7536,1627577991469680070,gps_frame,$GPGGA,165950.80,4616.70211453,N,11940.88225597,W,4,6,1.6,323.334,M,-17.562,M,0.8,0000*47
1627577991519982895,7537,1627577991519792079,gps_frame,$GPGGA,165950.85,4616.70215225,N,11940.88219205,W,4,6,1.6,323.329,M,-17.562,M,0.8,0000*4E
1627577991568511294,7538,1627577991568324089,gps_frame,$GPGGA,165950.90,4616.70216122,N,11940.88220391,W,4,6,1.6,323.329,M,-17.562,M,0.9,0000*4A
1627577991619986680,7539,1627577991619827032,gps_frame,$GPGGA,165950.95,4616.70218072,N,11940.88209565,W,4,6,1.6,323.328,M,-17.562,M,0.9,0000*42
1627577991676616311,7540,1627577991676443099,gps_frame,$GPGGA,165951.00,4616.70222150,N,11940.88217527,W,4,6,1.6,323.348,M,-17.562,M,1.0,0000*40
1627577991719933073,7541,1627577991719754934,gps_frame,$GPGGA,165951.05,4616.70225449,N,11940.88212146,W,4,6,1.6,323.361,M,-17.562,M,1.0,0000*42
1627577991780026927,7542,1627577991779898881,gps_frame,$GPGGA,165951.10,4616.70226116,N,11940.88212885,W,4,6,1.6,323.331,M,-17.562,M,1.1,0000*48
1627577991820010602,7543,1627577991819789886,gps_frame,$GPGGA,165951.15,4616.70227747,N,11940.88203037,W,4,6,1.6,323.316,M,-17.562,M,1.1,0000*4A
1627577991870864137,7544,1627577991870685100,gps_frame,$GPGGA,165951.20,4616.70233251,N,11940.88205537,W,4,7,1.2,323.332,M,-17.562,M,0.2,0000*49
1627577991920045134,7545,1627577991919833898,gps_frame,$GPGGA,165951.25,4616.70237337,N,11940.88198024,W,4,7,1.2,323.337,M,-17.562,M,0.2,0000*4C
1627577991968830489,7546,1627577991968643903,gps_frame,$GPGGA,165951.30,4616.70236116,N,11940.88200274,W,4,7,1.2,323.291,M,-17.562,M,0.3,0000*41
1627577992019992662,7547,1627577992019784927,gps_frame,$GPGGA,165951.35,4616.70236838,N,11940.88189072,W,4,7,1.2,323.263,M,-17.562,M,0.3,0000*4A
1627577992070002133,7548,1627577992069808959,gps_frame,$GPGGA,165951.40,4616.70241890,N,11940.88196438,W,4,7,1.2,323.296,M,-17.562,M,0.4,0000*43
1627577992120001412,7549,1627577992119780063,gps_frame,$GPGGA,165951.45,4616.70245356,N,11940.88193041,W,4,7,1.2,323.306,M,-17.562,M,0.4,0000*44
1627577992168774486,7550,1627577992168580055,gps_frame,$GPGGA,165951.50,4616.70248527,N,11940.88190827,W,4,7,1.2,323.273,M,-17.562,M,0.5,0000*44
1627577992220027207,7551,1627577992219810009,gps_frame,$GPGGA,165951.55,4616.70251806,N,11940.88180186,W,4,7,1.2,323.256,M,-17.562,M,0.5,0000*43
1627577992270043104,7552,1627577992269810914,gps_frame,$GPGGA,165951.60,4616.70253539,N,11940.88189824,W,4,7,1.2,323.293,M,-17.562,M,0.6,0000*44
1627577992319938497,7553,1627577992319768905,gps_frame,$GPGGA,165951.65,4616.70255838,N,11940.88182849,W,4,7,1.2,323.311,M,-17.562,M,0.6,0000*40
1627577992368848917,7554,1627577992368688106,gps_frame,$GPGGA,165951.70,4616.70258519,N,11940.88183284,W,4,7,1.2,323.295,M,-17.562,M,0.7,0000*41
1627577992419949240,7555,1627577992419734001,gps_frame,$GPGGA,165951.75,4616.70261059,N,11940.88174067,W,4,7,1.2,323.291,M,-17.562,M,0.7,0000*4C
1627577992469653797,7556,1627577992469513893,gps_frame,$GPGGA,165951.80,4616.70262803,N,11940.88177682,W,4,7,1.2,323.299,M,-17.562,M,0.8,0000*4B
1627577992520034904,7557,1627577992519820928,gps_frame,$GPGGA,165951.85,4616.70264838,N,11940.88169705,W,4,7,1.2,323.302,M,-17.562,M,0.8,0000*42
1627577992568457579,7558,1627577992568267107,gps_frame,$GPGGA,165951.90,4616.70269816,N,11940.88172417,W,4,7,1.2,323.253,M,-17.562,M,0.9,0000*49
1627577992619978195,7559,1627577992619774103,gps_frame,$GPGGA,165951.95,4616.70273717,N,11940.88165284,W,4,7,1.2,323.222,M,-17.562,M,0.9,0000*45
1627577992676461314,7560,1627577992676269054,gps_frame,$GPGGA,165952.00,4616.70274637,N,11940.88170418,W,4,7,1.2,323.267,M,-17.562,M,1.0,0000*40
1627577992719976668,7561,1627577992719738006,gps_frame,$GPGGA,165952.05,4616.70276648,N,11940.88161351,W,4,7,1.2,323.284,M,-17.562,M,1.0,0000*48
1627577992779574836,7562,1627577992779454946,gps_frame,$GPGGA,165952.10,4616.70279311,N,11940.88164421,W,4,7,1.2,323.286,M,-17.562,M,1.1,0000*4C
1627577992819918310,7563,1627577992819752931,gps_frame,$GPGGA,165952.15,4616.70281736,N,11940.88156374,W,4,7,1.2,323.294,M,-17.562,M,1.1,0000*4A
1627577992870697374,7564,1627577992870493888,gps_frame,$GPGGA,165952.20,4616.70284843,N,11940.88160444,W,4,6,1.6,323.296,M,-17.562,M,0.2,0000*40
1627577992920078707,7565,1627577992919878959,gps_frame,$GPGGA,165952.25,4616.70287700,N,11940.88153606,W,4,6,1.6,323.301,M,-17.562,M,0.2,0000*45
1627577992968643605,7566,1627577992968496084,gps_frame,$GPGGA,165952.30,4616.70289957,N,11940.88157305,W,4,6,1.6,323.335,M,-17.562,M,0.3,0000*47
1627577993019990652,7567,1627577993019783020,gps_frame,$GPGGA,165952.35,4616.70292434,N,11940.88149487,W,4,6,1.6,323.358,M,-17.562,M,0.3,0000*49
1627577993069769065,7568,1627577993069597959,gps_frame,$GPGGA,165952.40,4616.70295351,N,11940.88150224,W,4,6,1.6,323.290,M,-17.562,M,0.4,0000*4D
1627577993119893271,7569,1627577993119724988,gps_frame,$GPGGA,165952.45,4616.70298107,N,11940.88140749,W,4,6,1.6,323.256,M,-17.562,M,0.4,0000*41
1627577993168439144,7570,1627577993168283939,gps_frame,$GPGGA,165952.50,4616.70300846,N,11940.88148812,W,4,6,1.6,323.280,M,-17.562,M,0.5,0000*4A
1627577993219869807,7571,1627577993219737052,gps_frame,$GPGGA,165952.55,4616.70303590,N,11940.88142986,W,4,6,1.6,323.283,M,-17.562,M,0.5,0000*4F
1627577993271062090,7572,1627577993270804882,gps_frame,$GPGGA,165952.60,4616.70304478,N,11940.88140913,W,4,6,1.6,323.309,M,-17.562,M,0.6,0000*47
1627577993319800259,7573,1627577993319677114,gps_frame,$GPGGA,165952.65,4616.70306046,N,11940.88129859,W,4,6,1.6,323.327,M,-17.562,M,0.6,0000*45
1627577993368662886,7574,1627577993368549108,gps_frame,$GPGGA,165952.70,4616.70314050,N,11940.88137382,W,4,6,1.6,323.274,M,-17.562,M,0.7,0000*41
1627577993419888039,7575,1627577993419734954,gps_frame,$GPGGA,165952.75,4616.70319698,N,11940.88133074,W,4,6,1.6,323.247,M,-17.562,M,0.7,0000*45
1627577993469681428,7576,1627577993469593048,gps_frame,$GPGGA,165952.80,4616.70314938,N,11940.88133709,W,4,6,1.6,323.304,M,-17.562,M,0.8,0000*43
1627577993519967366,7577,1627577993519782066,gps_frame,$GPGGA,165952.85,4616.70313988,N,11940.88119281,W,4,6,1.6,323.329,M,-17.562,M,0.8,0000*48
1627577993568472912,7578,1627577993568320989,gps_frame,$GPGGA,165952.90,4616.70324313,N,11940.88126862,W,4,6,1.6,323.274,M,-17.562,M,0.9,0000*43
1627577993619825832,7579,1627577993619718074,gps_frame,$GPGGA,165952.95,4616.70330510,N,11940.88125157,W,4,6,1.6,323.248,M,-17.562,M,0.9,0000*45
1627577993676414591,7580,1627577993676218032,gps_frame,$GPGGA,165953.00,4616.70326437,N,11940.88122177,W,4,6,1.6,323.263,M,-17.562,M,1.0,0000*4F
1627577993719884908,7581,1627577993719727039,gps_frame,$GPGGA,165953.05,4616.70326123,N,11940.88106683,W,4,6,1.6,323.263,M,-17.562,M,1.0,0000*40
1627577993779485418,7582,1627577993779320955,gps_frame,$GPGGA,165953.10,4616.70333408,N,11940.88117617,W,4,6,1.6,323.231,M,-17.562,M,1.1,0000*47
1627577993819889347,7583,1627577993819731950,gps_frame,$GPGGA,165953.15,4616.70337910,N,11940.88115935,W,4,6,1.6,323.210,M,-17.562,M,1.1,0000*4C
1627577993870437316,7584,1627577993870265960,gps_frame,$GPGGA,165953.20,4616.70338501,N,11940.88112442,W,4,6,1.9,323.300,M,-17.562,M,0.2,0000*4E
1627577993919845612,7585,1627577993919680118,gps_frame,$GPGGA,165953.25,4616.70340524,N,11940.88099961,W,4,6,1.9,323.349,M,-17.562,M,0.2,0000*40
1627577993968434258,7586,1627577993968278884,gps_frame,$GPGGA,165953.30,4616.70344779,N,11940.88110709,W,4,6,1.9,323.260,M,-17.562,M,0.3,0000*41
1627577994019921246,7587,1627577994019752025,gps_frame,$GPGGA,165953.35,4616.70348217,N,11940.88105902,W,4,6,1.9,323.222,M,-17.562,M,0.3,0000*42
1627577994069635822,7588,1627577994069456100,gps_frame,$GPGGA,165953.40,4616.70350868,N,11940.88105549,W,4,6,1.9,323.293,M,-17.562,M,0.4,0000*45
1627577994119876216,7589,1627577994119718074,gps_frame,$GPGGA,165953.45,4616.70353807,N,11940.88094872,W,4,6,1.9,323.324,M,-17.562,M,0.4,0000*4B
1627577994168164400,7590,1627577994168028116,gps_frame,$GPGGA,165953.50,4616.70357002,N,11940.88100376,W,4,6,1.9,323.328,M,-17.562,M,0.5,0000*48
1627577994219917662,7591,1627577994219748020,gps_frame,$GPGGA,165953.55,4616.70360103,N,11940.88091525,W,4,6,1.9,323.341,M,-17.562,M,0.5,0000*4F
1627577994269662494,7592,1627577994269499063,gps_frame,$GPGGA,165953.60,4616.70361550,N,11940.88096175,W,4,6,1.9,323.264,M,-17.562,M,0.6,0000*49
1627577994319955738,7593,1627577994319749116,gps_frame,$GPGGA,165953.65,4616.70363602,N,11940.88087390,W,4,6,1.9,323.221,M,-17.562,M,0.6,0000*42
1627577994368508790,7594,1627577994368326902,gps_frame,$GPGGA,165953.70,4616.70368374,N,11940.88091152,W,4,6,1.9,323.271,M,-17.562,M,0.7,0000*46
1627577994419886188,7595,1627577994419759035,gps_frame,$GPGGA,165953.75,4616.70372149,N,11940.88084023,W,4,6,1.9,323.287,M,-17.562,M,0.7,0000*4E
1627577994469463772,7596,1627577994469337940,gps_frame,$GPGGA,165953.80,4616.70373175,N,11940.88088560,W,4,6,1.9,323.255,M,-17.562,M,0.8,0000*44
1627577994519895919,7597,1627577994519742012,gps_frame,$GPGGA,165953.85,4616.70375208,N,11940.88079378,W,4,6,1.9,323.241,M,-17.562,M,0.8,0000*4A
1627577994568286298,7598,1627577994568134069,gps_frame,$GPGGA,165953.90,4616.70377945,N,11940.88082163,W,4,6,1.9,323.229,M,-17.562,M,0.9,0000*4D
1627577994619891273,7599,1627577994619724035,gps_frame,$GPGGA,165953.95,4616.70380423,N,11940.88073919,W,4,6,1.9,323.215,M,-17.562,M,0.9,0000*49
1627577994676242309,7600,1627577994676063060,gps_frame,$GPGGA,165954.00,4616.70385748,N,11940.88073598,W,4,6,1.9,323.220,M,-17.562,M,1.0,0000*42
1627577994719857522,7601,1627577994719707012,gps_frame,$GPGGA,165954.05,4616.70390031,N,11940.88063773,W,4,6,1.9,323.218,M,-17.562,M,1.0,0000*47
1627577994779408197,7602,1627577994779227972,gps_frame,$GPGGA,165954.10,4616.70389102,N,11940.88069910,W,4,6,1.9,323.258,M,-17.562,M,1.1,0000*4E
1627577994819864968,7603,1627577994819781064,gps_frame,$GPGGA,165954.15,4616.70390082,N,11940.88059399,W,4,6,1.9,323.282,M,-17.562,M,1.1,0000*45
1627577994870497982,7604,1627577994870373010,gps_frame,$GPGGA,165954.20,4616.70396098,N,11940.88062920,W,4,5,1.9,323.212,M,-17.562,M,0.2,0000*46
1627577994919907821,7605,1627577994919744968,gps_frame,$GPGGA,165954.25,4616.70400270,N,11940.88056660,W,4,5,1.9,323.177,M,-17.562,M,0.2,0000*43
1627577994968610765,7606,1627577994968487977,gps_frame,$GPGGA,165954.30,4616.70401194,N,11940.88055320,W,4,5,1.9,323.220,M,-17.562,M,0.3,0000*4D
1627577995019893645,7607,1627577995019737958,gps_frame,$GPGGA,165954.35,4616.70403306,N,11940.88042492,W,4,5,1.9,323.235,M,-17.562,M,0.3,0000*4F
1627577995069744557,7608,1627577995069560050,gps_frame,$GPGGA,165954.40,4616.70407251,N,11940.88048981,W,4,5,1.9,323.226,M,-17.562,M,0.4,0000*4A
1627577995119940493,7609,1627577995119776010,gps_frame,$GPGGA,165954.45,4616.70410525,N,11940.88041344,W,4,5,1.9,323.225,M,-17.562,M,0.4,0000*44
1627577995168448358,7610,1627577995168252944,gps_frame,$GPGGA,165954.50,4616.70412206,N,11940.88043953,W,4,5,1.9,323.209,M,-17.562,M,0.5,0000*45
1627577995219966452,7611,1627577995219801902,gps_frame,$GPGGA,165954.55,4616.70414470,N,11940.88034424,W,4,5,1.9,323.198,M,-17.562,M,0.5,0000*47
1627577995270467599,7612,1627577995270324945,gps_frame,$GPGGA,165954.60,4616.70419702,N,11940.88038881,W,4,5,1.9,323.247,M,-17.562,M,0.6,0000*47
1627577995319907322,7613,1627577995319751977,gps_frame,$GPGGA,165954.65,4616.70423846,N,11940.88031357,W,4,5,1.9,323.275,M,-17.562,M,0.6,0000*4C
1627577995369119494,7614,1627577995368988990,gps_frame,$GPGGA,165954.70,4616.70426287,N,11940.88035146,W,4,5,1.9,323.203,M,-17.562,M,0.7,0000*4C
1627577995419921302,7615,1627577995419729948,gps_frame,$GPGGA,165954.75,4616.70429352,N,11940.88024415,W,4,5,1.9,323.167,M,-17.562,M,0.7,0000*4D
1627577995469852480,7616,1627577995469665050,gps_frame,$GPGGA,165954.80,4616.70430814,N,11940.88028894,W,4,5,1.9,323.184,M,-17.562,M,0.8,0000*4D
1627577995519955641,7617,1627577995519776105,gps_frame,$GPGGA,165954.85,4616.70432862,N,11940.88018686,W,4,5,1.9,323.182,M,-17.562,M,0.8,0000*43
1627577995568708601,7618,1627577995568517923,gps_frame,$GPGGA,165954.90,4616.70438742,N,11940.88024821,W,4,5,1.9,323.276,M,-17.562,M,0.9,0000*45
1627577995619969822,7619,1627577995619769096,gps_frame,$GPGGA,165954.95,4616.70443219,N,11940.88018706,W,4,5,1.9,323.335,M,-17.562,M,0.9,0000*44
1627577995677008602,7620,1627577995676743984,gps_frame,$GPGGA,165955.00,4616.70443248,N,11940.88019054,W,4,5,1.9,323.233,M,-17.562,M,1.0,0000*43
1627577995719973160,7621,1627577995719760894,gps_frame,$GPGGA,165955.05,4616.70444906,N,11940.88006059,W,4,5,1.9,323.189,M,-17.562,M,1.0,0000*41
1627577995780020716,7622,1627577995779896974,gps_frame,$GPGGA,165955.10,4616.70450623,N,11940.88014902,W,4,5,1.9,323.278,M,-17.562,M,1.1,0000*40
1627577995819990163,7623,1627577995819760084,gps_frame,$GPGGA,165955.15,4616.70454853,N,11940.88009512,W,4,5,1.9,323.318,M,-17.562,M,1.1,0000*4E
1627577995870489268,7624,1627577995870280981,gps_frame,$GPGGA,165955.20,4616.70458262,N,11940.88010889,W,4,6,1.8,323.359,M,-17.562,M,0.2,0000*4E
1627577995919915499,7625,1627577995919718980,gps_frame,$GPGGA,165955.25,4616.70461972,N,11940.87999578,W,4,6,1.8,323.400,M,-17.562,M,0.2,0000*44
1627577995968697537,7626,1627577995968503952,gps_frame,$GPGGA,165955.30,4616.70464598,N,11940.88005268,W,4,6,1.8,323.235,M,-17.562,M,0.3,0000*49
1627577996019965534,7627,1627577996019767999,gps_frame,$GPGGA,165955.35,4616.70467621,N,11940.87994156,W,4,6,1.8,323.146,M,-17.562,M,0.3,0000*49
1627577996069847820,7628,1627577996069664955,gps_frame,$GPGGA,165955.40,4616.70469787,N,11940.88001630,W,4,6,1.8,323.293,M,-17.562,M,0.4,0000*49
1627577996120184059,7629,1627577996120064020,gps_frame,$GPGGA,165955.45,4616.70472267,N,11940.87993529,W,4,6,1.8,323.354,M,-17.562,M,0.4,0000*41
1627577996168303836,7630,1627577996168104887,gps_frame,$GPGGA,165955.50,4616.70477444,N,11940.87995518,W,4,6,1.8,323.322,M,-17.562,M,0.5,0000*43
1627577996219928308,7631,1627577996219774961,gps_frame,$GPGGA,165955.55,4616.70481633,N,11940.87986627,W,4,6,1.8,323.324,M,-17.562,M,0.5,0000*46
1627577996269748705,7632,1627577996269603967,gps_frame,$GPGGA,165955.60,4616.70481372,N,11940.87989406,W,4,6,1.8,323.256,M,-17.562,M,0.6,0000*49
1627577996319839933,7633,1627577996319704055,gps_frame,$GPGGA,165955.65,4616.70482742,N,11940.87977313,W,4,6,1.8,323.214,M,-17.562,M,0.6,0000*4C
1627577996368766241,7634,1627577996368536949,gps_frame,$GPGGA,165955.70,4616.70488662,N,11940.87983540,W,4,6,1.8,323.233,M,-17.562,M,0.7,0000*4E
1627577996419963611,7635,1627577996419753074,gps_frame,$GPGGA,165955.75,4616.70492915,N,11940.87977621,W,4,6,1.8,323.229,M,-17.562,M,0.7,0000*4B
1627577996469386014,7636,1627577996469285011,gps_frame,$GPGGA,165955.80,4616.70496661,N,11940.87977089,W,4,6,1.8,323.239,M,-17.562,M,0.8,0000*43
1627577996519975708,7637,1627577996519798994,gps_frame,$GPGGA,165955.85,4616.70500592,N,11940.87964493,W,4,6,1.8,323.244,M,-17.562,M,0.8,0000*40
1627577996568439887,7638,1627577996568273067,gps_frame,$GPGGA,165955.90,4616.70499882,N,11940.87974051,W,4,6,1.8,323.249,M,-17.562,M,0.9,0000*4E
1627577996619944803,7639,1627577996619761943,gps_frame,$GPGGA,165955.95,4616.70500872,N,11940.87964423,W,4,6,1.8,323.254,M,-17.562,M,0.9,0000*49
1627577996676068132,7640,1627577996675879001,gps_frame,$GPGGA,165956.00,4616.70508666,N,11940.87966579,W,4,6,1.8,323.158,M,-17.562,M,1.0,0000*4E
1627577996720292470,7641,1627577996720160007,gps_frame,$GPGGA,165956.05,4616.70513969,N,11940.87959960,W,4,6,1.8,323.099,M,-17.562,M,1.0,0000*45
1627577996768403840,7642,1627577996768229961,gps_frame,$GPGGA,165956.10,4616.70512670,N,11940.87964230,W,4,6,1.8,323.214,M,-17.562,M,1.1,0000*41
1627577996819910435,7643,1627577996819739103,gps_frame,$GPGGA,165956.15,4616.70513788,N,11940.87952352,W,4,6,1.8,323.265,M,-17.562,M,1.1,0000*45
1627577996870334118,7644,1627577996870152950,gps_frame,$GPGGA,165956.20,4616.70519210,N,11940.87956755,W,4,5,1.9,323.205,M,-17.562,M,0.2,0000*4C
1627577996919961089,7645,1627577996919800043,gps_frame,$GPGGA,165956.25,4616.70523056,N,11940.87949653,W,4,5,1.9,323.186,M,-17.562,M,0.2,0000*41
1627577996968479234,7646,1627577996968285083,gps_frame,$GPGGA,165956.30,4616.70527931,N,11940.87952533,W,4,5,1.9,323.332,M,-17.562,M,0.3,0000*4A
1627577997020207426,7647,1627577997019901037,gps_frame,$GPGGA,165956.35,4616.70532429,N,11940.87942704,W,4,5,1.9,323.417,M,-17.562,M,0.3,0000*48
1627577997069591338,7648,1627577997069407939,gps_frame,$GPGGA,165956.40,4616.70535210,N,11940.87949194,W,4,5,1.9,323.270,M,-17.562,M,0.4,0000*45
1627577997119976398,7649,1627577997119755983,gps_frame,$GPGGA,165956.45,4616.70538620,N,11940.87937633,W,4,5,1.9,323.208,M,-17.562,M,0.4,0000*46
1627577997168343315,7650,1627577997168140888,gps_frame,$GPGGA,165956.50,4616.70540871,N,11940.87942429,W,4,5,1.9,323.222,M,-17.562,M,0.5,0000*45
1627577997220005023,7651,1627577997219794034,gps_frame,$GPGGA,165956.55,4616.70543547,N,11940.87931160,W,4,5,1.9,323.209,M,-17.562,M,0.5,0000*4E
1627577997270694402,7652,1627577997270450115,gps_frame,$GPGGA,165956.60,4616.70545449,N,11940.87937281,W,4,5,1.9,323.195,M,-17.562,M,0.6,0000*4E
1627577997319957357,7653,1627577997319750070,gps_frame,$GPGGA,165956.65,4616.70547634,N,11940.87929197,W,4,5,1.9,323.182,M,-17.562,M,0.6,0000*4C
1627577997368455720,7654,1627577997368294000,gps_frame,$GPGGA,165956.70,4616.70552071,N,11940.87932519,W,4,5,1.9,323.230,M,-17.562,M,0.7,0000*48
1627577997419944660,7655,1627577997419760942,gps_frame,$GPGGA,165956.75,4616.70555683,N,11940.87925328,W,4,5,1.9,323.255,M,-17.562,M,0.7,0000*40
1627577997469636788,7656,1627577997469468116,gps_frame,$GPGGA,165956.80,4616.70557271,N,11940.87926440,W,4,5,1.9,323.133,M,-17.562,M,0.8,0000*47
1627577997519945110,7657,1627577997519766092,gps_frame,$GPGGA,165956.85,4616.70559601,N,11940.87915342,W,4,5,1.9,323.065,M,-17.562,M,0.8,0000*48
1627577997568407381,7658,1627577997568209886,gps_frame,$GPGGA,165956.90,4616.70564411,N,11940.87920563,W,4,5,1.9,323.145,M,-17.562,M,0.9,0000*40
1627577997619905284,7659,1627577997619731903,gps_frame,$GPGGA,165956.95,4616.70568313,N,11940.87912611,W,4,5,1.9,323.170,M,-17.562,M,0.9,0000*4D
1627577997676412664,7660,1627577997676196098,gps_frame,$GPGGA,165957.00,4616.70569690,N,11940.87916496,W,4,5,1.9,323.208,M,-17.562,M,1.0,0000*42
1627577997719958418,7661,1627577997719760894,gps_frame,$GPGGA,165957.05,4616.70571992,N,11940.87906162,W,4,5,1.9,323.242,M,-17.562,M,1.0,0000*42
1627577997779534658,7662,1627577997779413938,gps_frame,$GPGGA,165957.10,4616.70577282,N,11940.87911918,W,4,5,1.9,323.216,M,-17.562,M,1.1,0000*49
1627577997819892408,7663,1627577997819736003,gps_frame,$GPGGA,165957.15,4616.70581478,N,11940.87904474,W,4,5,1.9,323.212,M,-17.562,M,1.1,0000*41
1627577997870472952,7664,1627577997870264053,gps_frame,$GPGGA,165957.20,4616.70583469,N,11940.87902929,W,4,6,1.9,323.178,M,-17.562,M,0.2,0000*48
1627577997919894562,7665,1627577997919712066,gps_frame,$GPGGA,165957.25,4616.70586267,N,11940.87888714,W,4,6,1.9,323.155,M,-17.562,M,0.2,0000*4C
1627577997968675077,7666,1627577997968481063,gps_frame,$GPGGA,165957.30,4616.70588801,N,11940.87904028,W,4,6,1.9,323.199,M,-17.562,M,0.3,0000*40
1627577998020030764,7667,1627577998019808053,gps_frame,$GPGGA,165957.35,4616.70591431,N,11940.87899966,W,4,6,1.9,323.218,M,-17.562,M,0.3,0000*4E
1627577998069824004,7668,1627577998069673061,gps_frame,$GPGGA,165957.40,4616.70596204,N,11940.87897544,W,4,6,1.9,323.107,M,-17.562,M,0.4,0000*43
1627577998119947012,7669,1627577998119729995,gps_frame,$GPGGA,165957.45,4616.70600193,N,11940.87887138,W,4,6,1.9,323.044,M,-17.562,M,0.4,0000*4F
1627577998168345384,7670,1627577998168160915,gps_frame,$GPGGA,165957.50,4616.70603932,N,11940.87893042,W,4,6,1.9,323.194,M,-17.562,M,0.5,0000*4F
1627577998219900643,7671,1627577998219722032,gps_frame,$GPGGA,165957.55,4616.70607763,N,11940.87882725,W,4,6,1.9,323.267,M,-17.562,M,0.5,0000*4D
1627577998269730684,7672,1627577998269556045,gps_frame,$GPGGA,165957.60,4616.70608210,N,11940.87889162,W,4,6,1.9,323.111,M,-17.562,M,0.6,0000*4A
1627577998319854341,7673,1627577998319678068,gps_frame,$GPGGA,165957.65,4616.70609896,N,11940.87878764,W,4,6,1.9,323.039,M,-17.562,M,0.6,0000*4F
1627577998368586811,7674,1627577998368403911,gps_frame,$GPGGA,165957.70,4616.70612519,N,11940.87887349,W,4,6,1.9,323.127,M,-17.562,M,0.7,0000*4F
1627577998419957537,7675,1627577998419795989,gps_frame,$GPGGA,165957.75,4616.70614798,N,11940.87883063,W,4,6,1.9,323.157,M,-17.562,M,0.7,0000*4F
1627577998469653862,7676,1627577998469465970,gps_frame,$GPGGA,165957.80,4616.70621777,N,11940.87877270,W,4,6,1.9,323.138,M,-17.562,M,0.8,0000*4F
1627577998519876178,7677,1627577998519727945,gps_frame,$GPGGA,165957.85,4616.70627036,N,11940.87866063,W,4,6,1.9,323.137,M,-17.562,M,0.8,0000*41
1627577998568378477,7678,1627577998568142890,gps_frame,$GPGGA,165957.90,4616.70627646,N,11940.87871694,W,4,6,1.9,323.228,M,-17.562,M,0.9,0000*40
1627577998619929817,7679,1627577998619745969,gps_frame,$GPGGA,165957.95,4616.70629958,N,11940.87858342,W,4,6,1.9,323.285,M,-17.562,M,0.9,0000*49
1627577998675512583,7680,1627577998675236940,gps_frame,$GPGGA,165958.00,4616.70631691,N,11940.87873246,W,4,6,1.9,323.134,M,-17.562,M,1.0,0000*44
1627577998720494725,7681,1627577998720238924,gps_frame,$GPGGA,165958.05,4616.70633637,N,11940.87869679,W,4,6,1.9,323.059,M,-17.562,M,1.0,0000*46
1627577998768374208,7682,1627577998768234968,gps_frame,$GPGGA,165958.10,4616.70640587,N,11940.87862446,W,4,6,1.9,323.149,M,-17.562,M,1.1,0000*4A
1627577998820006273,7683,1627577998819787025,gps_frame,$GPGGA,165958.15,4616.70645704,N,11940.87850953,W,4,6,1.9,323.178,M,-17.562,M,1.1,0000*49
1627577998870312971,7684,1627577998870120048,gps_frame,$GPGGA,165958.20,4616.70646206,N,11940.87860711,W,4,5,1.9,323.161,M,-17.562,M,0.2,0000*49
1627577998919972288,7685,1627577998919756889,gps_frame,$GPGGA,165958.25,4616.70648399,N,11940.87850373,W,4,5,1.9,323.162,M,-17.562,M,0.2,0000*45
1627577998968411466,7686,1627577998968200922,gps_frame,$GPGGA,165958.30,4616.70651384,N,11940.87857795,W,4,5,1.9,323.205,M,-17.562,M,0.3,0000*4D
1627577999019927705,7687,1627577999019747018,gps_frame,$GPGGA,165958.35,4616.70654079,N,11940.87850935,W,4,5,1.9,323.232,M,-17.562,M,0.3,0000*4B
1627577999070082815,7688,1627577999069897890,gps_frame,$GPGGA,165958.40,4616.70655960,N,11940.87852479,W,4,5,1.9,323.135,M,-17.562,M,0.4,0000*4D
1627577999119919205,7689,1627577999119730949,gps_frame,$GPGGA,165958.45,4616.70658139,N,11940.87843777,W,4,5,1.9,323.084,M,-17.562,M,0.4,0000*47
1627577999168146790,7690,1627577999167989015,gps_frame,$GPGGA,165958.50,4616.70661933,N,11940.87847944,W,4,5,1.9,323.100,M,-17.562,M,0.5,0000*4D
1627577999219930233,7691,1627577999219795942,gps_frame,$GPGGA,165958.55,4616.70665136,N,11940.87841065,W,4,5,1.9,323.091,M,-17.562,M,0.5,0000*44
1627577999270281799,7692,1627577999270101070,gps_frame,$GPGGA,165958.60,4616.70670722,N,11940.87840082,W,4,5,1.9,323.168,M,-17.562,M,0.6,0000*49
1627577999319915849,7693,1627577999319724082,gps_frame,$GPGGA,165958.65,4616.70675436,N,11940.87828670,W,4,5,1.9,323.214,M,-17.562,M,0.6,0000*42
1627577999368350165,7694,1627577999368248939,gps_frame,$GPGGA,165958.70,4616.70669972,N,11940.87837129,W,4,5,1.9,323.076,M,-17.562,M,0.7,0000*44
1627577999419924013,7695,1627577999419750928,gps_frame,$GPGGA,165958.75,4616.70668235,N,11940.87826144,W,4,5,1.9,323.006,M,-17.562,M,0.7,0000*44
1627577999469427634,7696,1627577999469249010,gps_frame,$GPGGA,165958.80,4616.70678355,N,11940.87830845,W,4,5,1.9,323.113,M,-17.562,M,0.8,0000*4D
1627577999519922750,7697,1627577999519776105,gps_frame,$GPGGA,165958.85,4616.70684133,N,11940.87830844,W,4,5,1.9,323.155,M,-17.562,M,0.8,0000*4A
1627577999568180790,7698,1627577999568042039,gps_frame,$GPGGA,165958.90,4616.70683026,N,11940.87826585,W,4,5,1.9,323.027,M,-17.562,M,0.9,0000*4E
1627577999619854587,7699,1627577999619713068,gps_frame,$GPGGA,165958.95,4616.70684441,N,11940.87812277,W,4,5,1.9,322.962,M,-17.562,M,0.9,0000*4D
1627577999675731445,7700,1627577999675420999,gps_frame,$GPGGA,165959.00,4616.70690066,N,11940.87824391,W,4,5,1.9,323.061,M,-17.562,M,1.0,0000*4B
1627577999720542803,7701,1627577999720251083,gps_frame,$GPGGA,165959.05,4616.70694149,N,11940.87820364,W,4,5,1.9,323.101,M,-17.562,M,1.0,0000*4F
1627577999768380997,7702,1627577999768208026,gps_frame,$GPGGA,165959.10,4616.70695863,N,11940.87818927,W,4,5,1.9,323.076,M,-17.562,M,1.1,0000*4D
1627577999819935014,7703,1627577999819746017,gps_frame,$GPGGA,165959.15,4616.70698445,N,11940.87806794,W,4,5,1.9,323.075,M,-17.562,M,1.1,0000*47
1627577999870736981,7704,1627577999870373964,gps_frame,$GPGGA,165959.20,4616.70700378,N,11940.87815784,W,4,5,1.9,323.134,M,-17.562,M,0.2,0000*4D
1627577999919852054,7705,1627577999919707059,gps_frame,$GPGGA,165959.25,4616.70702549,N,11940.87809015,W,4,5,1.9,323.172,M,-17.562,M,0.2,0000*4E
1627577999968320796,7706,1627577999968197107,gps_frame,$GPGGA,165959.30,4616.70706334,N,11940.87809431,W,4,5,1.9,323.070,M,-17.562,M,0.3,0000*42
1627578000019975404,7707,1627578000019763946,gps_frame,$GPGGA,165959.35,4616.70709528,N,11940.87800964,W,4,5,1.9,323.018,M,-17.562,M,0.3,0000*49
1627578000069621924,7708,1627578000069448947,gps_frame,$GPGGA,165959.40,4616.70710564,N,11940.87804943,W,4,5,1.9,323.079,M,-17.562,M,0.4,0000*4A
1627578000119930852,7709,1627578000119776010,gps_frame,$GPGGA,165959.45,4616.70712390,N,11940.87796120,W,4,5,1.9,323.099,M,-17.562,M,0.4,0000*47
1627578000168234119,7710,1627578000168061017,gps_frame,$GPGGA,165959.50,4616.70717898,N,11940.87801505,W,4,5,1.9,323.078,M,-17.562,M,0.5,0000*49
1627578000219945618,7711,1627578000219819068,gps_frame,$GPGGA,165959.55,4616.70722058,N,11940.87795830,W,4,5,1.9,323.072,M,-17.562,M,0.5,0000*4D
1627578000269719686,7712,1627578000269506931,gps_frame,$GPGGA,165959.60,4616.70722690,N,11940.87798169,W,4,5,1.9,323.095,M,-17.562,M,0.6,0000*4B
1627578000319921629,7713,1627578000319749116,gps_frame,$GPGGA,165959.65,4616.70724614,N,11940.87787419,W,4,5,1.9,323.108,M,-17.562,M,0.6,0000*4D
1627578000368489864,7714,1627578000368284940,gps_frame,$GPGGA,165959.70,4616.70728802,N,11940.87794535,W,4,5,1.9,323.096,M,-17.562,M,0.7,0000*46
1627578000419917347,7715,1627578000419732093,gps_frame,$GPGGA,165959.75,4616.70732160,N,11940.87788475,W,4,5,1.9,323.094,M,-17.562,M,0.7,0000*4F
1627578000470021895,7716,1627578000469825029,gps_frame,$GPGGA,165959.80,4616.70734862,N,11940.87789828,W,4,5,1.9,323.088,M,-17.562,M,0.8,0000*4F
1627578000519930959,7717,1627578000519753932,gps_frame,$GPGGA,165959.85,4616.70737804,N,11940.87780005,W,4,5,1.9,323.083,M,-17.562,M,0.8,0000*4C
1627578000568313232,7718,1627578000568095922,gps_frame,$GPGGA,165959.90,4616.70740128,N,11940.87785398,W,4,5,1.9,323.102,M,-17.562,M,0.9,0000*44
1627578000619977242,7719,1627578000619811058,gps_frame,$GPGGA,165959.95,4616.70742678,N,11940.87776830,W,4,5,1.9,323.113,M,-17.562,M,0.9,0000*44
1627578000675479172,7720,1627578000675292968,gps_frame,$GPGGA,170000.00,4616.70744749,N,11940.87782811,W,4,5,1.9,323.074,M,-17.562,M,1.0,0000*4C
1627578000720360984,7721,1627578000720181941,gps_frame,$GPGGA,170000.05,4616.70746996,N,11940.87776175,W,4,5,1.9,323.054,M,-17.562,M,1.0,0000*45
1627578000779058952,7722,1627578000778939962,gps_frame,$GPGGA,170000.10,4616.70750109,N,11940.87777290,W,4,5,1.9,323.010,M,-17.562,M,1.1,0000*40
1627578000819896936,7723,1627578000819731950,gps_frame,$GPGGA,170000.15,4616.70752906,N,11940.87769168,W,4,5,1.9,322.975,M,-17.562,M,1.1,0000*40
1627578000871311216,7724,1627578000871117115,gps_frame,$GPGGA,170000.20,4616.70756254,N,11940.87774887,W,4,5,1.9,323.052,M,-17.562,M,0.2,0000*45
1627578000919858882,7725,1627578000919718980,gps_frame,$GPGGA,170000.25,4616.70759399,N,11940.87768118,W,4,5,1.9,323.088,M,-17.562,M,0.2,0000*4A
1627578000968479600,7726,1627578000968331098,gps_frame,$GPGGA,170000.30,4616.70760123,N,11940.87770573,W,4,5,1.9,323.025,M,-17.562,M,0.3,0000*41
1627578001019904685,7727,1627578001019752025,gps_frame,$GPGGA,170000.35,4616.70761734,N,11940.87761144,W,4,5,1.9,322.998,M,-17.562,M,0.3,0000*4B
1627578001069460866,7728,1627578001069291114,gps_frame,$GPGGA,170000.40,4616.70767436,N,11940.87766401,W,4,5,1.9,323.003,M,-17.562,M,0.4,0000*40
1627578001119815871,7729,1627578001119700908,gps_frame,$GPGGA,170000.45,4616.70771639,N,11940.87760925,W,4,5,1.9,322.996,M,-17.562,M,0.4,0000*46
1627578001168290112,7730,1627578001168112993,gps_frame,$GPGGA,170000.50,4616.70773020,N,11940.87761744,W,4,5,1.9,323.074,M,-17.561,M,0.5,0000*40
1627578001219865283,7731,1627578001219695091,gps_frame,$GPGGA,170000.55,4616.70775435,N,11940.87750133,W,4,5,1.9,323.120,M,-17.561,M,0.5,0000*47
1627578001270220647,7732,1627578001270082950,gps_frame,$GPGGA,170000.60,4616.70777526,N,11940.87758232,W,4,5,1.9,323.024,M,-17.561,M,0.6,0000*4C
1627578001319882564,7733,1627578001319708108,gps_frame,$GPGGA,170000.65,4616.70779736,N,11940.87751383,W,4,5,1.9,322.979,M,-17.561,M,0.6,0000*46
1627578001368645484,7734,1627578001368377923,gps_frame,$GPGGA,170000.70,4616.70784753,N,11940.87755162,W,4,5,1.9,323.097,M,-17.561,M,0.7,0000*43
1627578001419871368,7735,1627578001419699907,gps_frame,$GPGGA,170000.75,4616.70788742,N,11940.87748812,W,4,5,1.9,323.155,M,-17.561,M,0.7,0000*47
1627578001469361184,7736,1627578001469203948,gps_frame,$GPGGA,170000.80,4616.70791060,N,11940.87748688,W,4,5,1.9,323.086,M,-17.561,M,0.8,0000*4F
1627578001519919690,7737,1627578001519747972,gps_frame,$GPGGA,170000.85,4616.70793991,N,11940.87736278,W,4,5,1.9,323.064,M,-17.561,M,0.8,0000*41
1627578001568359415,7738,1627578001568212985,gps_frame,$GPGGA,170000.90,4616.70795272,N,11940.87746671,W,4,5,1.9,323.106,M,-17.561,M,0.9,0000*4B
1627578001619890793,7739,1627578001619714975,gps_frame,$GPGGA,170000.95,4616.70797158,N,11940.87739983,W,4,5,1.9,323.125,M,-17.561,M,0.9,0000*4C
1627578001676031290,7740,1627578001675806045,gps_frame,$GPGGA,170001.00,4616.70799918,N,11940.87737784,W,4,5,1.9,322.992,M,-17.561,M,1.0,0000*49
1627578001720391892,7741,1627578001720227003,gps_frame,$GPGGA,170001.05,4616.70802359,N,11940.87728110,W,4,5,1.9,322.914,M,-17.561,M,1.0,0000*45
1627578001779142054,7742,1627578001779026031,gps_frame,$GPGGA,170001.10,4616.70806402,N,11940.87733544,W,4,5,1.9,322.981,M,-17.561,M,1.1,0000*4E
1627578001819869132,7743,1627578001819719076,gps_frame,$GPGGA,170001.15,4616.70809857,N,11940.87727014,W,4,5,1.9,322.995,M,-17.561,M,1.1,0000*48
1627578001870269138,7744,1627578001870148897,gps_frame,$GPGGA,170001.20,4616.70811413,N,11940.87729245,W,4,5,1.9,323.029,M,-17.561,M,0.2,0000*4E
1627578001919944973,7745,1627578001919732093,gps_frame,$GPGGA,170001.25,4616.70813664,N,11940.87719292,W,4,5,1.9,323.055,M,-17.561,M,0.2,0000*49
1627578001968486436,7746,1627578001968364953,gps_frame,$GPGGA,170001.30,4616.70816707,N,11940.87724899,W,4,5,1.9,322.979,M,-17.561,M,0.3,0000*44
1627578002020023741,7747,1627578002019815921,gps_frame,$GPGGA,170001.35,4616.70819461,N,11940.87717873,W,4,5,1.9,322.940,M,-17.561,M,0.3,0000*43
1627578002069808101,7748,1627578002069566965,gps_frame,$GPGGA,170001.40,4616.70822135,N,11940.87721353,W,4,5,1.9,323.019,M,-17.561,M,0.4,0000*42
1627578002119900734,7749,1627578002119721889,gps_frame,$GPGGA,170001.45,4616.70824838,N,11940.87713657,W,4,5,1.9,323.055,M,-17.561,M,0.4,0000*4D
1627578002168264282,7750,1627578002168085098,gps_frame,$GPGGA,170001.50,4616.70828741,N,11940.87715184,W,4,5,1.9,323.049,M,-17.561,M,0.5,0000*47
1627578002219905433,7751,1627578002219724893,gps_frame,$GPGGA,170001.55,4616.70832204,N,11940.87705819,W,4,5,1.9,323.058,M,-17.561,M,0.5,0000*41
1627578002269598912,7752,1627578002269428968,gps_frame,$GPGGA,170001.60,4616.70834279,N,11940.87710788,W,4,5,1.9,322.940,M,-17.561,M,0.6,0000*4A
1627578002319897195,7753,1627578002319706916,gps_frame,$GPGGA,170001.65,4616.70836863,N,11940.87701363,W,4,5,1.9,322.869,M,-17.561,M,0.6,0000*47
1627578002368532049,7754,1627578002368336915,gps_frame,$GPGGA,170001.70,4616.70839923,N,11940.87706993,W,4,5,1.9,323.091,M,-17.561,M,0.7,0000*44
1627578002419903465,7755,1627578002419720888,gps_frame,$GPGGA,170001.75,4616.70842808,N,11940.87699442,W,4,5,1.9,323.206,M,-17.561,M,0.7,0000*4F
1627578002469444014,7756,1627578002469284057,gps_frame,$GPGGA,170001.80,4616.70847294,N,11940.87701792,W,4,5,1.9,323.057,M,-17.561,M,0.8,0000*48
1627578002519924471,7757,1627578002519771099,gps_frame,$GPGGA,170001.85,4616.70851194,N,11940.87692703,W,4,5,1.9,323.005,M,-17.561,M,0.8,0000*4D
1627578002568471743,7758,1627578002568190097,gps_frame,$GPGGA,170001.90,4616.70852334,N,11940.87697209,W,4,5,1.9,323.034,M,-17.561,M,0.9,0000*4B
1627578002619879785,7759,1627578002619697093,gps_frame,$GPGGA,170001.95,4616.70854484,N,11940.87686532,W,4,5,1.9,323.032,M,-17.561,M,0.9,0000*4D
1627578002675490671,7760,1627578002675312042,gps_frame,$GPGGA,170002.00,4616.70857611,N,11940.87690837,W,4,5,1.9,322.969,M,-17.561,M,1.0,0000*4E
1627578002720351164,7761,1627578002720199108,gps_frame,$GPGGA,170002.05,4616.70860380,N,11940.87682680,W,4,5,1.9,322.928,M,-17.561,M,1.0,0000*46
1627578002768396435,7762,1627578002768234014,gps_frame,$GPGGA,170002.10,4616.70863729,N,11940.87686665,W,4,5,1.9,323.011,M,-17.561,M,1.1,0000*4A
1627578002819917509,7763,1627578002819735050,gps_frame,$GPGGA,170002.15,4616.70866866,N,11940.87678898,W,4,5,1.9,323.048,M,-17.561,M,1.1,0000*4F
1627578002870394035,7764,1627578002870150089,gps_frame,$GPGGA,170002.20,4616.70869193,N,11940.87680754,W,4,5,1.9,322.971,M,-17.561,M,0.2,0000*4D
1627578002919832465,7765,1627578002919728040,gps_frame,$GPGGA,170002.25,4616.70871817,N,11940.87670616,W,4,5,1.9,322.936,M,-17.561,M,0.2,0000*4F
1627578002968450026,7766,1627578002968277931,gps_frame,$GPGGA,170002.30,4616.70875103,N,11940.87675435,W,4,5,1.9,322.958,M,-17.561,M,0.3,0000*4C
1627578003019992103,7767,1627578003019810914,gps_frame,$GPGGA,170002.35,4616.70878147,N,11940.87667214,W,4,5,1.9,322.958,M,-17.561,M,0.3,0000*42
1627578003069315507,7768,1627578003069135904,gps_frame,$GPGGA,170002.40,4616.70879124,N,11940.87673003,W,4,5,1.9,322.977,M,-17.561,M,0.4,0000*4F
1627578003119834861,7769,1627578003119688987,gps_frame,$GPGGA,170002.45,4616.70880859,N,11940.87665480,W,4,5,1.9,322.988,M,-17.561,M,0.4,0000*47
1627578003168289862,7770,1627578003168109893,gps_frame,$GPGGA,170002.50,4616.70887111,N,11940.87665756,W,4,5,1.9,322.979,M,-17.561,M,0.5,0000*46
1627578003219951443,7771,1627578003219746112,gps_frame,$GPGGA,170002.55,4616.70891709,N,11940.87657609,W,4,5,1.9,322.977,M,-17.561,M,0.5,0000*4F
1627578003270268421,7772,1627578003270077943,gps_frame,$GPGGA,170002.60,4616.70892374,N,11940.87660110,W,4,5,1.9,322.958,M,-17.561,M,0.6,0000*41
1627578003319935148,7773,1627578003319763898,gps_frame,$GPGGA,170002.65,4616.70894479,N,11940.87647656,W,4,5,1.9,322.946,M,-17.561,M,0.6,0000*47
1627578003368267384,7774,1627578003368122100,gps_frame,$GPGGA,170002.70,4616.70899060,N,11940.87653728,W,4,5,1.9,322.981,M,-17.561,M,0.7,0000*45
1627578003420001417,7775,1627578003419800996,gps_frame,$GPGGA,170002.75,4616.70902735,N,11940.87645730,W,4,5,1.9,322.998,M,-17.561,M,0.7,0000*42
1627578003470010835,7776,1627578003469836950,gps_frame,$GPGGA,170002.80,4616.70903391,N,11940.87651864,W,4,5,1.9,322.982,M,-17.561,M,0.8,0000*4C
1627578003520013556,7777,1627578003519840002,gps_frame,$GPGGA,170002.85,4616.70905153,N,11940.87643567,W,4,5,1.9,322.978,M,-17.561,M,0.8,0000*4B
1627578003568058826,7778,1627578003567934989,gps_frame,$GPGGA,170002.90,4616.70911106,N,11940.87647521,W,4,5,1.9,322.943,M,-17.561,M,0.9,0000*45
1627578003619847430,7779,1627578003619693994,gps_frame,$GPGGA,170002.95,4616.70915524,N,11940.87640992,W,4,5,1.9,322.920,M,-17.561,M,0.9,0000*46
1627578003675420055,7780,1627578003675216913,gps_frame,$GPGGA,170003.00,4616.70917488,N,11940.87639370,W,4,5,1.9,322.886,M,-17.561,M,1.0,0000*43
1627578003720419154,7781,1627578003720226049,gps_frame,$GPGGA,170003.05,4616.70920351,N,11940.87625270,W,4,5,1.9,322.855,M,-17.561,M,1.0,0000*43
1627578003768301589,7782,1627578003768163919,gps_frame,$GPGGA,170003.10,4616.70922653,N,11940.87635444,W,4,5,1.9,322.954,M,-17.561,M,1.1,0000*43
1627578003819899775,7783,1627578003819750070,gps_frame,$GPGGA,170003.15,4616.70925160,N,11940.87627895,W,4,5,1.9,323.006,M,-17.561,M,1.1,0000*4A
1627578003870201038,7784,1627578003870031118,gps_frame,$GPGGA,170003.20,4616.70929816,N,11940.87628679,W,4,5,1.9,322.946,M,-17.561,M,0.2,0000*45
1627578003919840529,7785,1627578003919706106,gps_frame,$GPGGA,170003.25,4616.70933685,N,11940.87619260,W,4,5,1.9,322.927,M,-17.561,M,0.2,0000*46
1627578003968321068,7786,1627578003968144893,gps_frame,$GPGGA,170003.30,4616.70931746,N,11940.87624201,W,4,5,1.9,322.900,M,-17.561,M,0.3,0000*43
1627578004019946239,7787,1627578004019778013,gps_frame,$GPGGA,170003.35,4616.70931934,N,11940.87613969,W,4,5,1.9,322.876,M,-17.561,M,0.3,0000*4C
1627578004069466716,7788,1627578004069338083,gps_frame,$GPGGA,170003.40,4616.70938812,N,11940.87620345,W,4,5,1.9,322.972,M,-17.561,M,0.4,0000*44
1627578004119860330,7789,1627578004119700908,gps_frame,$GPGGA,170003.45,4616.70943240,N,11940.87617969,W,4,5,1.9,323.024,M,-17.561,M,0.4,0000*4B
1627578004168237191,7790,1627578004168075084,gps_frame,$GPGGA,170003.50,4616.70942359,N,11940.87611685,W,4,5,1.9,322.843,M,-17.561,M,0.5,0000*45
1627578004219849927,7791,1627578004219721078,gps_frame,$GPGGA,170003.55,4616.70943424,N,11940.87597047,W,4,5,1.9,322.748,M,-17.561,M,0.5,0000*4D
1627578004269458084,7792,1627578004269283056,gps_frame,$GPGGA,170003.60,4616.70952652,N,11940.87609537,W,4,5,1.9,322.953,M,-17.561,M,0.6,0000*49
1627578004319883401,7793,1627578004319734096,gps_frame,$GPGGA,170003.65,4616.70958890,N,11940.87607186,W,4,5,1.9,323.047,M,-17.561,M,0.6,0000*4B
1627578004368288685,7794,1627578004368160963,gps_frame,$GPGGA,170003.70,4616.70957794,N,11940.87604067,W,4,5,1.9,322.983,M,-17.561,M,0.7,0000*47
1627578004419995599,7795,1627578004419809103,gps_frame,$GPGGA,170003.75,4616.70959384,N,11940.87586978,W,4,5,1.9,322.976,M,-17.561,M,0.7,0000*4D
1627578004469346976,7796,1627578004469150066,gps_frame,$GPGGA,170003.80,4616.70964319,N,11940.87598216,W,4,5,1.9,322.959,M,-17.561,M,0.8,0000*43
1627578004519899850,7797,1627578004519752979,gps_frame,$GPGGA,170003.85,4616.70968029,N,11940.87591965,W,4,5,1.9,322.945,M,-17.561,M,0.8,0000*41
1627578004568238223,7798,1627578004568078994,gps_frame,$GPGGA,170003.90,4616.70974083,N,11940.87591496,W,4,5,1.9,322.962,M,-17.561,M,0.9,0000*4D
1627578004619870787,7799,1627578004619749069,gps_frame,$GPGGA,170003.95,4616.70979278,N,11940.87579875,W,4,5,1.9,322.968,M,-17.561,M,0.9,0000*4E
1627578004675209523,7800,1627578004675070047,gps_frame,$GPGGA,170004.00,4616.70977220,N,11940.87587510,W,4,5,1.9,322.895,M,-17.561,M,1.0,0000*42
1627578004720410148,7801,1627578004720232009,gps_frame,$GPGGA,170004.05,4616.70977819,N,11940.87574578,W,4,5,1.9,322.851,M,-17.561,M,1.0,0000*4D
1627578004768110099,7802,1627578004767987012,gps_frame,$GPGGA,170004.10,4616.70985347,N,11940.87581187,W,4,5,1.9,322.871,M,-17.561,M,1.1,0000*49
1627578004819914141,7803,1627578004819785118,gps_frame,$GPGGA,170004.15,4616.70990337,N,11940.87576298,W,4,5,1.9,322.868,M,-17.561,M,1.1,0000*42
1627578004870204531,7804,1627578004869992971,gps_frame,$GPGGA,170004.20,4616.70990985,N,11940.87575916,W,4,4,2.3,322.959,M,-17.561,M,0.2,0000*40
1627578004919942266,7805,1627578004919775009,gps_frame,$GPGGA,170004.25,4616.70993223,N,11940.87562633,W,4,4,2.3,323.016,M,-17.561,M,0.2,0000*4C
1627578004968206253,7806,1627578004968039989,gps_frame,$GPGGA,170004.30,4616.70996594,N,11940.87569693,W,4,4,2.3,322.850,M,-17.561,M,0.3,0000*4D
1627578005019975206,7807,1627578005019789934,gps_frame,$GPGGA,170004.35,4616.70999552,N,11940.87561499,W,4,4,2.3,322.766,M,-17.561,M,0.3,0000*47
1627578005069908419,7808,1627578005069734096,gps_frame,$GPGGA,170004.40,4616.71004127,N,11940.87562929,W,4,4,2.3,322.880,M,-17.561,M,0.4,0000*4A
1627578005119890944,7809,1627578005119724988,gps_frame,$GPGGA,170004.45,4616.71008109,N,11940.87553070,W,4,4,2.3,322.922,M,-17.561,M,0.4,0000*41
1627578005167884678,7810,1627578005167725086,gps_frame,$GPGGA,170004.50,4616.71010231,N,11940.87559151,W,4,4,2.3,322.882,M,-17.561,M,0.5,0000*46
1627578005219856228,7811,1627578005219707012,gps_frame,$GPGGA,170004.55,4616.71013034,N,11940.87548965,W,4,4,2.3,322.873,M,-17.561,M,0.5,0000*46
1627578005270167952,7812,1627578005270000934,gps_frame,$GPGGA,170004.60,4616.71014824,N,11940.87553805,W,4,4,2.3,322.853,M,-17.561,M,0.6,0000*42
1627578005319907632,7813,1627578005319752931,gps_frame,$GPGGA,170004.65,4616.71016984,N,11940.87544693,W,4,4,2.3,322.837,M,-17.561,M,0.6,0000*4B
1627578005368282508,7814,1627578005368154048,gps_frame,$GPGGA,170004.70,4616.71026972,N,11940.87545770,W,4,4,2.3,322.910,M,-17.561,M,0.7,0000*4D
1627578005419896426,7815,1627578005419712066,gps_frame,$GPGGA,170004.75,4616.71034093,N,11940.87536758,W,4,4,2.3,322.951,M,-17.561,M,0.7,0000*46
1627578005469685309,7816,1627578005469387054,gps_frame,$GPGGA,170004.80,4616.71026588,N,11940.87542935,W,4,4,2.3,322.865,M,-17.561,M,0.8,0000*4F
1627578005519944186,7817,1627578005519762992,gps_frame,$GPGGA,170004.85,4616.71024441,N,11940.87526731,W,4,4,2.3,322.825,M,-17.561,M,0.8,0000*40
1627578005568084835,7818,1627578005567936897,gps_frame,$GPGGA,170004.90,4616.71035436,N,11940.87535404,W,4,4,2.3,322.809,M,-17.561,M,0.9,0000*4C
1627578005619969128,7819,1627578005619776964,gps_frame,$GPGGA,170004.95,4616.71041617,N,11940.87535500,W,4,4,2.3,322.784,M,-17.561,M,0.9,0000*44
1627578005675496943,7820,1627578005675204038,gps_frame,$GPGGA,170005.00,4616.71040042,N,11940.87528909,W,4,4,2.3,322.878,M,-17.561,M,1.0,0000*43
1627578005720320377,7821,1627578005720172882,gps_frame,$GPGGA,170005.05,4616.71041308,N,11940.87512517,W,4,4,2.3,322.928,M,-17.561,M,1.0,0000*44
1627578005768278759,7822,1627578005768088102,gps_frame,$GPGGA,170005.10,4616.71047600,N,11940.87524794,W,4,4,2.3,322.830,M,-17.561,M,1.1,0000*4E
1627578005819905135,7823,1627578005819715023,gps_frame,$GPGGA,170005.15,4616.71052052,N,11940.87520197,W,4,4,2.3,322.786,M,-17.561,M,1.1,0000*4D
1627578005870102880,7824,1627578005869959115,gps_frame,$GPGGA,170005.20,4616.71052779,N,11940.87520601,W,4,4,2.3,322.839,M,-17.561,M,0.2,0000*44
1627578005919974791,7825,1627578005919761896,gps_frame,$GPGGA,170005.25,4616.71054870,N,11940.87508711,W,4,4,2.3,322.856,M,-17.561,M,0.2,0000*42
1627578005968264140,7826,1627578005968130111,gps_frame,$GPGGA,170005.30,4616.71058332,N,11940.87514502,W,4,4,2.3,322.800,M,-17.561,M,0.3,0000*48
1627578006019908388,7827,1627578006019758939,gps_frame,$GPGGA,170005.35,4616.71061292,N,11940.87506649,W,4,4,2.3,322.771,M,-17.561,M,0.3,0000*4A
1627578006069419623,7828,1627578006069278955,gps_frame,$GPGGA,170005.40,4616.71066262,N,11940.87508855,W,4,4,2.3,322.861,M,-17.561,M,0.4,0000*44
1627578006119811256,7829,1627578006119688987,gps_frame,$GPGGA,170005.45,4616.71070495,N,11940.87499689,W,4,4,2.3,322.908,M,-17.561,M,0.4,0000*40
1627578006168298905,7830,1627578006167994976,gps_frame,$GPGGA,170005.50,4616.71070390,N,11940.87503544,W,4,4,2.3,322.885,M,-17.561,M,0.5,0000*43
1627578006219860320,7831,1627578006219707012,gps_frame,$GPGGA,170005.55,4616.71071874,N,11940.87491652,W,4,4,2.3,322.888,M,-17.561,M,0.5,0000*45
1627578006269393712,7832,1627578006269226074,gps_frame,$GPGGA,170005.60,4616.71080862,N,11940.87496465,W,4,4,2.3,322.803,M,-17.561,M,0.6,0000*4B
1627578006319876920,7833,1627578006319725036,gps_frame,$GPGGA,170005.65,4616.71087103,N,11940.87489446,W,4,4,2.3,322.750,M,-17.561,M,0.6,0000*41
1627578006368281058,7834,1627578006368081092,gps_frame,$GPGGA,170005.70,4616.71082451,N,11940.87492528,W,4,4,2.3,322.794,M,-17.561,M,0.7,0000*48
1627578006419940058,7835,1627578006419699907,gps_frame,$GPGGA,170005.75,4616.71081788,N,11940.87477413,W,4,4,2.3,322.802,M,-17.561,M,0.7,0000*4B
1627578006469386979,7836,1627578006469212055,gps_frame,$GPGGA,170005.80,4616.71092149,N,11940.87488037,W,4,4,2.3,322.854,M,-17.561,M,0.8,0000*46
1627578006519894429,7837,1627578006519742012,gps_frame,$GPGGA,170005.85,4616.71098472,N,11940.87487038,W,4,4,2.3,322.890,M,-17.561,M,0.8,0000*4C
1627578006568187415,7838,1627578006567960977,gps_frame,$GPGGA,170005.90,4616.71097394,N,11940.87480919,W,4,4,2.3,322.837,M,-17.561,M,0.9,0000*49
1627578006619852664,7839,1627578006619695901,gps_frame,$GPGGA,170005.95,4616.71099027,N,11940.87463247,W,4,4,2.3,322.817,M,-17.561,M,0.9,0000*46
1627578006675625827,7840,1627578006675414085,gps_frame,$GPGGA,170006.00,4616.71103003,N,11940.87479131,W,4,4,2.3,322.818,M,-17.561,M,1.0,0000*43
1627578006720582508,7841,1627578006720422029,gps_frame,$GPGGA,170006.05,4616.71106120,N,11940.87475468,W,4,4,2.3,322.811,M,-17.561,M,1.0,0000*4F
1627578006768342017,7842,1627578006768121957,gps_frame,$GPGGA,170006.10,4616.71109205,N,11940.87471696,W,4,4,2.3,322.850,M,-17.561,M,1.1,0000*43
1627578006819889456,7843,1627578006819772958,gps_frame,$GPGGA,170006.15,4616.71112301,N,11940.87460198,W,4,4,2.3,322.873,M,-17.561,M,1.1,0000*41
1627578006870110282,7844,1627578006869955062,gps_frame,$GPGGA,170006.20,4616.71114883,N,11940.87465264,W,4,4,2.3,322.838,M,-17.561,M,0.2,0000*48
1627578006919901169,7845,1627578006919744014,gps_frame,$GPGGA,170006.25,4616.71117654,N,11940.87455679,W,4,4,2.3,322.824,M,-17.561,M,0.2,0000*4C
1627578006968443252,7846,1627578006968168020,gps_frame,$GPGGA,170006.30,4616.71121631,N,11940.87458967,W,4,4,2.3,322.744,M,-17.561,M,0.3,0000*4B
1627578007019935238,7847,1627578007019747018,gps_frame,$GPGGA,170006.35,4616.71125168,N,11940.87449680,W,4,4,2.3,322.688,M,-17.561,M,0.3,0000*46
1627578007069286279,7848,1627578007069118022,gps_frame,$GPGGA,170006.40,4616.71126783,N,11940.87457288,W,4,4,2.3,322.833,M,-17.561,M,0.4,0000*4E
1627578007119896710,7849,1627578007119739055,gps_frame,$GPGGA,170006.45,4616.71129100,N,11940.87449367,W,4,4,2.3,322.905,M,-17.561,M,0.4,0000*42
1627578007168282627,7850,1627578007168102979,gps_frame,$GPGGA,170006.50,4616.71134759,N,11940.87449514,W,4,4,2.3,322.793,M,-17.561,M,0.5,0000*42
1627578007219915526,7851,1627578007219743013,gps_frame,$GPGGA,170006.55,4616.71139195,N,11940.87439575,W,4,4,2.3,322.748,M,-17.561,M,0.5,0000*4A
1627578007270135800,7852,1627578007269975900,gps_frame,$GPGGA,170006.60,4616.71139480,N,11940.87445119,W,4,4,2.3,322.784,M,-17.561,M,0.6,0000*4B
1627578007319909372,7853,1627578007319731950,gps_frame,$GPGGA,170006.65,4616.71141286,N,11940.87433952,W,4,4,2.3,322.790,M,-17.561,M,0.6,0000*42
1627578007368848983,7854,1627578007368643045,gps_frame,$GPGGA,170006.70,4616.71146049,N,11940.87439822,W,4,4,2.3,322.779,M,-17.561,M,0.7,0000*4A
1627578007419904009,7855,1627578007419771909,gps_frame,$GPGGA,170006.75,4616.71149730,N,11940.87432918,W,4,4,2.3,322.775,M,-17.561,M,0.7,0000*46
1627578007469505352,7856,1627578007469333887,gps_frame,$GPGGA,170006.80,4616.71153453,N,11940.87435435,W,4,4,2.3,322.860,M,-17.561,M,0.8,0000*40
1627578007520003201,7857,1627578007519814014,gps_frame,$GPGGA,170006.85,4616.71157161,N,11940.87425408,W,4,4,2.3,322.913,M,-17.561,M,0.8,0000*4F
1627578007568307658,7858,1627578007568094015,gps_frame,$GPGGA,170006.90,4616.71158272,N,11940.87430840,W,4,4,2.3,322.766,M,-17.561,M,0.9,0000*4C
1627578007619872332,7859,1627578007619700908,gps_frame,$GPGGA,170006.95,4616.71160334,N,11940.87420361,W,4,4,2.3,322.692,M,-17.561,M,0.9,0000*42
1627578007676658005,7860,1627578007676312923,gps_frame,$GPGGA,170007.00,4616.71164097,N,11940.87425466,W,4,4,2.3,322.789,M,-17.561,M,1.0,0000*47
1627578007719873273,7861,1627578007719706058,gps_frame,$GPGGA,170007.05,4616.71167236,N,11940.87418195,W,4,4,2.3,322.824,M,-17.561,M,1.0,0000*47
1627578007779396136,7862,1627578007779233932,gps_frame,$GPGGA,170007.10,4616.71172391,N,11940.87419874,W,4,4,2.3,322.812,M,-17.561,M,1.1,0000*48
1627578007819902466,7863,1627578007819720983,gps_frame,$GPGGA,170007.15,4616.71176807,N,11940.87410211,W,4,4,2.3,322.818,M,-17.561,M,1.1,0000*47
1627578007870739582,7864,1627578007870584964,gps_frame,$GPGGA,170007.20,4616.71178582,N,11940.87415216,W,4,5,1.9,322.772,M,-17.561,M,0.2,0000*44
1627578007919885719,7865,1627578007919713973,gps_frame,$GPGGA,170007.25,4616.71181325,N,11940.87403368,W,4,5,1.9,322.746,M,-17.561,M,0.2,0000*44
1627578007968782222,7866,1627578007968576908,gps_frame,$GPGGA,170007.30,4616.71182670,N,11940.87409235,W,4,5,1.9,322.723,M,-17.561,M,0.3,0000*47
1627578008019918434,7867,1627578008019764900,gps_frame,$GPGGA,170007.35,4616.71184527,N,11940.87400044,W,4,5,1.9,322.698,M,-17.561,M,0.3,0000*49
1627578008069827164,7868,1627578008069675922,gps_frame,$GPGGA,170007.40,4616.71189301,N,11940.87404418,W,4,5,1.9,322.804,M,-17.561,M,0.4,0000*41
1627578008119912309,7869,1627578008119729995,gps_frame,$GPGGA,170007.45,4616.71193005,N,11940.87398165,W,4,5,1.9,322.862,M,-17.561,M,0.4,0000*45
1627578008168356043,7870,1627578008168198108,gps_frame,$GPGGA,170007.50,4616.71193791,N,11940.87399152,W,4,5,1.9,322.726,M,-17.561,M,0.5,0000*40
1627578008219940159,7871,1627578008219746112,gps_frame,$GPGGA,170007.55,4616.71195647,N,11940.87388307,W,4,5,1.9,322.661,M,-17.561,M,0.5,0000*49
1627578008269757720,7872,1627578008269593954,gps_frame,$GPGGA,170007.60,4616.71201136,N,11940.87395131,W,4,5,1.9,322.806,M,-17.561,M,0.6,0000*47
1627578008319997487,7873,1627578008319796085,gps_frame,$GPGGA,170007.65,4616.71205294,N,11940.87389270,W,4,5,1.9,322.874,M,-17.561,M,0.6,0000*43
1627578008368413523,7874,1627578008368269920,gps_frame,$GPGGA,170007.70,4616.71206816,N,11940.87389614,W,4,5,1.9,322.752,M,-17.561,M,0.7,0000*48
1627578008419834164,7875,1627578008419686079,gps_frame,$GPGGA,170007.75,4616.71209304,N,11940.87377516,W,4,5,1.9,322.699,M,-17.561,M,0.7,0000*4C
1627578008469525241,7876,1627578008469307899,gps_frame,$GPGGA,170007.80,4616.71211800,N,11940.87385807,W,4,5,1.9,322.760,M,-17.561,M,0.8,0000*48
1627578008519934914,7877,1627578008519759893,gps_frame,$GPGGA,170007.85,4616.71214292,N,11940.87378771,W,4,5,1.9,322.779,M,-17.561,M,0.8,0000*4D
1627578008568209411,7878,1627578008568053960,gps_frame,$GPGGA,170007.90,4616.71219830,N,11940.87382754,W,4,5,1.9,322.758,M,-17.561,M,0.9,0000*46
1627578008619906399,7879,1627578008619726896,gps_frame,$GPGGA,170007.95,4616.71224253,N,11940.87375802,W,4,5,1.9,322.753,M,-17.561,M,0.9,0000*4D
1627578008676269235,7880,1627578008675939083,gps_frame,$GPGGA,170008.00,4616.71224316,N,11940.87376519,W,4,5,1.9,322.765,M,-17.561,M,1.0,0000*47
1627578008719943701,7881,1627578008719749927,gps_frame,$GPGGA,170008.05,4616.71225975,N,11940.87363310,W,4,5,1.9,322.770,M,-17.561,M,1.0,0000*43
1627578008768448308,7882,1627578008768256902,gps_frame,$GPGGA,170008.10,4616.71230029,N,11940.87372225,W,4,5,1.9,322.797,M,-17.561,M,1.1,0000*4C
1627578008819943342,7883,1627578008819749116,gps_frame,$GPGGA,170008.15,4616.71233206,N,11940.87366830,W,4,5,1.9,322.816,M,-17.561,M,1.1,0000*48
1627578008870506583,7884,1627578008870311021,gps_frame,$GPGGA,170008.20,4616.71235196,N,11940.87367820,W,4,5,1.9,322.828,M,-17.561,M,0.2,0000*4D
1627578008919905136,7885,1627578008919724941,gps_frame,$GPGGA,170008.25,4616.71237620,N,11940.87358562,W,4,5,1.9,322.843,M,-17.561,M,0.2,0000*4A
1627578008968610586,7886,1627578008968491077,gps_frame,$GPGGA,170008.30,4616.71243274,N,11940.87362016,W,4,5,1.9,322.780,M,-17.561,M,0.3,0000*46
1627578009019893535,7887,1627578009019750118,gps_frame,$GPGGA,170008.35,4616.71247745,N,11940.87353662,W,4,5,1.9,322.746,M,-17.561,M,0.3,0000*4D
1627578009070219355,7888,1627578009070091962,gps_frame,$GPGGA,170008.40,4616.71247996,N,11940.87360734,W,4,5,1.9,322.824,M,-17.561,M,0.4,0000*41
1627578009119960975,7889,1627578009119772911,gps_frame,$GPGGA,170008.45,4616.71249792,N,11940.87350974,W,4,5,1.9,322.861,M,-17.561,M,0.4,0000*48
1627578009168700330,7890,1627578009168484926,gps_frame,$GPGGA,170008.50,4616.71253186,N,11940.87353902,W,4,5,1.9,322.770,M,-17.561,M,0.5,0000*48
1627578009220322786,7891,1627578009219796895,gps_frame,$GPGGA,170008.55,4616.71255994,N,11940.87345645,W,4,5,1.9,322.726,M,-17.561,M,0.5,0000*48
1627578009270439945,7892,1627578009270224094,gps_frame,$GPGGA,170008.60,4616.71256031,N,11940.87347415,W,4,5,1.9,322.709,M,-17.561,M,0.6,0000*40
1627578009319773653,7893,1627578009319653987,gps_frame,$GPGGA,170008.65,4616.71257083,N,11940.87338329,W,4,5,1.9,322.682,M,-17.561,M,0.6,0000*4F
1627578009368764967,7894,1627578009368614912,gps_frame,$GPGGA,170008.70,4616.71261818,N,11940.87342639,W,4,5,1.9,322.729,M,-17.561,M,0.7,0000*4C
1627578009419959742,7895,1627578009419835090,gps_frame,$GPGGA,170008.75,4616.71265204,N,11940.87338106,W,4,5,1.9,322.749,M,-17.561,M,0.7,0000*4A
1627578009469416835,7896,1627578009469254016,gps_frame,$GPGGA,170008.80,4616.71267295,N,11940.87336489,W,4,5,1.9,322.737,M,-17.561,M,0.8,0000*40
1627578009519992231,7897,1627578009519778013,gps_frame,$GPGGA,170008.85,4616.71269861,N,11940.87325792,W,4,5,1.9,322.737,M,-17.561,M,0.8,0000*41
1627578009568208225,7898,1627578009568038940,gps_frame,$GPGGA,170008.90,4616.71276061,N,11940.87331841,W,4,5,1.9,322.806,M,-17.561,M,0.9,0000*4B
1627578009619941442,7899,1627578009619693040,gps_frame,$GPGGA,170008.95,4616.71280931,N,11940.87324176,W,4,5,1.9,322.850,M,-17.561,M,0.9,0000*41
1627578009676287128,7900,1627578009676032066,gps_frame,$GPGGA,170009.00,4616.71280698,N,11940.87328490,W,4,5,1.9,322.766,M,-17.561,M,1.0,0000*43
1627578009719910321,7901,1627578009719710111,gps_frame,$GPGGA,170009.05,4616.71282334,N,11940.87316280,W,4,5,1.9,322.730,M,-17.561,M,1.0,0000*4E
1627578009779334403,7902,1627578009779130935,gps_frame,$GPGGA,170009.10,4616.71289439,N,11940.87326063,W,4,5,1.9,322.860,M,-17.561,M,1.1,0000*4C
1627578009819867590,7903,1627578009819700956,gps_frame,$GPGGA,170009.15,4616.71294541,N,11940.87321376,W,4,5,1.9,322.929,M,-17.561,M,1.1,0000*47
1627578009870266770,7904,1627578009870120048,gps_frame,$GPGGA,170009.20,4616.71295544,N,11940.87317070,W,4,5,1.9,322.761,M,-17.561,M,0.2,0000*45
1627578009919913668,7905,1627578009919704914,gps_frame,$GPGGA,170009.25,4616.71298050,N,11940.87300521,W,4,5,1.9,322.680,M,-17.561,M,0.2,0000*44
1627578009968324175,7906,1627578009968161106,gps_frame,$GPGGA,170009.30,4616.71299971,N,11940.87316097,W,4,5,1.9,322.777,M,-17.561,M,0.3,0000*4C
1627578010020007160,7907,1627578010019782066,gps_frame,$GPGGA,170009.35,4616.71302105,N,11940.87311460,W,4,5,1.9,322.808,M,-17.561,M,0.3,0000*4D
1627578010070233728,7908,1627578010070013046,gps_frame,$GPGGA,170009.40,4616.71306681,N,11940.87306336,W,4,5,1.9,322.798,M,-17.561,M,0.4,0000*43
1627578010119947035,7909,1627578010119719028,gps_frame,$GPGGA,170009.45,4616.71310363,N,11940.87295261,W,4,5,1.9,322.803,M,-17.561,M,0.4,0000*4D
1627578010168180804,7910,1627578010167972087,gps_frame,$GPGGA,170009.50,4616.71311061,N,11940.87303070,W,4,5,1.9,322.758,M,-17.561,M,0.5,0000*45
1627578010219929327,7911,1627578010219747066,gps_frame,$GPGGA,170009.55,4616.71312852,N,11940.87294675,W,4,5,1.9,322.732,M,-17.561,M,0.5,0000*4B
1627578010269459539,7912,1627578010269334077,gps_frame,$GPGGA,170009.60,4616.71318036,N,11940.87295498,W,4,5,1.9,322.693,M,-17.561,M,0.6,0000*44
1627578010319999812,7913,1627578010319794893,gps_frame,$GPGGA,170009.65,4616.71321978,N,11940.87286882,W,4,5,1.9,322.659,M,-17.561,M,0.6,0000*4B
1627578010368350957,7914,1627578010368180990,gps_frame,$GPGGA,170009.70,4616.71323845,N,11940.87292082,W,4,5,1.9,322.773,M,-17.561,M,0.7,0000*47
1627578010419927820,7915,1627578010419728040,gps_frame,$GPGGA,170009.75,4616.71326472,N,11940.87282567,W,4,5,1.9,322.833,M,-17.561,M,0.7,0000*4B
1627578010469347688,7916,1627578010469168901,gps_frame,$GPGGA,170009.80,4616.71328774,N,11940.87289834,W,4,5,1.9,322.724,M,-17.561,M,0.8,0000*4C
1627578010519974600,7917,1627578010519772052,gps_frame,$GPGGA,170009.85,4616.71331196,N,11940.87282913,W,4,5,1.9,322.677,M,-17.561,M,0.8,0000*43
1627578010568164858,7918,1627578010567970037,gps_frame,$GPGGA,170009.90,4616.71334449,N,11940.87285352,W,4,5,1.9,322.722,M,-17.561,M,0.9,0000*4D
1627578010619924312,7919,1627578010619697093,gps_frame,$GPGGA,170009.95,4616.71337397,N,11940.87277541,W,4,5,1.9,322.733,M,-17.561,M,0.9,0000*46
1627578010675465406,7920,1627578010675224065,gps_frame,$GPGGA,170010.00,4616.71340522,N,11940.87278259,W,4,5,1.9,322.720,M,-17.561,M,1.0,0000*41
1627578010720375418,7921,1627578010720192909,gps_frame,$GPGGA,170010.05,4616.71343583,N,11940.87267997,W,4,5,1.9,322.716,M,-17.561,M,1.0,0000*4E
1627578010768296161,7922,1627578010768114089,gps_frame,$GPGGA,170010.10,4616.71348371,N,11940.87272431,W,4,5,1.9,322.767,M,-17.561,M,1.1,0000*48
1627578010819919934,7923,1627578010819777965,gps_frame,$GPGGA,170010.15,4616.71352526,N,11940.87263076,W,4,5,1.9,322.797,M,-17.561,M,1.1,0000*4A
1627578010870297152,7924,1627578010870088100,gps_frame,$GPGGA,170010.20,4616.71349975,N,11940.87269042,W,4,5,1.9,322.652,M,-17.561,M,0.2,0000*4B
1627578010920023171,7925,1627578010919800043,gps_frame,$GPGGA,170010.25,4616.71349882,N,11940.87258532,W,4,5,1.9,322.571,M,-17.561,M,0.2,0000*45
1627578010968440005,7926,1627578010968270063,gps_frame,$GPGGA,170010.30,4616.71361009,N,11940.87263701,W,4,5,1.9,322.775,M,-17.561,M,0.3,0000*4D
1627578011019909948,7927,1627578011019717931,gps_frame,$GPGGA,170010.35,4616.71368025,N,11940.87260909,W,4,5,1.9,322.875,M,-17.561,M,0.3,0000*45
1627578011069408081,7928,1627578011069210052,gps_frame,$GPGGA,170010.40,4616.71362938,N,11940.87255965,W,4,5,1.9,322.658,M,-17.561,M,0.4,0000*42
1627578011119908403,7929,1627578011119715929,gps_frame,$GPGGA,170010.45,4616.71362284,N,11940.87236531,W,4,5,1.9,322.557,M,-17.561,M,0.4,0000*4F
1627578011168145081,7930,1627578011167962074,gps_frame,$GPGGA,170010.50,4616.71370905,N,11940.87253026,W,4,5,1.9,322.732,M,-17.561,M,0.5,0000*4A
1627578011219881952,7931,1627578011219753026,gps_frame,$GPGGA,170010.55,4616.71376129,N,11940.87253697,W,4,5,1.9,322.805,M,-17.561,M,0.5,0000*48
1627578011270204097,7932,1627578011270028114,gps_frame,$GPGGA,170010.60,4616.71377114,N,11940.87246885,W,4,5,1.9,322.751,M,-17.561,M,0.6,0000*45
1627578011319864098,7933,1627578011319736957,gps_frame,$GPGGA,170010.65,4616.71379652,N,11940.87231782,W,4,5,1.9,322.743,M,-17.561,M,0.6,0000*40
1627578011368343511,7934,1627578011368180036,gps_frame,$GPGGA,170010.70,4616.71383249,N,11940.87242983,W,4,5,1.9,322.692,M,-17.561,M,0.7,0000*48
1627578011419919580,7935,1627578011419694900,gps_frame,$GPGGA,170010.75,4616.71386458,N,11940.87235957,W,4,5,1.9,322.656,M,-17.561,M,0.7,0000*4F
1627578011469312279,7936,1627578011469152927,gps_frame,$GPGGA,170010.80,4616.71391315,N,11940.87238200,W,4,5,1.9,322.686,M,-17.561,M,0.8,0000*4B
1627578011519861204,7937,1627578011519731998,gps_frame,$GPGGA,170010.85,4616.71395568,N,11940.87228556,W,4,5,1.9,322.692,M,-17.561,M,0.8,0000*46
1627578011568253568,7938,1627578011568120956,gps_frame,$GPGGA,170010.90,4616.71394756,N,11940.87234815,W,4,5,1.9,322.688,M,-17.561,M,0.9,0000*41
1627578011619890951,7939,1627578011619729042,gps_frame,$GPGGA,170010.95,4616.71395798,N,11940.87224084,W,4,5,1.9,322.688,M,-17.561,M,0.9,0000*46
1627578011676096837,7940,1627578011675889968,gps_frame,$GPGGA,170011.00,4616.71403104,N,11940.87229074,W,4,5,1.9,322.686,M,-17.561,M,1.0,0000*44
1627578011719837553,7941,1627578011719679117,gps_frame,$GPGGA,170011.05,4616.71408117,N,11940.87223544,W,4,5,1.9,322.685,M,-17.561,M,1.0,0000*47
1627578011779209398,7942,1627578011778973102,gps_frame,$GPGGA,170011.10,4616.71406446,N,11940.87224046,W,4,5,1.9,322.717,M,-17.561,M,1.1,0000*47
1627578011819844481,7943,1627578011819694042,gps_frame,$GPGGA,170011.15,4616.71407222,N,11940.87210780,W,4,5,1.9,322.738,M,-17.561,M,1.1,0000*40
1627578011870423356,7944,1627578011870279073,gps_frame,$GPGGA,170011.20,4616.71415829,N,11940.87216573,W,4,5,1.9,322.691,M,-17.561,M,0.2,0000*4C
1627578011919855421,7945,1627578011919696092,gps_frame,$GPGGA,170011.25,4616.71421569,N,11940.87210761,W,4,5,1.9,322.668,M,-17.561,M,0.2,0000*46
1627578011968457849,7946,1627578011968297004,gps_frame,$GPGGA,170011.30,4616.71419734,N,11940.87212487,W,4,5,1.9,322.688,M,-17.561,M,0.3,0000*45
1627578012019918971,7947,1627578012019785881,gps_frame,$GPGGA,170011.35,4616.71420672,N,11940.87198462,W,4,5,1.9,322.692,M,-17.561,M,0.3,0000*48
1627578012070447936,7948,1627578012070250988,gps_frame,$GPGGA,170011.40,4616.71427996,N,11940.87209574,W,4,5,1.9,322.675,M,-17.561,M,0.4,0000*4B
