%time,field.header.seq,field.header.stamp,field.header.frame_id,field.sentence
1627577811470069874,3936,1627577811469882011,gps_frame,$GPGGA,165650.80,4616.69245600,N,11940.89004200,W,4,8,1.1,323.417,M,-17.562,M,0.8,0000*43
1627577811520180507,3937,1627577811519998073,gps_frame,$GPGGA,165650.85,4616.69249240,N,11940.88999070,W,4,8,1.1,323.413,M,-17.562,M,0.8,0000*47
1627577811568724655,3938,1627577811568571090,gps_frame,$GPGGA,165650.90,4616.69252710,N,11940.89006010,W,4,8,1.1,323.422,M,-17.562,M,0.9,0000*42
1627577811620161828,3939,1627577811620013952,gps_frame,$GPGGA,165650.95,4616.69256242,N,11940.88999127,W,4,8,1.1,323.426,M,-17.562,M,0.9,0000*4E
1627577811677361968,3940,1627577811677221059,gps_frame,$GPGGA,165651.00,4616.69258860,N,11940.89006533,W,4,8,1.1,323.422,M,-17.562,M,1.0,0000*44
1627577811720101357,3941,1627577811719958066,gps_frame,$GPGGA,165651.05,4616.69261813,N,11940.88998865,W,4,8,1.1,323.421,M,-17.562,M,1.0,0000*4D
1627577811780501799,3942,1627577811780292034,gps_frame,$GPGGA,165651.10,4616.69266968,N,11940.89008242,W,4,8,1.1,323.432,M,-17.562,M,1.1,0000*4E
1627577811820008996,3943,1627577811819906949,gps_frame,$GPGGA,165651.15,4616.69271318,N,11940.89002864,W,4,8,1.1,323.438,M,-17.562,M,1.1,0000*4E
1627577811871064742,3944,1627577811870922088,gps_frame,$GPGGA,165651.20,4616.69272824,N,11940.89009196,W,4,8,1.1,323.428,M,-17.562,M,0.2,0000*43
1627577811920102233,3945,1627577811919979095,gps_frame,$GPGGA,165651.25,4616.69275372,N,11940.89000014,W,4,8,1.1,323.423,M,-17.562,M,0.2,0000*40
1627577811969033186,3946,1627577811968847036,gps_frame,$GPGGA,165651.30,4616.69280825,N,11940.89010558,W,4,8,1.1,323.421,M,-17.562,M,0.3,0000*48
1627577812020173428,3947,1627577812019999027,gps_frame,$GPGGA,165651.35,4616.69285215,N,11940.89005772,W,4,8,1.1,323.418,M,-17.562,M,0.3,0000*45
1627577812070415010,3948,1627577812070214986,gps_frame,$GPGGA,165651.40,4616.69287942,N,11940.89012179,W,4,8,1.1,323.427,M,-17.562,M,0.4,0000*4C
1627577812120133651,3949,1627577812119987010,gps_frame,$GPGGA,165651.45,4616.69291277,N,11940.89003409,W,4,8,1.1,323.432,M,-17.562,M,0.4,0000*45
1627577812168694470,3950,1627577812168546915,gps_frame,$GPGGA,165651.50,4616.69295418,N,11940.89013883,W,4,8,1.1,323.449,M,-17.562,M,0.5,0000*48
1627577812220068515,3951,1627577812219947099,gps_frame,$GPGGA,165651.55,4616.69299264,N,11940.89007459,W,4,8,1.1,323.462,M,-17.562,M,0.5,0000*4B
1627577812270076427,3952,1627577812269929885,gps_frame,$GPGGA,165651.60,4616.69303074,N,11940.89014876,W,4,8,1.1,323.440,M,-17.562,M,0.6,0000*4C
1627577812320093808,3953,1627577812319967031,gps_frame,$GPGGA,165651.65,4616.69306898,N,11940.89006874,W,4,8,1.1,323.432,M,-17.562,M,0.6,0000*42
1627577812369074719,3954,1627577812368892908,gps_frame,$GPGGA,165651.70,4616.69310252,N,11940.89017244,W,4,8,1.1,323.441,M,-17.562,M,0.7,0000*41
1627577812420118580,3955,1627577812419928073,gps_frame,$GPGGA,165651.75,4616.69313778,N,11940.89010287,W,4,8,1.1,323.444,M,-17.562,M,0.7,0000*47
1627577812470036936,3956,1627577812469846010,gps_frame,$GPGGA,165651.80,4616.69318158,N,11940.89018162,W,4,8,1.1,323.440,M,-17.562,M,0.8,0000*49
1627577812520196276,3957,1627577812520016908,gps_frame,$GPGGA,165651.85,4616.69322225,N,11940.89010670,W,4,8,1.1,323.438,M,-17.562,M,0.8,0000*4F
1627577812568725096,3958,1627577812568551063,gps_frame,$GPGGA,165651.90,4616.69325144,N,11940.89020107,W,4,8,1.1,323.449,M,-17.562,M,0.9,0000*4B
1627577812620151376,3959,1627577812619971036,gps_frame,$GPGGA,165651.95,4616.69328484,N,11940.89012401,W,4,8,1.1,323.455,M,-17.562,M,0.9,0000*45
1627577812677418059,3960,1627577812677179098,gps_frame,$GPGGA,165652.00,4616.69333449,N,11940.89021286,W,4,8,1.1,323.450,M,-17.562,M,1.0,0000*45
1627577812720090209,3961,1627577812719911098,gps_frame,$GPGGA,165652.05,4616.69337819,N,11940.89014423,W,4,8,1.1,323.449,M,-17.562,M,1.0,0000*4A
1627577812780422793,3962,1627577812780251026,gps_frame,$GPGGA,165652.10,4616.69339834,N,11940.89023855,W,4,8,1.1,323.458,M,-17.562,M,1.1,0000*47
1627577812820203247,3963,1627577812820015907,gps_frame,$GPGGA,165652.15,4616.69342711,N,11940.89015822,W,4,8,1.1,323.463,M,-17.562,M,1.1,0000*4B
1627577812871025702,3964,1627577812870909929,gps_frame,$GPGGA,165652.20,4616.69347657,N,11940.89025182,W,4,8,1.1,323.467,M,-17.562,M,0.2,0000*4D
1627577812920180800,3965,1627577812919979095,gps_frame,$GPGGA,165652.25,4616.69351846,N,11940.89019334,W,4,8,1.1,323.471,M,-17.562,M,0.2,0000*46
1627577812969048753,3966,1627577812968858957,gps_frame,$GPGGA,165652.30,4616.69354544,N,11940.89026845,W,4,8,1.1,323.474,M,-17.562,M,0.3,0000*4D
1627577813020172717,3967,1627577813019987106,gps_frame,$GPGGA,165652.35,4616.69357787,N,11940.89018634,W,4,8,1.1,323.477,M,-17.562,M,0.3,0000*40
1627577813070025709,3968,1627577813069833993,gps_frame,$GPGGA,165652.40,4616.69361373,N,11940.89028571,W,4,8,1.1,323.480,M,-17.562,M,0.4,0000*46
1627577813120153045,3969,1627577813119963884,gps_frame,$GPGGA,165652.45,4616.69364833,N,11940.89022329,W,4,8,1.1,323.483,M,-17.562,M,0.4,0000*4B
1627577813168750949,3970,1627577813168615102,gps_frame,$GPGGA,165652.50,4616.69368828,N,11940.89029160,W,4,8,1.1,323.472,M,-17.562,M,0.5,0000*42
1627577813220159777,3971,1627577813219980955,gps_frame,$GPGGA,165652.55,4616.69372626,N,11940.89021750,W,4,8,1.1,323.467,M,-17.562,M,0.5,0000*45
1627577813271067021,3972,1627577813270870923,gps_frame,$GPGGA,165652.60,4616.69375249,N,11940.89031625,W,4,8,1.1,323.485,M,-17.562,M,0.6,0000*44
1627577813320259007,3973,1627577813320058107,gps_frame,$GPGGA,165652.65,4616.69378303,N,11940.89024850,W,4,8,1.1,323.494,M,-17.562,M,0.6,0000*4B
1627577813368984675,3974,1627577813368820905,gps_frame,$GPGGA,165652.70,4616.69381228,N,11940.89031969,W,4,8,1.1,323.499,M,-17.562,M,0.7,0000*42
1627577813420205618,3975,1627577813420011997,gps_frame,$GPGGA,165652.75,4616.69384200,N,11940.89025110,W,4,8,1.1,323.505,M,-17.562,M,0.7,0000*4F
1627577813470102329,3976,1627577813469880104,gps_frame,$GPGGA,165652.80,4616.69387668,N,11940.89033459,W,4,8,1.1,323.485,M,-17.562,M,0.8,0000*45
1627577813520208107,3977,1627577813520021915,gps_frame,$GPGGA,165652.85,4616.69390954,N,11940.89027962,W,4,8,1.1,323.475,M,-17.562,M,0.8,0000*49
1627577813568705480,3978,1627577813568587064,gps_frame,$GPGGA,165652.90,4616.69394582,N,11940.89035077,W,4,8,1.1,323.488,M,-17.562,M,0.9,0000*43
1627577813620222212,3979,1627577813620002031,gps_frame,$GPGGA,165652.95,4616.69398085,N,11940.89028658,W,4,8,1.1,323.493,M,-17.562,M,0.9,0000*45
1627577813677633361,3980,1627577813677371978,gps_frame,$GPGGA,165653.00,4616.69399568,N,11940.89036817,W,4,8,1.1,323.491,M,-17.562,M,1.0,0000*4F
1627577813720176175,3981,1627577813719980001,gps_frame,$GPGGA,165653.05,4616.69401790,N,11940.89030065,W,4,8,1.1,323.491,M,-17.562,M,1.0,0000*42
1627577813780380219,3982,1627577813780174016,gps_frame,$GPGGA,165653.10,4616.69406219,N,11940.89037043,W,4,8,1.1,323.497,M,-17.562,M,1.1,0000*41
1627577813820184314,3983,1627577813820008039,gps_frame,$GPGGA,165653.15,4616.69409839,N,11940.89032092,W,4,8,1.1,323.501,M,-17.562,M,1.1,0000*44
1627577813871170516,3984,1627577813870973110,gps_frame,$GPGGA,165653.20,4616.69411349,N,11940.89037999,W,4,8,1.1,323.496,M,-17.562,M,0.2,0000*4D
1627577813920233965,3985,1627577813920027017,gps_frame,$GPGGA,165653.25,4616.69413632,N,11940.89030722,W,4,8,1.1,323.495,M,-17.562,M,0.2,0000*49
1627577813968901709,3986,1627577813968790054,gps_frame,$GPGGA,165653.30,4616.69416730,N,11940.89040035,W,4,8,1.1,323.497,M,-17.562,M,0.3,0000*4E
1627577814020276364,3987,1627577814020086050,gps_frame,$GPGGA,165653.35,4616.69419530,N,11940.89036171,W,4,8,1.1,323.498,M,-17.562,M,0.3,0000*49
1627577814070514216,3988,1627577814070301055,gps_frame,$GPGGA,165653.40,4616.69422863,N,11940.89040212,W,4,8,1.1,323.507,M,-17.562,M,0.4,0000*4F
1627577814120155427,3989,1627577814119998931,gps_frame,$GPGGA,165653.45,4616.69426001,N,11940.89033908,W,4,8,1.1,323.514,M,-17.562,M,0.4,0000*44
1627577814168791571,3990,1627577814168607950,gps_frame,$GPGGA,165653.50,4616.69428387,N,11940.89040924,W,4,8,1.1,323.510,M,-17.562,M,0.5,0000*4C
1627577814220247075,3991,1627577814220031023,gps_frame,$GPGGA,165653.55,4616.69431048,N,11940.89034573,W,4,8,1.1,323.510,M,-17.562,M,0.5,0000*4C
1627577814270082151,3992,1627577814269932031,gps_frame,$GPGGA,165653.60,4616.69433669,N,11940.89043536,W,4,8,1.1,323.497,M,-17.562,M,0.6,0000*41
1627577814320162639,3993,1627577814319963932,gps_frame,$GPGGA,165653.65,4616.69436305,N,11940.89039245,W,4,8,1.1,323.489,M,-17.562,M,0.6,0000*4F
1627577814369005577,3994,1627577814368818998,gps_frame,$GPGGA,165653.70,4616.69438952,N,11940.89043550,W,4,8,1.1,323.503,M,-17.562,M,0.7,0000*41
1627577814420205155,3995,1627577814419995069,gps_frame,$GPGGA,165653.75,4616.69441596,N,11940.89037394,W,4,8,1.1,323.510,M,-17.562,M,0.7,0000*41
1627577814470077493,3996,1627577814469857931,gps_frame,$GPGGA,165653.80,4616.69444058,N,11940.89044667,W,4,8,1.1,323.516,M,-17.562,M,0.8,0000*4D
1627577814520204190,3997,1627577814520025968,gps_frame,$GPGGA,165653.85,4616.69446587,N,11940.89039709,W,4,8,1.1,323.522,M,-17.562,M,0.8,0000*49
1627577814568751521,3998,1627577814568576097,gps_frame,$GPGGA,165653.90,4616.69449269,N,11940.89046015,W,4,8,1.1,323.513,M,-17.562,M,0.9,0000*44
1627577814620139605,3999,1627577814619966030,gps_frame,$GPGGA,165653.95,4616.69451895,N,11940.89041128,W,4,8,1.1,323.510,M,-17.562,M,0.9,0000*4A
1627577814677182045,4000,1627577814676986932,gps_frame,$GPGGA,165654.00,4616.69454544,N,11940.89045974,W,4,8,1.1,323.523,M,-17.562,M,1.0,0000*48
1627577814720140989,4001,1627577814719964027,gps_frame,$GPGGA,165654.05,4616.69457185,N,11940.89040042,W,4,8,1.1,323.530,M,-17.562,M,1.0,0000*4C
1627577814780446965,4002,1627577814780267000,gps_frame,$GPGGA,165654.10,4616.69459031,N,11940.89048036,W,4,8,1.1,323.515,M,-17.562,M,1.1,0000*45
1627577814820152367,4003,1627577814819981098,gps_frame,$GPGGA,165654.15,4616.69461169,N,11940.89043628,W,4,8,1.1,323.508,M,-17.562,M,1.1,0000*49
1627577814871021500,4004,1627577814870909929,gps_frame,$GPGGA,165654.20,4616.69464094,N,11940.89047238,W,4,8,1.1,323.529,M,-17.562,M,0.2,0000*49
1627577814920156134,4005,1627577814919986963,gps_frame,$GPGGA,165654.25,4616.69466731,N,11940.89041700,W,4,8,1.1,323.540,M,-17.562,M,0.2,0000*41
1627577814969034540,4006,1627577814968827009,gps_frame,$GPGGA,165654.30,4616.69468499,N,11940.89048509,W,4,8,1.1,323.528,M,-17.562,M,0.3,0000*47
1627577815020144090,4007,1627577815019996881,gps_frame,$GPGGA,165654.35,4616.69470584,N,11940.89043788,W,4,8,1.1,323.525,M,-17.562,M,0.3,0000*4B
1627577815070170699,4008,1627577815069987058,gps_frame,$GPGGA,165654.40,4616.69473502,N,11940.89049647,W,4,8,1.1,323.520,M,-17.562,M,0.4,0000*4E
1627577815120139782,4009,1627577815119972944,gps_frame,$GPGGA,165654.45,4616.69476115,N,11940.89045534,W,4,8,1.1,323.516,M,-17.562,M,0.4,0000*42
1627577815168665452,4010,1627577815168517112,gps_frame,$GPGGA,165654.50,4616.69478105,N,11940.89049515,W,4,8,1.1,323.527,M,-17.562,M,0.5,0000*45
1627577815220093500,4011,1627577815219964027,gps_frame,$GPGGA,165654.55,4616.69480323,N,11940.89043605,W,4,8,1.1,323.532,M,-17.562,M,0.5,0000*4D
1627577815271180626,4012,1627577815270931959,gps_frame,$GPGGA,165654.60,4616.69481869,N,11940.89050943,W,4,8,1.1,323.525,M,-17.562,M,0.6,0000*45
1627577815320134099,4013,1627577815319957017,gps_frame,$GPGGA,165654.65,4616.69483661,N,11940.89047058,W,4,8,1.1,323.523,M,-17.562,M,0.6,0000*47
1627577815369568922,4014,1627577815369371891,gps_frame,$GPGGA,165654.70,4616.69487583,N,11940.89051533,W,4,8,1.1,323.534,M,-17.562,M,0.7,0000*40
1627577815420171660,4015,1627577815419990062,gps_frame,$GPGGA,165654.75,4616.69490726,N,11940.89047737,W,4,8,1.1,323.540,M,-17.562,M,0.7,0000*4C
1627577815470018660,4016,1627577815469861030,gps_frame,$GPGGA,165654.80,4616.69490526,N,11940.89052394,W,4,8,1.1,323.529,M,-17.562,M,0.8,0000*4D
1627577815520192852,4017,1627577815520015954,gps_frame,$GPGGA,165654.85,4616.69491550,N,11940.89046044,W,4,8,1.1,323.524,M,-17.562,M,0.8,0000*4E
1627577815568699502,4018,1627577815568566083,gps_frame,$GPGGA,165654.90,4616.69496203,N,11940.89053583,W,4,8,1.1,323.539,M,-17.562,M,0.9,0000*4B
1627577815620083296,4019,1627577815619951009,gps_frame,$GPGGA,165654.95,4616.69499527,N,11940.89051963,W,4,8,1.1,323.547,M,-17.562,M,0.9,0000*49
1627577815677441025,4020,1627577815677206993,gps_frame,$GPGGA,165655.00,4616.69500917,N,11940.89054548,W,4,8,1.1,323.529,M,-17.562,M,1.0,0000*4A
1627577815720155049,4021,1627577815720005035,gps_frame,$GPGGA,165655.05,4616.69503016,N,11940.89047734,W,4,8,1.1,323.521,M,-17.562,M,1.0,0000*47
1627577815780752296,4022,1627577815780487060,gps_frame,$GPGGA,165655.10,4616.69504894,N,11940.89054892,W,4,8,1.1,323.526,M,-17.562,M,1.1,0000*41
1627577815820121202,4023,1627577815819932937,gps_frame,$GPGGA,165655.15,4616.69506853,N,11940.89050408,W,4,8,1.1,323.526,M,-17.562,M,1.1,0000*46
1627577815871091268,4024,1627577815870914936,gps_frame,$GPGGA,165655.20,4616.69509951,N,11940.89055590,W,4,8,1.1,323.548,M,-17.562,M,0.2,0000*43
1627577815920158500,4025,1627577815919981002,gps_frame,$GPGGA,165655.25,4616.69512632,N,11940.89051727,W,4,8,1.1,323.562,M,-17.562,M,0.2,0000*44
1627577815969066366,4026,1627577815968925952,gps_frame,$GPGGA,165655.30,4616.69514979,N,11940.89056992,W,4,8,1.1,323.535,M,-17.562,M,0.3,0000*42
1627577816020221842,4027,1627577816020065069,gps_frame,$GPGGA,165655.35,4616.69517448,N,11940.89051914,W,4,8,1.1,323.523,M,-17.562,M,0.3,0000*45
1627577816070479623,4028,1627577816070282936,gps_frame,$GPGGA,165655.40,4616.69519335,N,11940.89056978,W,4,8,1.1,323.534,M,-17.562,M,0.4,0000*48
1627577816120240231,4029,1627577816120014905,gps_frame,$GPGGA,165655.45,4616.69521436,N,11940.89051367,W,4,8,1.1,323.537,M,-17.562,M,0.4,0000*42
1627577816168691391,4030,1627577816168534040,gps_frame,$GPGGA,165655.50,4616.69524499,N,11940.89057761,W,4,8,1.1,323.550,M,-17.562,M,0.5,0000*42
1627577816220135758,4031,1627577816219949960,gps_frame,$GPGGA,165655.55,4616.69527210,N,11940.89053727,W,4,8,1.1,323.560,M,-17.562,M,0.5,0000*46
1627577816270136936,4032,1627577816269915103,gps_frame,$GPGGA,165655.60,4616.69530318,N,11940.89058477,W,4,8,1.1,323.546,M,-17.562,M,0.6,0000*45
1627577816320503401,4033,1627577816320360898,gps_frame,$GPGGA,165655.65,4616.69533281,N,11940.89052861,W,4,8,1.1,323.540,M,-17.562,M,0.6,0000*45
1627577816369052691,4034,1627577816368839025,gps_frame,$GPGGA,165655.70,4616.69534448,N,11940.89058796,W,4,8,1.1,323.549,M,-17.562,M,0.7,0000*40
1627577816420129149,4035,1627577816419969081,gps_frame,$GPGGA,165655.75,4616.69536272,N,11940.89052446,W,4,8,1.1,323.553,M,-17.562,M,0.7,0000*47
1627577816470060390,4036,1627577816469857931,gps_frame,$GPGGA,165655.80,4616.69540173,N,11940.89060138,W,4,8,1.1,323.551,M,-17.562,M,0.8,0000*4E
1627577816520148688,4037,1627577816520023107,gps_frame,$GPGGA,165655.85,4616.69543313,N,11940.89056972,W,4,8,1.1,323.551,M,-17.562,M,0.8,0000*4F
1627577816568721276,4038,1627577816568547010,gps_frame,$GPGGA,165655.90,4616.69545623,N,11940.89060126,W,4,8,1.1,323.553,M,-17.562,M,0.9,0000*44
1627577816620202111,4039,1627577816620028018,gps_frame,$GPGGA,165655.95,4616.69548237,N,11940.89053040,W,4,8,1.1,323.554,M,-17.562,M,0.9,0000*4B
1627577816677182833,4040,1627577816676986932,gps_frame,$GPGGA,165656.00,4616.69550864,N,11940.89061792,W,4,8,1.1,323.548,M,-17.562,M,1.0,0000*4D
1627577816720132303,4041,1627577816719980955,gps_frame,$GPGGA,165656.05,4616.69553487,N,11940.89057200,W,4,8,1.1,323.545,M,-17.562,M,1.0,0000*4C
1627577816780336122,4042,1627577816780154943,gps_frame,$GPGGA,165656.10,4616.69556202,N,11940.89062037,W,4,8,1.1,323.558,M,-17.562,M,1.1,0000*4B
1627577816820196308,4043,1627577816819927930,gps_frame,$GPGGA,165656.15,4616.69558883,N,11940.89056166,W,4,8,1.1,323.565,M,-17.562,M,1.1,0000*4F
1627577816870994663,4044,1627577816870871067,gps_frame,$GPGGA,165656.20,4616.69561581,N,11940.89062509,W,4,8,1.1,323.542,M,-17.562,M,0.2,0000*41
1627577816920092341,4045,1627577816919954061,gps_frame,$GPGGA,165656.25,4616.69564273,N,11940.89056990,W,4,8,1.1,323.529,M,-17.562,M,0.2,0000*4D
1627577816969068423,4046,1627577816968843936,gps_frame,$GPGGA,165656.30,4616.69568394,N,11940.89063148,W,4,8,1.1,323.545,M,-17.562,M,0.3,0000*4D
1627577817020187036,4047,1627577817020003080,gps_frame,$GPGGA,165656.35,4616.69571992,N,11940.89057584,W,4,8,1.1,323.551,M,-17.562,M,0.3,0000*4A
1627577817069999544,4048,1627577817069844961,gps_frame,$GPGGA,165656.40,4616.69573404,N,11940.89065077,W,4,8,1.1,323.543,M,-17.562,M,0.4,0000*44
1627577817120140454,4049,1627577817119981050,gps_frame,$GPGGA,165656.45,4616.69575616,N,11940.89058356,W,4,8,1.1,323.540,M,-17.562,M,0.4,0000*4B
1627577817168695509,4050,1627577817168540000,gps_frame,$GPGGA,165656.50,4616.69579747,N,11940.89064801,W,4,8,1.1,323.545,M,-17.562,M,0.5,0000*44
1627577817220211060,4051,1627577817219994068,gps_frame,$GPGGA,165656.55,4616.69583175,N,11940.89059489,W,4,8,1.1,323.547,M,-17.562,M,0.5,0000*43
1627577817271589570,4052,1627577817271130084,gps_frame,$GPGGA,165656.60,4616.69586245,N,11940.89064942,W,4,8,1.1,323.549,M,-17.562,M,0.6,0000*49
1627577817320147771,4053,1627577817319986104,gps_frame,$GPGGA,165656.65,4616.69589446,N,11940.89057671,W,4,8,1.1,323.550,M,-17.562,M,0.6,0000*41
1627577817368981925,4054,1627577817368796110,gps_frame,$GPGGA,165656.70,4616.69591387,N,11940.89066100,W,4,8,1.1,323.557,M,-17.562,M,0.7,0000*43
1627577817420094532,4055,1627577817419962882,gps_frame,$GPGGA,165656.75,4616.69593790,N,11940.89059785,W,4,8,1.1,323.562,M,-17.562,M,0.7,0000*47
1627577817469917850,4056,1627577817469794988,gps_frame,$GPGGA,165656.80,4616.69597994,N,11940.89066227,W,4,8,1.1,323.554,M,-17.562,M,0.8,0000*48
1627577817520156088,4057,1627577817519975900,gps_frame,$GPGGA,165656.85,4616.69601538,N,11940.89060880,W,4,8,1.1,323.552,M,-17.562,M,0.8,0000*4C
1627577817568655798,4058,1627577817568506956,gps_frame,$GPGGA,165656.90,4616.69604184,N,11940.89068456,W,4,8,1.1,323.546,M,-17.562,M,0.9,0000*45
1627577817620143678,4059,1627577817619966030,gps_frame,$GPGGA,165656.95,4616.69607159,N,11940.89062154,W,4,8,1.1,323.542,M,-17.562,M,0.9,0000*4A
1627577817677538333,4060,1627577817677242040,gps_frame,$GPGGA,165657.00,4616.69611356,N,11940.89068919,W,4,8,1.1,323.541,M,-17.562,M,1.0,0000*4D
1627577817720157578,4061,1627577817719969034,gps_frame,$GPGGA,165657.05,4616.69615107,N,11940.89062330,W,4,8,1.1,323.538,M,-17.562,M,1.0,0000*4F
1627577817780419503,4062,1627577817780170917,gps_frame,$GPGGA,165657.10,4616.69616390,N,11940.89069858,W,4,8,1.1,323.555,M,-17.562,M,1.1,0000*40
1627577817820174831,4063,1627577817819983959,gps_frame,$GPGGA,165657.15,4616.69618576,N,11940.89062287,W,4,8,1.1,323.564,M,-17.562,M,1.1,0000*44
1627577817871050345,4064,1627577817870919942,gps_frame,$GPGGA,165657.20,4616.69622727,N,11940.89070471,W,4,8,1.1,323.549,M,-17.562,M,0.2,0000*4C
1627577817920199298,4065,1627577817919992923,gps_frame,$GPGGA,165657.25,4616.69626159,N,11940.89065918,W,4,8,1.1,323.542,M,-17.562,M,0.2,0000*4F
1627577817968898781,4066,1627577817968766927,gps_frame,$GPGGA,165657.30,4616.69629024,N,11940.89069999,W,4,8,1.1,323.550,M,-17.562,M,0.3,0000*48
1627577818020178549,4067,1627577818019957065,gps_frame,$GPGGA,165657.35,4616.69632097,N,11940.89062145,W,4,8,1.1,323.553,M,-17.562,M,0.3,0000*4E
1627577818070470609,4068,1627577818070261955,gps_frame,$GPGGA,165657.40,4616.69635932,N,11940.89070069,W,4,8,1.1,323.556,M,-17.562,M,0.4,0000*43
1627577818120205568,4069,1627577818120002031,gps_frame,$GPGGA,165657.45,4616.69639489,N,11940.89063498,W,4,8,1.1,323.559,M,-17.562,M,0.4,0000*40
1627577818168650521,4070,1627577818168503999,gps_frame,$GPGGA,165657.50,4616.69640643,N,11940.89070395,W,4,8,1.1,323.561,M,-17.562,M,0.5,0000*4C
1627577818220201374,4071,1627577818220031023,gps_frame,$GPGGA,165657.55,4616.69642676,N,11940.89062796,W,4,8,1.1,323.564,M,-17.562,M,0.5,0000*4C
1627577818270169129,4072,1627577818269963979,gps_frame,$GPGGA,165657.60,4616.69648023,N,11940.89071916,W,4,8,1.1,323.548,M,-17.562,M,0.6,0000*4F
1627577818320142184,4073,1627577818319979906,gps_frame,$GPGGA,165657.65,4616.69652157,N,11940.89068394,W,4,8,1.1,323.539,M,-17.562,M,0.6,0000*4D
1627577818369122707,4074,1627577818368974924,gps_frame,$GPGGA,165657.70,4616.69654046,N,11940.89070983,W,4,8,1.1,323.564,M,-17.562,M,0.7,0000*42
1627577818420141120,4075,1627577818419969081,gps_frame,$GPGGA,165657.75,4616.69656757,N,11940.89061116,W,4,8,1.1,323.576,M,-17.562,M,0.7,0000*45
1627577818469980958,4076,1627577818469849109,gps_frame,$GPGGA,165657.80,4616.69659625,N,11940.89073051,W,4,8,1.1,323.563,M,-17.562,M,0.8,0000*4E
1627577818520131592,4077,1627577818519999980,gps_frame,$GPGGA,165657.85,4616.69662435,N,11940.89068666,W,4,8,1.1,323.559,M,-17.562,M,0.8,0000*41
1627577818568695809,4078,1627577818568578004,gps_frame,$GPGGA,165657.90,4616.69666027,N,11940.89073453,W,4,8,1.1,323.556,M,-17.562,M,0.9,0000*46
1627577818620083512,4079,1627577818619935035,gps_frame,$GPGGA,165657.95,4616.69669333,N,11940.89067158,W,4,8,1.1,323.552,M,-17.562,M,0.9,0000*45
1627577818677149017,4080,1627577818676949977,gps_frame,$GPGGA,165658.00,4616.69671657,N,11940.89074577,W,4,8,1.1,323.546,M,-17.562,M,1.0,0000*4E
1627577818720106993,4081,1627577818719964981,gps_frame,$GPGGA,165658.05,4616.69674340,N,11940.89068110,W,4,8,1.1,323.541,M,-17.562,M,1.0,0000*42
1627577818780462844,4082,1627577818780273914,gps_frame,$GPGGA,165658.10,4616.69676925,N,11940.89076219,W,4,8,1.1,323.558,M,-17.562,M,1.1,0000*41
1627577818819995980,4083,1627577818819906949,gps_frame,$GPGGA,165658.15,4616.69679545,N,11940.89071198,W,4,8,1.1,323.568,M,-17.562,M,1.1,0000*4F
1627577818871106220,4084,1627577818870960950,gps_frame,$GPGGA,165658.20,4616.69681406,N,11940.89075868,W,4,8,1.1,323.573,M,-17.562,M,0.2,0000*42
1627577818920038350,4085,1627577818919945001,gps_frame,$GPGGA,165658.25,4616.69683544,N,11940.89069697,W,4,8,1.1,323.579,M,-17.562,M,0.2,0000*4B
1627577818969040698,4086,1627577818968848943,gps_frame,$GPGGA,165658.30,4616.69687216,N,11940.89077621,W,4,8,1.1,323.559,M,-17.562,M,0.3,0000*4A
1627577819020091044,4087,1627577819019964933,gps_frame,$GPGGA,165658.35,4616.69690327,N,11940.89074181,W,4,8,1.1,323.549,M,-17.562,M,0.3,0000*45
1627577819070193000,4088,1627577819069892883,gps_frame,$GPGGA,165658.40,4616.69690701,N,11940.89078422,W,4,8,1.1,323.557,M,-17.562,M,0.4,0000*4F
1627577819120143394,4089,1627577819119935035,gps_frame,$GPGGA,165658.45,4616.69692078,N,11940.89071805,W,4,8,1.1,323.559,M,-17.562,M,0.4,0000*4F
1627577819168676656,4090,1627577819168544054,gps_frame,$GPGGA,165658.50,4616.69695355,N,11940.89079172,W,4,8,1.1,323.563,M,-17.562,M,0.5,0000*49
1627577819220202276,4091,1627577819219996929,gps_frame,$GPGGA,165658.55,4616.69697937,N,11940.89076595,W,4,8,1.1,323.566,M,-17.562,M,0.5,0000*47
1627577819271057687,4092,1627577819270844936,gps_frame,$GPGGA,165658.60,4616.69698333,N,11940.89080180,W,4,8,1.1,323.558,M,-17.562,M,0.6,0000*47
1627577819320205007,4093,1627577819320002079,gps_frame,$GPGGA,165658.65,4616.69699529,N,11940.89075066,W,4,8,1.1,323.555,M,-17.562,M,0.6,0000*40
1627577819369005562,4094,1627577819368849992,gps_frame,$GPGGA,165658.70,4616.69702149,N,11940.89081313,W,4,8,1.1,323.558,M,-17.562,M,0.7,0000*43
1627577819420135271,4095,1627577819419960975,gps_frame,$GPGGA,165658.75,4616.69704248,N,11940.89079278,W,4,8,1.1,323.559,M,-17.562,M,0.7,0000*48
1627577819470000313,4096,1627577819469819068,gps_frame,$GPGGA,165658.80,4616.69704395,N,11940.89082727,W,4,8,1.1,323.556,M,-17.562,M,0.8,0000*48
1627577819520189471,4097,1627577819519992113,gps_frame,$GPGGA,165658.85,4616.69705256,N,11940.89078884,W,4,8,1.1,323.555,M,-17.562,M,0.8,0000*42
1627577819568947592,4098,1627577819568734884,gps_frame,$GPGGA,165658.90,4616.69707020,N,11940.89083064,W,4,8,1.1,323.554,M,-17.562,M,0.9,0000*45
1627577819620179427,4099,1627577819619981050,gps_frame,$GPGGA,165658.95,4616.69708453,N,11940.89081198,W,4,8,1.1,323.553,M,-17.562,M,0.9,0000*48
1627577819677329636,4100,1627577819677175045,gps_frame,$GPGGA,165659.00,4616.69708695,N,11940.89082658,W,4,8,1.1,323.561,M,-17.562,M,1.0,0000*4C
1627577819720077070,4101,1627577819719927072,gps_frame,$GPGGA,165659.05,4616.69709373,N,11940.89079266,W,4,8,1.1,323.565,M,-17.562,M,1.0,0000*4C
1627577819780413325,4102,1627577819780190944,gps_frame,$GPGGA,165659.10,4616.69710161,N,11940.89083262,W,4,8,1.1,323.569,M,-17.562,M,1.1,0000*4D
1627577819820137402,4103,1627577819819941997,gps_frame,$GPGGA,165659.15,4616.69710908,N,11940.89082234,W,4,8,1.1,323.573,M,-17.562,M,1.1,0000*46
1627577819871135531,4104,1627577819870959043,gps_frame,$GPGGA,165659.20,4616.69710647,N,11940.89084058,W,4,8,1.1,323.566,M,-17.562,M,0.2,0000*4C
1627577819920125123,4105,1627577819919939994,gps_frame,$GPGGA,165659.25,4616.69710755,N,11940.89082809,W,4,8,1.1,323.564,M,-17.562,M,0.2,0000*43
1627577819969004954,4106,1627577819968802928,gps_frame,$GPGGA,165659.30,4616.69711119,N,11940.89083886,W,4,8,1.1,323.573,M,-17.562,M,0.3,0000*49
1627577820020114793,4107,1627577820019932985,gps_frame,$GPGGA,165659.35,4616.69711390,N,11940.89083438,W,4,8,1.1,323.578,M,-17.562,M,0.3,0000*4D
1627577820070401162,4108,1627577820070226907,gps_frame,$GPGGA,165659.40,4616.69711335,N,11940.89084775,W,4,8,1.1,323.567,M,-17.562,M,0.4,0000*44
1627577820120115692,4109,1627577820119937896,gps_frame,$GPGGA,165659.45,4616.69711400,N,11940.89084805,W,4,8,1.1,323.562,M,-17.562,M,0.4,0000*4D
1627577820168697078,4110,1627577820168550014,gps_frame,$GPGGA,165659.50,4616.69710999,N,11940.89084223,W,4,8,1.1,323.567,M,-17.562,M,0.5,0000*4F
1627577820220182235,4111,1627577820219991922,gps_frame,$GPGGA,165659.55,4616.69710769,N,11940.89083565,W,4,8,1.1,323.569,M,-17.562,M,0.5,0000*47
1627577820270094924,4112,1627577820269912958,gps_frame,$GPGGA,165659.60,4616.69710944,N,11940.89083612,W,4,8,1.1,323.565,M,-17.562,M,0.6,0000*4C
1627577820320112760,4113,1627577820319938898,gps_frame,$GPGGA,165659.65,4616.69710970,N,11940.89083867,W,4,8,1.1,323.564,M,-17.562,M,0.6,0000*43
1627577820368964163,4114,1627577820368787050,gps_frame,$GPGGA,165659.70,4616.69710639,N,11940.89084391,W,4,8,1.1,323.562,M,-17.562,M,0.7,0000*47
1627577820420123399,4115,1627577820419950008,gps_frame,$GPGGA,165659.75,4616.69710440,N,11940.89084894,W,4,8,1.1,323.560,M,-17.562,M,0.7,0000*42
1627577820470189462,4116,1627577820469888925,gps_frame,$GPGGA,165659.80,4616.69710464,N,11940.89083592,W,4,8,1.1,323.566,M,-17.562,M,0.8,0000*4B
1627577820520160227,4117,1627577820519984006,gps_frame,$GPGGA,165659.85,4616.69710407,N,11940.89083373,W,4,8,1.1,323.569,M,-17.562,M,0.8,0000*4D
1627577820568720823,4118,1627577820568542003,gps_frame,$GPGGA,165659.90,4616.69710059,N,11940.89083836,W,4,8,1.1,323.566,M,-17.562,M,0.9,0000*42
1627577820620074652,4119,1627577820619955062,gps_frame,$GPGGA,165659.95,4616.69709818,N,11940.89084292,W,4,8,1.1,323.565,M,-17.562,M,0.9,0000*42
1627577820677553375,4120,1627577820677293062,gps_frame,$GPGGA,165700.00,4616.69709699,N,11940.89084256,W,4,8,1.1,323.566,M,-17.562,M,1.0,0000*47
1627577820720248756,4121,1627577820720046043,gps_frame,$GPGGA,165700.05,4616.69709536,N,11940.89084961,W,4,8,1.1,323.567,M,-17.562,M,1.0,0000*4A
1627577820780361294,4122,1627577820780155897,gps_frame,$GPGGA,165700.10,4616.69709704,N,11940.89083457,W,4,8,1.1,323.569,M,-17.562,M,1.1,0000*4D
1627577820820194277,4123,1627577820819999933,gps_frame,$GPGGA,165700.15,4616.69709750,N,11940.89083260,W,4,8,1.1,323.570,M,-17.562,M,1.1,0000*43
1627577820871061631,4124,1627577820870881080,gps_frame,$GPGGA,165700.20,4616.69709395,N,11940.89083645,W,4,8,1.1,323.561,M,-17.562,M,0.2,0000*49
1627577820920184157,4125,1627577820920021057,gps_frame,$GPGGA,165700.25,4616.69709187,N,11940.89083811,W,4,8,1.1,323.555,M,-17.562,M,0.2,0000*45
1627577820969025987,4126,1627577820968920946,gps_frame,$GPGGA,165700.30,4616.69709310,N,11940.89083398,W,4,8,1.1,323.565,M,-17.562,M,0.3,0000*45
1627577821020193334,4127,1627577821020015001,gps_frame,$GPGGA,165700.35,4616.69709311,N,11940.89083624,W,4,8,1.1,323.569,M,-17.562,M,0.3,0000*4F
1627577821069962630,4128,1627577821069837093,gps_frame,$GPGGA,165700.40,4616.69709132,N,11940.89083316,W,4,8,1.1,323.568,M,-17.562,M,0.4,0000*4C
1627577821120174491,4129,1627577821119980096,gps_frame,$GPGGA,165700.45,4616.69709019,N,11940.89083322,W,4,8,1.1,323.569,M,-17.562,M,0.4,0000*47
1627577821168810537,4130,1627577821168603897,gps_frame,$GPGGA,165700.50,4616.69709014,N,11940.89083634,W,4,8,1.1,323.564,M,-17.562,M,0.5,0000*40
1627577821220153032,4131,1627577821219975948,gps_frame,$GPGGA,165700.55,4616.69708969,N,11940.89084081,W,4,8,1.1,323.561,M,-17.562,M,0.5,0000*4D
1627577821270978057,4132,1627577821270818948,gps_frame,$GPGGA,165700.60,4616.69709135,N,11940.89083230,W,4,8,1.1,323.572,M,-17.562,M,0.6,0000*45
1627577821320084456,4133,1627577821319953918,gps_frame,$GPGGA,165700.65,4616.69709223,N,11940.89083017,W,4,8,1.1,323.577,M,-17.562,M,0.6,0000*46
1627577821369432322,4134,1627577821369304895,gps_frame,$GPGGA,165700.70,4616.69708876,N,11940.89083380,W,4,8,1.1,323.567,M,-17.562,M,0.7,0000*44
1627577821420118044,4135,1627577821419958114,gps_frame,$GPGGA,165700.75,4616.69708688,N,11940.89083365,W,4,8,1.1,323.563,M,-17.562,M,0.7,0000*41
1627577821469989805,4136,1627577821469815015,gps_frame,$GPGGA,165700.80,4616.69709008,N,11940.89083361,W,4,8,1.1,323.565,M,-17.562,M,0.8,0000*49
1627577821520203985,4137,1627577821520054101,gps_frame,$GPGGA,165700.85,4616.69709142,N,11940.89083712,W,4,8,1.1,323.565,M,-17.562,M,0.8,0000*43
1627577821568800622,4138,1627577821568612098,gps_frame,$GPGGA,165700.90,4616.69709093,N,11940.89083325,W,4,8,1.1,323.569,M,-17.562,M,0.9,0000*47
1627577821620112866,4139,1627577821619946002,gps_frame,$GPGGA,165700.95,4616.69709110,N,11940.89083024,W,4,8,1.1,323.571,M,-17.562,M,0.9,0000*43
1627577821678563609,4140,1627577821678021907,gps_frame,$GPGGA,165701.00,4616.69708791,N,11940.89083559,W,4,8,1.1,323.564,M,-17.562,M,1.0,0000*43
1627577821720278942,4141,1627577821719955921,gps_frame,$GPGGA,165701.05,4616.69708595,N,11940.89083671,W,4,8,1.1,323.561,M,-17.562,M,1.0,0000*4C
1627577821780133601,4142,1627577821779916048,gps_frame,$GPGGA,165701.10,4616.69709115,N,11940.89083242,W,4,8,1.1,323.568,M,-17.562,M,1.1,0000*49
1627577821820158362,4143,1627577821820028066,gps_frame,$GPGGA,165701.15,4616.69709373,N,11940.89083428,W,4,8,1.1,323.572,M,-17.562,M,1.1,0000*4F
1627577821871047423,4144,1627577821870925903,gps_frame,$GPGGA,165701.20,4616.69708977,N,11940.89083477,W,4,8,1.1,323.560,M,-17.562,M,0.2,0000*4D
1627577821920096353,4145,1627577821919964075,gps_frame,$GPGGA,165701.25,4616.69708819,N,11940.89083126,W,4,8,1.1,323.553,M,-17.562,M,0.2,0000*40
1627577821968982436,4146,1627577821968862056,gps_frame,$GPGGA,165701.30,4616.69709064,N,11940.89083109,W,4,8,1.1,323.561,M,-17.562,M,0.3,0000*4A
1627577822020208641,4147,1627577822020020961,gps_frame,$GPGGA,165701.35,4616.69709161,N,11940.89083162,W,4,8,1.1,323.563,M,-17.562,M,0.3,0000*44
1627577822070183439,4148,1627577822070024013,gps_frame,$GPGGA,165701.40,4616.69709033,N,11940.89083260,W,4,8,1.1,323.556,M,-17.562,M,0.4,0000*40
1627577822120163632,4149,1627577822119981050,gps_frame,$GPGGA,165701.45,4616.69708987,N,11940.89083221,W,4,8,1.1,323.553,M,-17.562,M,0.4,0000*42
1627577822168776775,4150,1627577822168575048,gps_frame,$GPGGA,165701.50,4616.69709167,N,11940.89083325,W,4,8,1.1,323.560,M,-17.562,M,0.5,0000*45
1627577822220127124,4151,1627577822219944000,gps_frame,$GPGGA,165701.55,4616.69709265,N,11940.89083420,W,4,8,1.1,323.563,M,-17.562,M,0.5,0000*40
1627577822270026116,4152,1627577822269890069,gps_frame,$GPGGA,165701.60,4616.69709142,N,11940.89083115,W,4,8,1.1,323.565,M,-17.562,M,0.6,0000*46
1627577822320151061,4153,1627577822319962978,gps_frame,$GPGGA,165701.65,4616.69709100,N,11940.89082770,W,4,8,1.1,323.568,M,-17.562,M,0.6,0000*4C
1627577822369063984,4154,1627577822368843078,gps_frame,$GPGGA,165701.70,4616.69708862,N,11940.89083068,W,4,8,1.1,323.558,M,-17.562,M,0.7,0000*49
1627577822420145710,4155,1627577822419982910,gps_frame,$GPGGA,165701.75,4616.69708695,N,11940.89083165,W,4,8,1.1,323.552,M,-17.562,M,0.7,0000*4C
1627577822469980980,4156,1627577822469832897,gps_frame,$GPGGA,165701.80,4616.69709015,N,11940.89083316,W,4,8,1.1,323.558,M,-17.562,M,0.8,0000*4A
1627577822520160321,4157,1627577822519995927,gps_frame,$GPGGA,165701.85,4616.69709157,N,11940.89083835,W,4,8,1.1,323.560,M,-17.562,M,0.8,0000*49
1627577822568830587,4158,1627577822568634033,gps_frame,$GPGGA,165701.90,4616.69709172,N,11940.89083004,W,4,8,1.1,323.559,M,-17.562,M,0.9,0000*4B
1627577822620152968,4159,1627577822619971990,gps_frame,$GPGGA,165701.95,4616.69709233,N,11940.89082454,W,4,8,1.1,323.559,M,-17.562,M,0.9,0000*48
1627577822677137270,4160,1627577822676939964,gps_frame,$GPGGA,165702.00,4616.69708744,N,11940.89083163,W,4,8,1.1,323.565,M,-17.562,M,1.0,0000*44
1627577822720127365,4161,1627577822719973087,gps_frame,$GPGGA,165702.05,4616.69708456,N,11940.89083195,W,4,8,1.1,323.568,M,-17.562,M,1.0,0000*45
1627577822780456406,4162,1627577822780272960,gps_frame,$GPGGA,165702.10,4616.69709151,N,11940.89083293,W,4,8,1.1,323.559,M,-17.562,M,1.1,0000*44
1627577822820161426,4163,1627577822819991111,gps_frame,$GPGGA,165702.15,4616.69709486,N,11940.89083960,W,4,8,1.1,323.554,M,-17.562,M,1.1,0000*44
1627577822871038219,4164,1627577822870917081,gps_frame,$GPGGA,165702.20,4616.69708847,N,11940.89083196,W,4,8,1.1,323.558,M,-17.562,M,0.2,0000*4D
1627577822920087702,4165,1627577822919939994,gps_frame,$GPGGA,165702.25,4616.69708565,N,11940.89082392,W,4,8,1.1,323.558,M,-17.562,M,0.2,0000*42
1627577822968959358,4166,1627577822968797922,gps_frame,$GPGGA,165702.30,4616.69708841,N,11940.89083122,W,4,8,1.1,323.565,M,-17.562,M,0.3,0000*4A
1627577823020176154,4167,1627577823020015001,gps_frame,$GPGGA,165702.35,4616.69708913,N,11940.89083711,W,4,8,1.1,323.570,M,-17.562,M,0.3,0000*4B
1627577823070038173,4168,1627577823069847106,gps_frame,$GPGGA,165702.40,4616.69708909,N,11940.89083317,W,4,8,1.1,323.560,M,-17.562,M,0.4,0000*46
1627577823120210869,4169,1627577823120007038,gps_frame,$GPGGA,165702.45,4616.69708932,N,11940.89083291,W,4,8,1.1,323.555,M,-17.562,M,0.4,0000*42
1627577823168634544,4170,1627577823168509006,gps_frame,$GPGGA,165702.50,4616.69708911,N,11940.89083126,W,4,8,1.1,323.564,M,-17.562,M,0.5,0000*4B
1627577823220528179,4171,1627577823220324993,gps_frame,$GPGGA,165702.55,4616.69708905,N,11940.89082918,W,4,8,1.1,323.568,M,-17.562,M,0.5,0000*43
1627577823271032178,4172,1627577823270817041,gps_frame,$GPGGA,165702.60,4616.69708950,N,11940.89083181,W,4,8,1.1,323.568,M,-17.562,M,0.6,0000*4F
1627577823320078211,4173,1627577823319947957,gps_frame,$GPGGA,165702.65,4616.69708976,N,11940.89083269,W,4,8,1.1,323.569,M,-17.562,M,0.6,0000*4A
1627577823368871107,4174,1627577823368786096,gps_frame,$GPGGA,165702.70,4616.69708862,N,11940.89083162,W,4,8,1.1,323.565,M,-17.562,M,0.7,0000*4F
1627577823420073661,4175,1627577823419908046,gps_frame,$GPGGA,165702.75,4616.69708800,N,11940.89083072,W,4,8,1.1,323.562,M,-17.562,M,0.7,0000*49
1627577823469997009,4176,1627577823469844102,gps_frame,$GPGGA,165702.80,4616.69708897,N,11940.89083426,W,4,8,1.1,323.564,M,-17.562,M,0.8,0000*41
1627577823520230756,4177,1627577823520041942,gps_frame,$GPGGA,165702.85,4616.69708935,N,11940.89083738,W,4,8,1.1,323.564,M,-17.562,M,0.8,0000*41
1627577823568621667,4178,1627577823568506002,gps_frame,$GPGGA,165702.90,4616.69709141,N,11940.89083118,W,4,8,1.1,323.567,M,-17.562,M,0.9,0000*49
1627577823620096524,4179,1627577823619940996,gps_frame,$GPGGA,165702.95,4616.69709286,N,11940.89082791,W,4,8,1.1,323.569,M,-17.562,M,0.9,0000*4C
1627577823677289902,4180,1627577823677103042,gps_frame,$GPGGA,165703.00,4616.69708771,N,11940.89083044,W,4,8,1.1,323.570,M,-17.562,M,1.0,0000*43
1627577823720096468,4181,1627577823719911098,gps_frame,$GPGGA,165703.05,4616.69708497,N,11940.89082746,W,4,8,1.1,323.571,M,-17.562,M,1.0,0000*48
1627577823780075398,4182,1627577823779903888,gps_frame,$GPGGA,165703.10,4616.69709060,N,11940.89082987,W,4,8,1.1,323.568,M,-17.562,M,1.1,0000*4B
1627577823820098336,4183,1627577823819924116,gps_frame,$GPGGA,165703.15,4616.69709317,N,11940.89083543,W,4,8,1.1,323.566,M,-17.562,M,1.1,0000*46
1627577823871102820,4184,1627577823870909929,gps_frame,$GPGGA,165703.20,4616.69708800,N,11940.89083419,W,4,8,1.1,323.563,M,-17.562,M,0.2,0000*45
1627577823920132363,4185,1627577823919954061,gps_frame,$GPGGA,165703.25,4616.69708567,N,11940.89083143,W,4,8,1.1,323.561,M,-17.562,M,0.2,0000*44
1627577823969085262,4186,1627577823968830108,gps_frame,$GPGGA,165703.30,4616.69708810,N,11940.89083577,W,4,8,1.1,323.562,M,-17.562,M,0.3,0000*4C
1627577824020275577,4187,1627577824020035982,gps_frame,$GPGGA,165703.35,4616.69708879,N,11940.89084111,W,4,8,1.1,323.563,M,-17.562,M,0.3,0000*44
1627577824070115846,4188,1627577824069971084,gps_frame,$GPGGA,165703.40,4616.69708770,N,11940.89083492,W,4,8,1.1,323.558,M,-17.562,M,0.4,0000*46
1627577824120095455,4189,1627577824119947910,gps_frame,$GPGGA,165703.45,4616.69708726,N,11940.89083282,W,4,8,1.1,323.555,M,-17.562,M,0.4,0000*4A
1627577824168765018,4190,1627577824168554067,gps_frame,$GPGGA,165703.50,4616.69708572,N,11940.89083482,W,4,8,1.1,323.569,M,-17.562,M,0.5,0000*45
1627577824220109155,4191,1627577824219940900,gps_frame,$GPGGA,165703.55,4616.69708457,N,11940.89083588,W,4,8,1.1,323.577,M,-17.562,M,0.5,0000*42
1627577824270105681,4192,1627577824269937038,gps_frame,$GPGGA,165703.60,4616.69708960,N,11940.89083588,W,4,8,1.1,323.565,M,-17.562,M,0.6,0000*4D
1627577824320095715,4193,1627577824319979906,gps_frame,$GPGGA,165703.65,4616.69709236,N,11940.89083902,W,4,8,1.1,323.559,M,-17.562,M,0.6,0000*40
1627577824368966550,4194,1627577824368845939,gps_frame,$GPGGA,165703.70,4616.69708739,N,11940.89083489,W,4,8,1.1,323.566,M,-17.562,M,0.7,0000*4C
1627577824420246491,4195,1627577824419990062,gps_frame,$GPGGA,165703.75,4616.69708525,N,11940.89082805,W,4,8,1.1,323.568,M,-17.562,M,0.7,0000*41
1627577824470014535,4196,1627577824469857931,gps_frame,$GPGGA,165703.80,4616.69708873,N,11940.89083344,W,4,8,1.1,323.567,M,-17.562,M,0.8,0000*4A
1627577824520250705,4197,1627577824520092010,gps_frame,$GPGGA,165703.85,4616.69709016,N,11940.89083741,W,4,8,1.1,323.568,M,-17.562,M,0.8,0000*4B
1627577824568705489,4198,1627577824568532943,gps_frame,$GPGGA,165703.90,4616.69708843,N,11940.89083620,W,4,8,1.1,323.566,M,-17.562,M,0.9,0000*4F
1627577824620203945,4199,1627577824619961977,gps_frame,$GPGGA,165703.95,4616.69708786,N,11940.89083503,W,4,8,1.1,323.564,M,-17.562,M,0.9,0000*4C
1627577824676705605,4200,1627577824676604986,gps_frame,$GPGGA,165704.00,4616.69708658,N,11940.89083592,W,4,8,1.1,323.561,M,-17.562,M,1.0,0000*40
1627577824720147972,4201,1627577824719949007,gps_frame,$GPGGA,165704.05,4616.69708556,N,11940.89083647,W,4,8,1.1,323.559,M,-17.562,M,1.0,0000*48
1627577824780463485,4202,1627577824780220985,gps_frame,$GPGGA,165704.10,4616.69708825,N,11940.89083746,W,4,8,1.1,323.566,M,-17.562,M,1.1,0000*48
1627577824820116925,4203,1627577824819962024,gps_frame,$GPGGA,165704.15,4616.69708958,N,11940.89084085,W,4,8,1.1,323.570,M,-17.562,M,1.1,0000*4E
1627577824871210012,4204,1627577824870989084,gps_frame,$GPGGA,165704.20,4616.69708892,N,11940.89083556,W,4,8,1.1,323.559,M,-17.562,M,0.2,0000*4A
1627577824920125137,4205,1627577824919945001,gps_frame,$GPGGA,165704.25,4616.69708899,N,11940.89083113,W,4,8,1.1,323.553,M,-17.562,M,0.2,0000*4B
1627577824969095493,4206,1627577824968924999,gps_frame,$GPGGA,165704.30,4616.69708766,N,11940.89083413,W,4,8,1.1,323.558,M,-17.562,M,0.3,0000*4F
1627577825020173720,4207,1627577825019993066,gps_frame,$GPGGA,165704.35,4616.69708683,N,11940.89083348,W,4,8,1.1,323.559,M,-17.562,M,0.3,0000*48
1627577825070029901,4208,1627577825069840908,gps_frame,$GPGGA,165704.40,4616.69708722,N,11940.89083178,W,4,8,1.1,323.563,M,-17.562,M,0.4,0000*4F
1627577825120146054,4209,1627577825119996070,gps_frame,$GPGGA,165704.45,4616.69708716,N,11940.89083222,W,4,8,1.1,323.566,M,-17.562,M,0.4,0000*44
1627577825168795083,4210,1627577825168553113,gps_frame,$GPGGA,165704.50,4616.69707937,N,11940.89083298,W,4,8,1.1,323.565,M,-17.562,M,0.5,0000*41
1627577825220167079,4211,1627577825219983100,gps_frame,$GPGGA,165704.55,4616.69707440,N,11940.89083423,W,4,8,1.1,323.565,M,-17.562,M,0.5,0000*4F
1627577825271016778,4212,1627577825270833015,gps_frame,$GPGGA,165704.60,4616.69707847,N,11940.89083034,W,4,8,1.1,323.560,M,-17.562,M,0.6,0000*46
1627577825320159692,4213,1627577825320019006,gps_frame,$GPGGA,165704.65,4616.69707923,N,11940.89083920,W,4,8,1.1,323.556,M,-17.562,M,0.6,0000*49
1627577825369066139,4214,1627577825368871927,gps_frame,$GPGGA,165704.70,4616.69707369,N,11940.89082902,W,4,8,1.1,323.565,M,-17.562,M,0.7,0000*49
1627577825420379128,4215,1627577825420164108,gps_frame,$GPGGA,165704.75,4616.69707046,N,11940.89082705,W,4,8,1.1,323.569,M,-17.562,M,0.7,0000*47
1627577825470124795,4216,1627577825469892978,gps_frame,$GPGGA,165704.80,4616.69706728,N,11940.89082281,W,4,8,1.1,323.565,M,-17.562,M,0.8,0000*49
1627577825520233040,4217,1627577825520026922,gps_frame,$GPGGA,165704.85,4616.69706409,N,11940.89082601,W,4,8,1.1,323.563,M,-17.562,M,0.8,0000*46
1627577825568635341,4218,1627577825568485975,gps_frame,$GPGGA,165704.90,4616.69706057,N,11940.89082042,W,4,8,1.1,323.567,M,-17.562,M,0.9,0000*49
1627577825620173646,4219,1627577825620021104,gps_frame,$GPGGA,165704.95,4616.69705717,N,11940.89082692,W,4,8,1.1,323.569,M,-17.562,M,0.9,0000*49
1627577825677499759,4220,1627577825677319049,gps_frame,$GPGGA,165705.00,4616.69704753,N,11940.89081475,W,4,8,1.1,323.566,M,-17.562,M,1.0,0000*4A
1627577825720408348,4221,1627577825720119953,gps_frame,$GPGGA,165705.05,4616.69704017,N,11940.89081872,W,4,8,1.1,323.565,M,-17.562,M,1.0,0000*40
1627577825780288161,4222,1627577825780100107,gps_frame,$GPGGA,165705.10,4616.69703102,N,11940.89080501,W,4,8,1.1,323.559,M,-17.562,M,1.1,0000*40
1627577825820147214,4223,1627577825819914102,gps_frame,$GPGGA,165705.15,4616.69702253,N,11940.89081583,W,4,8,1.1,323.555,M,-17.562,M,1.1,0000*44
1627577825871116690,4224,1627577825870942115,gps_frame,$GPGGA,165705.20,4616.69701760,N,11940.89079884,W,4,8,1.1,323.570,M,-17.562,M,0.2,0000*4C
1627577825920163015,4225,1627577825920002937,gps_frame,$GPGGA,165705.25,4616.69701137,N,11940.89081489,W,4,8,1.1,323.578,M,-17.562,M,0.2,0000*43
1627577825969147728,4226,1627577825968888044,gps_frame,$GPGGA,165705.30,4616.69700244,N,11940.89078215,W,4,8,1.1,323.566,M,-17.562,M,0.3,0000*4A
1627577826020173576,4227,1627577826019979000,gps_frame,$GPGGA,165705.35,4616.69699451,N,11940.89078586,W,4,8,1.1,323.562,M,-17.562,M,0.3,0000*45
1627577826070488283,4228,1627577826070318937,gps_frame,$GPGGA,165705.40,4616.69698188,N,11940.89077182,W,4,8,1.1,323.569,M,-17.562,M,0.4,0000*44
1627577826120039298,4229,1627577826119914054,gps_frame,$GPGGA,165705.45,4616.69697097,N,11940.89078527,W,4,8,1.1,323.572,M,-17.562,M,0.4,0000*4F
1627577826168754285,4230,1627577826168567895,gps_frame,$GPGGA,165705.50,4616.69696265,N,11940.89075903,W,4,8,1.1,323.566,M,-17.562,M,0.5,0000*46
1627577826220189888,4231,1627577826219985961,gps_frame,$GPGGA,165705.55,4616.69695338,N,11940.89077580,W,4,8,1.1,323.564,M,-17.562,M,0.5,0000*4E
1627577826270155404,4232,1627577826269982099,gps_frame,$GPGGA,165705.60,4616.69693717,N,11940.89074071,W,4,8,1.1,323.576,M,-17.562,M,0.6,0000*4F
1627577826320549456,4233,1627577826320303916,gps_frame,$GPGGA,165705.65,4616.69692351,N,11940.89075123,W,4,8,1.1,323.582,M,-17.562,M,0.6,0000*41
1627577826368903631,4234,1627577826368736028,gps_frame,$GPGGA,165705.70,4616.69690783,N,11940.89072240,W,4,8,1.1,323.576,M,-17.562,M,0.7,0000*47
1627577826420151805,4235,1627577826419955015,gps_frame,$GPGGA,165705.75,4616.69689289,N,11940.89074325,W,4,8,1.1,323.574,M,-17.562,M,0.7,0000*43
1627577826470128368,4236,1627577826469801902,gps_frame,$GPGGA,165705.80,4616.69688375,N,11940.89070387,W,4,8,1.1,323.567,M,-17.562,M,0.8,0000*4B
1627577826520094940,4237,1627577826519975900,gps_frame,$GPGGA,165705.85,4616.69687248,N,11940.89072716,W,4,8,1.1,323.561,M,-17.562,M,0.8,0000*46
1627577826568693582,4238,1627577826568542003,gps_frame,$GPGGA,165705.90,4616.69684488,N,11940.89067773,W,4,8,1.1,323.570,M,-17.562,M,0.9,0000*4D
1627577826620096544,4239,1627577826619962930,gps_frame,$GPGGA,165705.95,4616.69682325,N,11940.89068827,W,4,8,1.1,323.574,M,-17.562,M,0.9,0000*4B
1627577826677420115,4240,1627577826677244901,gps_frame,$GPGGA,165706.00,4616.69680689,N,11940.89063950,W,4,8,1.1,323.573,M,-17.562,M,1.0,0000*40
1627577826720131989,4241,1627577826719974994,gps_frame,$GPGGA,165706.05,4616.69678861,N,11940.89066627,W,4,8,1.1,323.574,M,-17.562,M,1.0,0000*47
1627577826780305777,4242,1627577826780114889,gps_frame,$GPGGA,165706.10,4616.69676709,N,11940.89060938,W,4,8,1.1,323.573,M,-17.562,M,1.1,0000*4D
1627577826820089919,4243,1627577826819931030,gps_frame,$GPGGA,165706.15,4616.69674675,N,11940.89063571,W,4,8,1.1,323.573,M,-17.562,M,1.1,0000*42
1627577826871090734,4244,1627577826870906114,gps_frame,$GPGGA,165706.20,4616.69672199,N,11940.89055827,W,4,8,1.1,323.574,M,-17.562,M,0.2,0000*49
1627577826920134249,4245,1627577826919998884,gps_frame,$GPGGA,165706.25,4616.69669885,N,11940.89057392,W,4,8,1.1,323.575,M,-17.562,M,0.2,0000*44
1627577826969084152,4246,1627577826968923091,gps_frame,$GPGGA,165706.30,4616.69668153,N,11940.89051126,W,4,8,1.1,323.565,M,-17.562,M,0.3,0000*48
1627577827020086756,4247,1627577827019995927,gps_frame,$GPGGA,165706.35,4616.69666209,N,11940.89053971,W,4,8,1.1,323.559,M,-17.562,M,0.3,0000*48
1627577827070006552,4248,1627577827069849014,gps_frame,$GPGGA,165706.40,4616.69663715,N,11940.89045066,W,4,8,1.1,323.590,M,-17.562,M,0.4,0000*4D
1627577827120126429,4249,1627577827119978904,gps_frame,$GPGGA,165706.45,4616.69661422,N,11940.89046065,W,4,8,1.1,323.608,M,-17.562,M,0.4,0000*4F
1627577827168724713,4250,1627577827168572902,gps_frame,$GPGGA,165706.50,4616.69660353,N,11940.89040815,W,4,8,1.1,323.577,M,-17.562,M,0.5,0000*48
1627577827220071482,4251,1627577827219914913,gps_frame,$GPGGA,165706.55,4616.69658836,N,11940.89043999,W,4,8,1.1,323.563,M,-17.562,M,0.5,0000*4D
1627577827270932552,4252,1627577827270811080,gps_frame,$GPGGA,165706.60,4616.69655249,N,11940.89032617,W,4,8,1.1,323.593,M,-17.562,M,0.6,0000*47
1627577827320150629,4253,1627577827319956064,gps_frame,$GPGGA,165706.65,4616.69652419,N,11940.89031221,W,4,8,1.1,323.608,M,-17.562,M,0.6,0000*45
1627577827369598520,4254,1627577827369414091,gps_frame,$GPGGA,165706.70,4616.69652080,N,11940.89028815,W,4,8,1.1,323.583,M,-17.562,M,0.7,0000*41
1627577827420275815,4255,1627577827420151948,gps_frame,$GPGGA,165706.75,4616.69650829,N,11940.89033847,W,4,8,1.1,323.572,M,-17.562,M,0.7,0000*4E
1627577827470021517,4256,1627577827469840049,gps_frame,$GPGGA,165706.80,4616.69647086,N,11940.89020808,W,4,8,1.1,323.588,M,-17.562,M,0.8,0000*4C
1627577827520177371,4257,1627577827520000934,gps_frame,$GPGGA,165706.85,4616.69644256,N,11940.89018772,W,4,8,1.1,323.594,M,-17.562,M,0.8,0000*41
1627577827568689002,4258,1627577827568532943,gps_frame,$GPGGA,165706.90,4616.69642618,N,11940.89015481,W,4,8,1.1,323.591,M,-17.562,M,0.9,0000*4B
1627577827620115826,4259,1627577827619987964,gps_frame,$GPGGA,165706.95,4616.69640544,N,11940.89019563,W,4,8,1.1,323.592,M,-17.562,M,0.9,0000*44
1627577827677183340,4260,1627577827677051067,gps_frame,$GPGGA,165707.00,4616.69638439,N,11940.89009689,W,4,8,1.1,323.586,M,-17.562,M,1.0,0000*46
1627577827720155387,4261,1627577827719999074,gps_frame,$GPGGA,165707.05,4616.69636345,N,11940.89011111,W,4,8,1.1,323.583,M,-17.562,M,1.0,0000*4B
1627577827780119153,4262,1627577827779923915,gps_frame,$GPGGA,165707.10,4616.69634486,N,11940.89002101,W,4,8,1.1,323.590,M,-17.562,M,1.1,0000*45
1627577827820092474,4263,1627577827819921016,gps_frame,$GPGGA,165707.15,4616.69632542,N,11940.89002697,W,4,8,1.1,323.593,M,-17.562,M,1.1,0000*44
1627577827871102055,4264,1627577827870943069,gps_frame,$GPGGA,165707.20,4616.69629599,N,11940.88995233,W,4,8,1.1,323.568,M,-17.562,M,0.2,0000*44
1627577827920118591,4265,1627577827919975996,gps_frame,$GPGGA,165707.25,4616.69627021,N,11940.88996192,W,4,8,1.1,323.553,M,-17.562,M,0.2,0000*4A
1627577827969030470,4266,1627577827968847990,gps_frame,$GPGGA,165707.30,4616.69625729,N,11940.88987148,W,4,8,1.1,323.582,M,-17.562,M,0.3,0000*49
1627577828020054787,4267,1627577828019931077,gps_frame,$GPGGA,165707.35,4616.69623966,N,11940.88988533,W,4,8,1.1,323.594,M,-17.562,M,0.3,0000*4F
1627577828070112604,4268,1627577828069962024,gps_frame,$GPGGA,165707.40,4616.69621169,N,11940.88980672,W,4,8,1.1,323.554,M,-17.562,M,0.4,0000*4D
1627577828120088212,4269,1627577828119936943,gps_frame,$GPGGA,165707.45,4616.69618751,N,11940.88981555,W,4,8,1.1,323.533,M,-17.562,M,0.4,0000*49
1627577828168699176,4270,1627577828168523073,gps_frame,$GPGGA,165707.50,4616.69616097,N,11940.88971277,W,4,8,1.1,323.559,M,-17.562,M,0.5,0000*4B
1627577828220081752,4271,1627577828219897031,gps_frame,$GPGGA,165707.55,4616.69613530,N,11940.88971399,W,4,8,1.1,323.568,M,-17.562,M,0.5,0000*40
1627577828270420657,4272,1627577828270260095,gps_frame,$GPGGA,165707.60,4616.69612141,N,11940.88962954,W,4,8,1.1,323.560,M,-17.562,M,0.6,0000*47
1627577828320563706,4273,1627577828320118904,gps_frame,$GPGGA,165707.65,4616.69610321,N,11940.88964668,W,4,8,1.1,323.558,M,-17.562,M,0.6,0000*49
1627577828368949971,4274,1627577828368823051,gps_frame,$GPGGA,165707.70,4616.69608404,N,11940.88952069,W,4,8,1.1,323.557,M,-17.562,M,0.7,0000*48
1627577828420227357,4275,1627577828420042037,gps_frame,$GPGGA,165707.75,4616.69606523,N,11940.88950187,W,4,8,1.1,323.556,M,-17.562,M,0.7,0000*45
1627577828470001517,4276,1627577828469814062,gps_frame,$GPGGA,165707.80,4616.69605590,N,11940.88943497,W,4,8,1.1,323.553,M,-17.562,M,0.8,0000*48
1627577828520145620,4277,1627577828519975900,gps_frame,$GPGGA,165707.85,4616.69604310,N,11940.88943742,W,4,8,1.1,323.551,M,-17.562,M,0.8,0000*4B
1627577828568643410,4278,1627577828568485021,gps_frame,$GPGGA,165707.90,4616.69602327,N,11940.88932523,W,4,8,1.1,323.558,M,-17.562,M,0.9,0000*46
1627577828620057384,4279,1627577828619920969,gps_frame,$GPGGA,165707.95,4616.69600602,N,11940.88929398,W,4,8,1.1,323.562,M,-17.562,M,0.9,0000*46
1627577828677103975,4280,1627577828676934003,gps_frame,$GPGGA,165708.00,4616.69599167,N,11940.88922008,W,4,8,1.1,323.563,M,-17.562,M,1.0,0000*4A
1627577828720132045,4281,1627577828719954967,gps_frame,$GPGGA,165708.05,4616.69597626,N,11940.88920697,W,4,8,1.1,323.565,M,-17.562,M,1.0,0000*47
1627577828780562191,4282,1627577828780261039,gps_frame,$GPGGA,165708.10,4616.69596719,N,11940.88909818,W,4,8,1.1,323.550,M,-17.562,M,1.1,0000*4A
1627577828820101289,4283,1627577828819901943,gps_frame,$GPGGA,165708.15,4616.69595580,N,11940.88906817,W,4,8,1.1,323.542,M,-17.562,M,1.1,0000*4D
1627577828871037111,4284,1627577828870882987,gps_frame,$GPGGA,165708.20,4616.69596384,N,11940.88900279,W,4,8,1.1,323.552,M,-17.562,M,0.2,0000*4D
1627577828920044437,4285,1627577828919922113,gps_frame,$GPGGA,165708.25,4616.69596477,N,11940.88898424,W,4,8,1.1,323.555,M,-17.562,M,0.2,0000*4A
1627577828969051976,4286,1627577828968841075,gps_frame,$GPGGA,165708.30,4616.69593695,N,11940.88886960,W,4,8,1.1,323.557,M,-17.562,M,0.3,0000*44
1627577829020119763,4287,1627577829019962072,gps_frame,$GPGGA,165708.35,4616.69591966,N,11940.88879477,W,4,8,1.1,323.560,M,-17.562,M,0.3,0000*4F
1627577829070057361,4288,1627577829069907903,gps_frame,$GPGGA,165708.40,4616.69593126,N,11940.88877893,W,4,8,1.1,323.530,M,-17.562,M,0.4,0000*49
1627577829120112618,4289,1627577829119967937,gps_frame,$GPGGA,165708.45,4616.69593228,N,11940.88877874,W,4,8,1.1,323.511,M,-17.562,M,0.4,0000*4B
1627577829168719035,4290,1627577829168556928,gps_frame,$GPGGA,165708.50,4616.69590110,N,11940.88864361,W,4,8,1.1,323.558,M,-17.562,M,0.5,0000*45
1627577829220095815,4291,1627577829219954013,gps_frame,$GPGGA,165708.55,4616.69588170,N,11940.88856576,W,4,8,1.1,323.580,M,-17.562,M,0.5,0000*4B
1627577829270994031,4292,1627577829270837068,gps_frame,$GPGGA,165708.60,4616.69589813,N,11940.88853038,W,4,8,1.1,323.543,M,-17.562,M,0.6,0000*46
1627577829320141030,4293,1627577829319979906,gps_frame,$GPGGA,165708.65,4616.69590144,N,11940.88852122,W,4,8,1.1,323.528,M,-17.562,M,0.6,0000*46
1627577829369366470,4294,1627577829369257926,gps_frame,$GPGGA,165708.70,4616.69588398,N,11940.88843384,W,4,8,1.1,323.529,M,-17.562,M,0.7,0000*46
1627577829420105949,4295,1627577829419938087,gps_frame,$GPGGA,165708.75,4616.69587412,N,11940.88837921,W,4,8,1.1,323.524,M,-17.562,M,0.7,0000*42
1627577829470000785,4296,1627577829469839096,gps_frame,$GPGGA,165708.80,4616.69587568,N,11940.88828802,W,4,8,1.1,323.526,M,-17.562,M,0.8,0000*47
1627577829520108563,4297,1627577829519975900,gps_frame,$GPGGA,165708.85,4616.69587306,N,11940.88822980,W,4,8,1.1,323.525,M,-17.562,M,0.8,0000*4E
1627577829568708733,4298,1627577829568528890,gps_frame,$GPGGA,165708.90,4616.69586390,N,11940.88819610,W,4,8,1.1,323.508,M,-17.562,M,0.9,0000*44
1627577829620092557,4299,1627577829619940042,gps_frame,$GPGGA,165708.95,4616.69585714,N,11940.88816492,W,4,8,1.1,323.497,M,-17.562,M,0.9,0000*4A
1627577829677303447,4300,1627577829677107095,gps_frame,$GPGGA,165709.00,4616.69587310,N,11940.88808014,W,4,8,1.1,323.518,M,-17.562,M,1.0,0000*4E
1627577829720162600,4301,1627577829719969987,gps_frame,$GPGGA,165709.05,4616.69588074,N,11940.88803129,W,4,8,1.1,323.528,M,-17.562,M,1.0,0000*42
1627577829780608602,4302,1627577829780338048,gps_frame,$GPGGA,165709.10,4616.69587723,N,11940.88799803,W,4,8,1.1,323.511,M,-17.562,M,1.1,0000*4A
1627577829820126064,4303,1627577829819947004,gps_frame,$GPGGA,165709.15,4616.69587780,N,11940.88794633,W,4,8,1.1,323.504,M,-17.562,M,1.1,0000*42
1627577829871053630,4304,1627577829870894908,gps_frame,$GPGGA,165709.20,4616.69588482,N,11940.88787948,W,4,8,1.1,323.525,M,-17.562,M,0.2,0000*4A
1627577829920185597,4305,1627577829919991016,gps_frame,$GPGGA,165709.25,4616.69588948,N,11940.88781246,W,4,8,1.1,323.536,M,-17.562,M,0.2,0000*45
1627577829969210705,4306,1627577829968924045,gps_frame,$GPGGA,165709.30,4616.69588202,N,11940.88780558,W,4,8,1.1,323.496,M,-17.562,M,0.3,0000*47
1627577830020117307,4307,1627577830019967079,gps_frame,$GPGGA,165709.35,4616.69587900,N,11940.88776617,W,4,8,1.1,323.475,M,-17.562,M,0.3,0000*48
1627577830070153143,4308,1627577830069972038,gps_frame,$GPGGA,165709.40,4616.69589351,N,11940.88769854,W,4,8,1.1,323.508,M,-17.562,M,0.4,0000*41
1627577830120085993,4309,1627577830119965076,gps_frame,$GPGGA,165709.45,4616.69590160,N,11940.88764512,W,4,8,1.1,323.521,M,-17.562,M,0.4,0000*45
1627577830168822880,4310,1627577830168616056,gps_frame,$GPGGA,165709.50,4616.69590262,N,11940.88762717,W,4,8,1.1,323.505,M,-17.562,M,0.5,0000*46
1627577830220088749,4311,1627577830219940900,gps_frame,$GPGGA,165709.55,4616.69590622,N,11940.88758033,W,4,8,1.1,323.499,M,-17.562,M,0.5,0000*4F
1627577830270062367,4312,1627577830269877910,gps_frame,$GPGGA,165709.60,4616.69591251,N,11940.88752979,W,4,8,1.1,323.503,M,-17.562,M,0.6,0000*44
1627577830320168286,4313,1627577830319981098,gps_frame,$GPGGA,165709.65,4616.69591781,N,11940.88746799,W,4,8,1.1,323.503,M,-17.562,M,0.6,0000*4C
1627577830369053558,4314,1627577830368913888,gps_frame,$GPGGA,165709.70,4616.69591451,N,11940.88744462,W,4,8,1.1,323.496,M,-17.562,M,0.7,0000*4F
1627577830420287869,4315,1627577830420104026,gps_frame,$GPGGA,165709.75,4616.69591437,N,11940.88739349,W,4,8,1.1,323.492,M,-17.562,M,0.7,0000*4A
1627577830470009038,4316,1627577830469824075,gps_frame,$GPGGA,165709.80,4616.69592307,N,11940.88737241,W,4,8,1.1,323.485,M,-17.562,M,0.8,0000*49
1627577830520685462,4317,1627577830520498037,gps_frame,$GPGGA,165709.85,4616.69592854,N,11940.88733755,W,4,8,1.1,323.479,M,-17.562,M,0.8,0000*46
1627577830568887325,4318,1627577830568639993,gps_frame,$GPGGA,165709.90,4616.69592406,N,11940.88730099,W,4,8,1.1,323.490,M,-17.562,M,0.9,0000*4B
1627577830620346424,4319,1627577830620160102,gps_frame,$GPGGA,165709.95,4616.69592322,N,11940.88725320,W,4,8,1.1,323.495,M,-17.562,M,0.9,0000*4F
1627577830677253210,4320,1627577830677047967,gps_frame,$GPGGA,165710.00,4616.69593601,N,11940.88723033,W,4,8,1.1,323.485,M,-17.562,M,1.0,0000*40
1627577830720129804,4321,1627577830719937086,gps_frame,$GPGGA,165710.05,4616.69594382,N,11940.88719697,W,4,8,1.1,323.480,M,-17.562,M,1.0,0000*48
1627577830780779489,4322,1627577830780615091,gps_frame,$GPGGA,165710.10,4616.69594451,N,11940.88714532,W,4,8,1.1,323.477,M,-17.562,M,1.1,0000*4D
1627577830820083086,4323,1627577830819909095,gps_frame,$GPGGA,165710.15,4616.69594780,N,11940.88708382,W,4,8,1.1,323.474,M,-17.562,M,1.1,0000*44
1627577830871081015,4324,1627577830870918035,gps_frame,$GPGGA,165710.20,4616.69595445,N,11940.88709276,W,4,8,1.1,323.447,M,-17.562,M,0.2,0000*40
1627577830920082798,4325,1627577830919934988,gps_frame,$GPGGA,165710.25,4616.69595987,N,11940.88706416,W,4,8,1.1,323.428,M,-17.562,M,0.2,0000*40
1627577830968971851,4326,1627577830968817949,gps_frame,$GPGGA,165710.30,4616.69598144,N,11940.88699076,W,4,8,1.1,323.463,M,-17.562,M,0.3,0000*45
1627577831020073095,4327,1627577831019946098,gps_frame,$GPGGA,165710.35,4616.69599710,N,11940.88691999,W,4,8,1.1,323.479,M,-17.562,M,0.3,0000*4D
1627577831069921224,4328,1627577831069777011,gps_frame,$GPGGA,165710.40,4616.69598995,N,11940.88692341,W,4,8,1.1,323.430,M,-17.562,M,0.4,0000*4B
1627577831120129791,4329,1627577831119957923,gps_frame,$GPGGA,165710.45,4616.69599115,N,11940.88686230,W,4,8,1.1,323.405,M,-17.562,M,0.4,0000*4B
1627577831168812249,4330,1627577831168603897,gps_frame,$GPGGA,165710.50,4616.69602365,N,11940.88682864,W,4,8,1.1,323.432,M,-17.562,M,0.5,0000*41
1627577831220090402,4331,1627577831219937086,gps_frame,$GPGGA,165710.55,4616.69604470,N,11940.88677316,W,4,8,1.1,323.441,M,-17.562,M,0.5,0000*41
1627577831270952598,4332,1627577831270833015,gps_frame,$GPGGA,165710.60,4616.69602057,N,11940.88676322,W,4,8,1.1,323.421,M,-17.562,M,0.6,0000*43
1627577831320074595,4333,1627577831319921970,gps_frame,$GPGGA,165710.65,4616.69601297,N,11940.88668994,W,4,8,1.1,323.411,M,-17.562,M,0.6,0000*40
1627577831369066714,4334,1627577831368891954,gps_frame,$GPGGA,165710.70,4616.69605825,N,11940.88667242,W,4,8,1.1,323.420,M,-17.562,M,0.7,0000*4F
1627577831420047853,4335,1627577831419948101,gps_frame,$GPGGA,165710.75,4616.69608418,N,11940.88663875,W,4,8,1.1,323.423,M,-17.562,M,0.7,0000*4C
1627577831469981057,4336,1627577831469820976,gps_frame,$GPGGA,165710.80,4616.69606624,N,11940.88659191,W,4,8,1.1,323.430,M,-17.562,M,0.8,0000*42
1627577831520076513,4337,1627577831519961118,gps_frame,$GPGGA,165710.85,4616.69606436,N,11940.88649771,W,4,8,1.1,323.435,M,-17.562,M,0.8,0000*4A
1627577831568885262,4338,1627577831568793058,gps_frame,$GPGGA,165710.90,4616.69613127,N,11940.88650364,W,4,8,1.1,323.421,M,-17.562,M,0.9,0000*43
1627577831620088985,4339,1627577831619950056,gps_frame,$GPGGA,165710.95,4616.69617299,N,11940.88646185,W,4,8,1.1,323.415,M,-17.562,M,0.9,0000*49
1627577831677211474,4340,1627577831677057981,gps_frame,$GPGGA,165711.00,4616.69613742,N,11940.88642696,W,4,8,1.1,323.422,M,-17.562,M,1.0,0000*4E
1627577831720045755,4341,1627577831719912052,gps_frame,$GPGGA,165711.05,4616.69613015,N,11940.88629951,W,4,8,1.1,323.424,M,-17.562,M,1.0,0000*41
1627577831780422812,4342,1627577831780200004,gps_frame,$GPGGA,165711.10,4616.69619157,N,11940.88638405,W,4,8,1.1,323.427,M,-17.562,M,1.1,0000*46
1627577831820210319,4343,1627577831820029020,gps_frame,$GPGGA,165711.15,4616.69622784,N,11940.88638247,W,4,8,1.1,323.430,M,-17.562,M,1.1,0000*45
1627577831871015350,4344,1627577831870892047,gps_frame,$GPGGA,165711.20,4616.69620577,N,11940.88629166,W,4,8,1.1,323.430,M,-17.562,M,0.2,0000*4D
1627577831920067309,4345,1627577831919943094,gps_frame,$GPGGA,165711.25,4616.69620507,N,11940.88615853,W,4,8,1.1,323.431,M,-17.562,M,0.2,0000*4E
1627577831968951757,4346,1627577831968770027,gps_frame,$GPGGA,165711.30,4616.69622041,N,11940.88622940,W,4,8,1.1,323.411,M,-17.562,M,0.3,0000*4B
1627577832020070868,4347,1627577832019949913,gps_frame,$GPGGA,165711.35,4616.69622989,N,11940.88620593,W,4,8,1.1,323.399,M,-17.562,M,0.3,0000*44
1627577832070297025,4348,1627577832070173025,gps_frame,$GPGGA,165711.40,4616.69623497,N,11940.88613096,W,4,8,1.1,323.416,M,-17.562,M,0.4,0000*42
