%time,field.header.seq,field.header.stamp,field.header.frame_id,field.sentence
1627577871469646651,5136,1627577871469433069,gps_frame,$GPGGA,165750.80,4616.72310758,N,11940.86255861,W,4,5,1.9,321.849,M,-17.561,M,0.8,0000*42
1627577871520305287,5137,1627577871520042896,gps_frame,$GPGGA,165750.85,4616.72316073,N,11940.86244976,W,4,5,1.9,321.833,M,-17.561,M,0.8,0000*45
1627577871568697190,5138,1627577871568396091,gps_frame,$GPGGA,165750.90,4616.72317220,N,11940.86248143,W,4,5,1.9,321.846,M,-17.561,M,0.9,0000*45
1627577871620141764,5139,1627577871619908094,gps_frame,$GPGGA,165750.95,4616.72319893,N,11940.86232697,W,4,5,1.9,321.849,M,-17.561,M,0.9,0000*40
1627577871676336491,5140,1627577871676152944,gps_frame,$GPGGA,165751.00,4616.72326025,N,11940.86245001,W,4,5,1.9,321.815,M,-17.561,M,1.0,0000*4C
1627577871720125951,5141,1627577871719932079,gps_frame,$GPGGA,165751.05,4616.72330890,N,11940.86238200,W,4,5,1.9,321.795,M,-17.561,M,1.0,0000*46
1627577871768818314,5142,1627577871768564939,gps_frame,$GPGGA,165751.10,4616.72333760,N,11940.86239365,W,4,5,1.9,321.882,M,-17.561,M,1.1,0000*4A
1627577871820185186,5143,1627577871819987058,gps_frame,$GPGGA,165751.15,4616.72337360,N,11940.86225422,W,4,5,1.9,321.931,M,-17.561,M,1.1,0000*4F
1627577871871616869,5144,1627577871871397018,gps_frame,$GPGGA,165751.20,4616.72339132,N,11940.86233706,W,4,5,1.9,321.819,M,-17.561,M,0.2,0000*49
1627577871920179152,5145,1627577871919981956,gps_frame,$GPGGA,165751.25,4616.72341574,N,11940.86223142,W,4,5,1.9,321.766,M,-17.561,M,0.2,0000*45
1627577871968872277,5146,1627577871968558073,gps_frame,$GPGGA,165751.30,4616.72350259,N,11940.86224957,W,4,5,1.9,321.799,M,-17.561,M,0.3,0000*43
1627577872020194550,5147,1627577872020003080,gps_frame,$GPGGA,165751.35,4616.72356658,N,11940.86214802,W,4,5,1.9,321.800,M,-17.561,M,0.3,0000*48
1627577872069788310,5148,1627577872069555044,gps_frame,$GPGGA,165751.40,4616.72354976,N,11940.86219017,W,4,5,1.9,321.806,M,-17.561,M,0.4,0000*4B
1627577872120071403,5149,1627577872119915962,gps_frame,$GPGGA,165751.45,4616.72356254,N,11940.86202566,W,4,5,1.9,321.810,M,-17.561,M,0.4,0000*49
1627577872168404741,5150,1627577872168193101,gps_frame,$GPGGA,165751.50,4616.72362582,N,11940.86216574,W,4,5,1.9,321.790,M,-17.561,M,0.5,0000*46
1627577872220146443,5151,1627577872219959020,gps_frame,$GPGGA,165751.55,4616.72367061,N,11940.86212900,W,4,5,1.9,321.779,M,-17.561,M,0.5,0000*42
1627577872269707688,5152,1627577872269473075,gps_frame,$GPGGA,165751.60,4616.72371573,N,11940.86207933,W,4,5,1.9,321.808,M,-17.561,M,0.6,0000*4B
1627577872320041351,5153,1627577872319905042,gps_frame,$GPGGA,165751.65,4616.72376074,N,11940.86192909,W,4,5,1.9,321.823,M,-17.561,M,0.6,0000*44
1627577872368571034,5154,1627577872368320941,gps_frame,$GPGGA,165751.70,4616.72376805,N,11940.86201913,W,4,5,1.9,321.801,M,-17.561,M,0.7,0000*4D
1627577872420206780,5155,1627577872420012950,gps_frame,$GPGGA,165751.75,4616.72378916,N,11940.86189671,W,4,5,1.9,321.793,M,-17.561,M,0.7,0000*49
1627577872469609798,5156,1627577872469393014,gps_frame,$GPGGA,165751.80,4616.72384132,N,11940.86197858,W,4,5,1.9,321.766,M,-17.561,M,0.8,0000*41
1627577872520164672,5157,1627577872520032882,gps_frame,$GPGGA,165751.85,4616.72388211,N,11940.86191323,W,4,5,1.9,321.745,M,-17.561,M,0.8,0000*4A
1627577872568507240,5158,1627577872568257093,gps_frame,$GPGGA,165751.90,4616.72393778,N,11940.86187459,W,4,5,1.9,321.756,M,-17.561,M,0.9,0000*40
1627577872620112670,5159,1627577872619915962,gps_frame,$GPGGA,165751.95,4616.72398801,N,11940.86172471,W,4,5,1.9,321.755,M,-17.561,M,0.9,0000*4C
1627577872675600589,5160,1627577872675436973,gps_frame,$GPGGA,165752.00,4616.72399316,N,11940.86185822,W,4,5,1.9,321.792,M,-17.561,M,1.0,0000*4E
1627577872720696670,5161,1627577872720550060,gps_frame,$GPGGA,165752.05,4616.72401481,N,11940.86175442,W,4,5,1.9,321.815,M,-17.561,M,1.0,0000*41
1627577872768624970,5162,1627577872768352985,gps_frame,$GPGGA,165752.10,4616.72404792,N,11940.86177350,W,4,5,1.9,321.764,M,-17.561,M,1.1,0000*4F
1627577872820224977,5163,1627577872819935083,gps_frame,$GPGGA,165752.15,4616.72407684,N,11940.86167092,W,4,5,1.9,321.741,M,-17.561,M,1.1,0000*44
1627577872870680646,5164,1627577872870501995,gps_frame,$GPGGA,165752.20,4616.72414550,N,11940.86168917,W,4,5,1.9,321.769,M,-17.561,M,0.2,0000*49
1627577872920333559,5165,1627577872920094966,gps_frame,$GPGGA,165752.25,4616.72419961,N,11940.86158736,W,4,5,1.9,321.778,M,-17.561,M,0.2,0000*41
1627577872968585572,5166,1627577872968414068,gps_frame,$GPGGA,165752.30,4616.72418091,N,11940.86166599,W,4,5,1.9,321.726,M,-17.561,M,0.3,0000*42
1627577873020125503,5167,1627577873019927978,gps_frame,$GPGGA,165752.35,4616.72418887,N,11940.86154346,W,4,5,1.9,321.696,M,-17.561,M,0.3,0000*47
1627577873069772197,5168,1627577873069566011,gps_frame,$GPGGA,165752.40,4616.72428696,N,11940.86158123,W,4,5,1.9,321.806,M,-17.561,M,0.4,0000*45
1627577873120165654,5169,1627577873119935989,gps_frame,$GPGGA,165752.45,4616.72435205,N,11940.86151129,W,4,5,1.9,321.864,M,-17.561,M,0.4,0000*45
1627577873168371778,5170,1627577873168169975,gps_frame,$GPGGA,165752.50,4616.72435274,N,11940.86153683,W,4,5,1.9,321.771,M,-17.561,M,0.5,0000*48
1627577873220171669,5171,1627577873219934940,gps_frame,$GPGGA,165752.55,4616.72437702,N,11940.86138057,W,4,5,1.9,321.734,M,-17.561,M,0.5,0000*48
1627577873270708172,5172,1627577873270488023,gps_frame,$GPGGA,165752.60,4616.72440930,N,11940.86149229,W,4,5,1.9,321.719,M,-17.561,M,0.6,0000*40
1627577873320151130,5173,1627577873319945096,gps_frame,$GPGGA,165752.65,4616.72443865,N,11940.86141482,W,4,5,1.9,321.696,M,-17.561,M,0.6,0000*4E
1627577873368960531,5174,1627577873368721961,gps_frame,$GPGGA,165752.70,4616.72451324,N,11940.86140484,W,4,5,1.9,321.784,M,-17.561,M,0.7,0000*43
1627577873420072179,5175,1627577873419897079,gps_frame,$GPGGA,165752.75,4616.72457126,N,11940.86129184,W,4,5,1.9,321.831,M,-17.561,M,0.7,0000*4B
1627577873469746447,5176,1627577873469485044,gps_frame,$GPGGA,165752.80,4616.72455075,N,11940.86135220,W,4,5,1.9,321.722,M,-17.561,M,0.8,0000*46
1627577873520327110,5177,1627577873520155906,gps_frame,$GPGGA,165752.85,4616.72455900,N,11940.86120519,W,4,5,1.9,321.671,M,-17.561,M,0.8,0000*46
1627577873568424719,5178,1627577873568218946,gps_frame,$GPGGA,165752.90,4616.72465322,N,11940.86125534,W,4,5,1.9,321.740,M,-17.561,M,0.9,0000*43
1627577873620186067,5179,1627577873619982957,gps_frame,$GPGGA,165752.95,4616.72471595,N,11940.86118136,W,4,5,1.9,321.765,M,-17.561,M,0.9,0000*46
1627577873676212987,5180,1627577873676062107,gps_frame,$GPGGA,165753.00,4616.72468545,N,11940.86119456,W,4,5,1.9,321.743,M,-17.561,M,1.0,0000*40
1627577873720315865,5181,1627577873720060110,gps_frame,$GPGGA,165753.05,4616.72468908,N,11940.86103397,W,4,5,1.9,321.738,M,-17.561,M,1.0,0000*4D
1627577873768774336,5182,1627577873768534898,gps_frame,$GPGGA,165753.10,4616.72478297,N,11940.86115291,W,4,5,1.9,321.710,M,-17.561,M,1.1,0000*4E
1627577873820309483,5183,1627577873820040941,gps_frame,$GPGGA,165753.15,4616.72484382,N,11940.86112489,W,4,5,1.9,321.691,M,-17.561,M,1.1,0000*4D
1627577873870755672,5184,1627577873870646953,gps_frame,$GPGGA,165753.20,4616.72485006,N,11940.86107672,W,4,5,1.9,321.716,M,-17.561,M,0.2,0000*4B
1627577873920187018,5185,1627577873919958114,gps_frame,$GPGGA,165753.25,4616.72487630,N,11940.86090091,W,4,5,1.9,321.725,M,-17.561,M,0.2,0000*4B
1627577873968530946,5186,1627577873968323945,gps_frame,$GPGGA,165753.30,4616.72493516,N,11940.86100977,W,4,5,1.9,321.747,M,-17.561,M,0.3,0000*41
1627577874020191730,5187,1627577874019993066,gps_frame,$GPGGA,165753.35,4616.72498208,N,11940.86092153,W,4,5,1.9,321.764,M,-17.561,M,0.3,0000*42
1627577874069694479,5188,1627577874069489955,gps_frame,$GPGGA,165753.40,4616.72498987,N,11940.86097336,W,4,5,1.9,321.717,M,-17.561,M,0.4,0000*4B
1627577874120198340,5189,1627577874119962930,gps_frame,$GPGGA,165753.45,4616.72501199,N,11940.86085608,W,4,5,1.9,321.693,M,-17.561,M,0.4,0000*4E
1627577874168846508,5190,1627577874168575048,gps_frame,$GPGGA,165753.50,4616.72508358,N,11940.86085017,W,4,5,1.9,321.723,M,-17.561,M,0.5,0000*4F
1627577874220238118,5191,1627577874220036029,gps_frame,$GPGGA,165753.55,4616.72513706,N,11940.86072775,W,4,5,1.9,321.734,M,-17.561,M,0.5,0000*42
1627577874269727213,5192,1627577874269527912,gps_frame,$GPGGA,165753.60,4616.72513465,N,11940.86081049,W,4,5,1.9,321.717,M,-17.561,M,0.6,0000*44
1627577874320123294,5193,1627577874319920063,gps_frame,$GPGGA,165753.65,4616.72515271,N,11940.86068836,W,4,5,1.9,321.709,M,-17.561,M,0.6,0000*4C
1627577874368680324,5194,1627577874368495941,gps_frame,$GPGGA,165753.70,4616.72521303,N,11940.86076864,W,4,5,1.9,321.728,M,-17.561,M,0.7,0000*41
1627577874420142800,5195,1627577874419920921,gps_frame,$GPGGA,165753.75,4616.72525788,N,11940.86070411,W,4,5,1.9,321.736,M,-17.561,M,0.7,0000*40
1627577874469698821,5196,1627577874469510078,gps_frame,$GPGGA,165753.80,4616.72531449,N,11940.86064106,W,4,5,1.9,321.725,M,-17.561,M,0.8,0000*4A
1627577874520135062,5197,1627577874519928932,gps_frame,$GPGGA,165753.85,4616.72536679,N,11940.86046894,W,4,5,1.9,321.722,M,-17.561,M,0.8,0000*4C
1627577874568517368,5198,1627577874568247079,gps_frame,$GPGGA,165753.90,4616.72534854,N,11940.86066433,W,4,5,1.9,321.713,M,-17.561,M,0.9,0000*4B
1627577874620121530,5199,1627577874619915962,gps_frame,$GPGGA,165753.95,4616.72535612,N,11940.86058470,W,4,5,1.9,321.706,M,-17.561,M,0.9,0000*4D
1627577874676268337,5200,1627577874676104068,gps_frame,$GPGGA,165754.00,4616.72545777,N,11940.86057741,W,4,5,1.9,321.695,M,-17.561,M,1.0,0000*4E
1627577874720248422,5201,1627577874719958066,gps_frame,$GPGGA,165754.05,4616.72552497,N,11940.86049649,W,4,5,1.9,321.686,M,-17.561,M,1.0,0000*44
1627577874768625333,5202,1627577874768341064,gps_frame,$GPGGA,165754.10,4616.72552060,N,11940.86048429,W,4,5,1.9,321.645,M,-17.561,M,1.1,0000*47
1627577874820089800,5203,1627577874819907903,gps_frame,$GPGGA,165754.15,4616.72554244,N,11940.86029570,W,4,5,1.9,321.616,M,-17.561,M,1.1,0000*4C
1627577874870620187,5204,1627577874870451927,gps_frame,$GPGGA,165754.20,4616.72560199,N,11940.86049338,W,4,5,1.9,321.766,M,-17.561,M,0.2,0000*46
1627577874920038643,5205,1627577874919915914,gps_frame,$GPGGA,165754.25,4616.72564771,N,11940.86046264,W,4,5,1.9,321.851,M,-17.561,M,0.2,0000*4B
1627577874968463763,5206,1627577874968317985,gps_frame,$GPGGA,165754.30,4616.72568319,N,11940.86035330,W,4,5,1.9,321.693,M,-17.561,M,0.3,0000*4C
1627577875020168347,5207,1627577875019983053,gps_frame,$GPGGA,165754.35,4616.72572243,N,11940.86016006,W,4,5,1.9,321.624,M,-17.561,M,0.3,0000*47
1627577875069679160,5208,1627577875069335937,gps_frame,$GPGGA,165754.40,4616.72575025,N,11940.86033936,W,4,5,1.9,321.695,M,-17.561,M,0.4,0000*40
1627577875120006137,5209,1627577875119856119,gps_frame,$GPGGA,165754.45,4616.72578224,N,11940.86026985,W,4,5,1.9,321.714,M,-17.561,M,0.4,0000*4F
1627577875168323679,5210,1627577875168194055,gps_frame,$GPGGA,165754.50,4616.72584465,N,11940.86024233,W,4,5,1.9,321.659,M,-17.561,M,0.5,0000*46
1627577875220193039,5211,1627577875220002889,gps_frame,$GPGGA,165754.55,4616.72589592,N,11940.86010660,W,4,5,1.9,321.632,M,-17.561,M,0.5,0000*4F
1627577875270732312,5212,1627577875270551919,gps_frame,$GPGGA,165754.60,4616.72592583,N,11940.86019108,W,4,5,1.9,321.634,M,-17.561,M,0.6,0000*46
1627577875320145019,5213,1627577875319956064,gps_frame,$GPGGA,165754.65,4616.72596356,N,11940.86006423,W,4,5,1.9,321.625,M,-17.561,M,0.6,0000*4B
1627577875368715409,5214,1627577875368571043,gps_frame,$GPGGA,165754.70,4616.72597920,N,11940.86016201,W,4,5,1.9,321.677,M,-17.561,M,0.7,0000*44
1627577875420210836,5215,1627577875420011043,gps_frame,$GPGGA,165754.75,4616.72600293,N,11940.86006516,W,4,5,1.9,321.707,M,-17.561,M,0.7,0000*49
1627577875469614863,5216,1627577875469393968,gps_frame,$GPGGA,165754.80,4616.72606392,N,11940.86000667,W,4,5,1.9,321.607,M,-17.561,M,0.8,0000*48
1627577875520061079,5217,1627577875519886016,gps_frame,$GPGGA,165754.85,4616.72611128,N,11940.85986023,W,4,5,1.9,321.554,M,-17.561,M,0.8,0000*4F
1627577875568707658,5218,1627577875568435907,gps_frame,$GPGGA,165754.90,4616.72613860,N,11940.85999441,W,4,5,1.9,321.597,M,-17.561,M,0.9,0000*4C
1627577875620069776,5219,1627577875619913101,gps_frame,$GPGGA,165754.95,4616.72617325,N,11940.85990855,W,4,5,1.9,321.605,M,-17.561,M,0.9,0000*4F
1627577875676213256,5220,1627577875676053047,gps_frame,$GPGGA,165755.00,4616.72623258,N,11940.85993413,W,4,5,1.9,321.723,M,-17.561,M,1.0,0000*4E
1627577875720145717,5221,1627577875719924926,gps_frame,$GPGGA,165755.05,4616.72628288,N,11940.85981553,W,4,5,1.9,321.800,M,-17.561,M,1.0,0000*45
1627577875768759556,5222,1627577875768455028,gps_frame,$GPGGA,165755.10,4616.72631431,N,11940.85986079,W,4,5,1.9,321.690,M,-17.561,M,1.1,0000*41
1627577875819996810,5223,1627577875819897890,gps_frame,$GPGGA,165755.15,4616.72635265,N,11940.85971592,W,4,5,1.9,321.648,M,-17.561,M,1.1,0000*4A
1627577875870995788,5224,1627577875870750904,gps_frame,$GPGGA,165755.20,4616.72639219,N,11940.85981060,W,4,6,1.6,321.601,M,-17.561,M,0.2,0000*4F
1627577875920111553,5225,1627577875919966936,gps_frame,$GPGGA,165755.25,4616.72643129,N,11940.85970442,W,4,6,1.6,321.556,M,-17.561,M,0.2,0000*4C
1627577875968944926,5226,1627577875968669891,gps_frame,$GPGGA,165755.30,4616.72649022,N,11940.85973327,W,4,6,1.6,321.616,M,-17.561,M,0.3,0000*49
1627577876020136196,5227,1627577876019987106,gps_frame,$GPGGA,165755.35,4616.72654189,N,11940.85960485,W,4,6,1.6,321.637,M,-17.561,M,0.3,0000*4E
1627577876070196459,5228,1627577876069854021,gps_frame,$GPGGA,165755.40,4616.72654483,N,11940.85968808,W,4,6,1.6,321.598,M,-17.561,M,0.4,0000*43
1627577876120735604,5229,1627577876120523929,gps_frame,$GPGGA,165755.45,4616.72656561,N,11940.85955809,W,4,6,1.6,321.581,M,-17.561,M,0.4,0000*4E
1627577876168518246,5230,1627577876168335914,gps_frame,$GPGGA,165755.50,4616.72664971,N,11940.85962389,W,4,6,1.6,321.604,M,-17.561,M,0.5,0000*4E
1627577876220172534,5231,1627577876219919919,gps_frame,$GPGGA,165755.55,4616.72671062,N,11940.85954239,W,4,6,1.6,321.612,M,-17.561,M,0.5,0000*4C
1627577876270162814,5232,1627577876269781112,gps_frame,$GPGGA,165755.60,4616.72669661,N,11940.85953484,W,4,6,1.6,321.549,M,-17.561,M,0.6,0000*4F
1627577876320105920,5233,1627577876319907903,gps_frame,$GPGGA,165755.65,4616.72671004,N,11940.85935501,W,4,6,1.6,321.511,M,-17.561,M,0.6,0000*47
1627577876368705586,5234,1627577876368509054,gps_frame,$GPGGA,165755.70,4616.72680533,N,11940.85947991,W,4,6,1.6,321.616,M,-17.561,M,0.7,0000*49
1627577876420979955,5235,1627577876420849084,gps_frame,$GPGGA,165755.75,4616.72687065,N,11940.85942832,W,4,6,1.6,321.669,M,-17.561,M,0.7,0000*48
1627577876469861174,5236,1627577876469585895,gps_frame,$GPGGA,165755.80,4616.72688337,N,11940.85940407,W,4,6,1.6,321.624,M,-17.561,M,0.8,0000*47
1627577876520108858,5237,1627577876519937992,gps_frame,$GPGGA,165755.85,4616.72691535,N,11940.85921928,W,4,6,1.6,321.615,M,-17.561,M,0.8,0000*4B
1627577876568764642,5238,1627577876568490028,gps_frame,$GPGGA,165755.90,4616.72696178,N,11940.85935400,W,4,6,1.6,321.576,M,-17.561,M,0.9,0000*40
1627577876620031173,5239,1627577876619882106,gps_frame,$GPGGA,165755.95,4616.72700292,N,11940.85926369,W,4,6,1.6,321.548,M,-17.561,M,0.9,0000*4B
1627577876676364050,5240,1627577876676213026,gps_frame,$GPGGA,165756.00,4616.72704676,N,11940.85927698,W,4,6,1.6,321.611,M,-17.561,M,1.0,0000*43
1627577876720121908,5241,1627577876719918012,gps_frame,$GPGGA,165756.05,4616.72708962,N,11940.85914378,W,4,6,1.6,321.640,M,-17.561,M,1.0,0000*4F
1627577876779674372,5242,1627577876779527902,gps_frame,$GPGGA,165756.10,4616.72712051,N,11940.85923649,W,4,6,1.6,321.640,M,-17.561,M,1.1,0000*4B
1627577876820073421,5243,1627577876819894075,gps_frame,$GPGGA,165756.15,4616.72715578,N,11940.85912883,W,4,6,1.6,321.650,M,-17.561,M,1.1,0000*4C
1627577876871068609,5244,1627577876870836019,gps_frame,$GPGGA,165756.20,4616.72721334,N,11940.85914648,W,4,6,1.6,321.601,M,-17.561,M,0.2,0000*4A
1627577876920100818,5245,1627577876919912099,gps_frame,$GPGGA,165756.25,4616.72726274,N,11940.85901616,W,4,6,1.6,321.573,M,-17.561,M,0.2,0000*44
1627577876968922285,5246,1627577876968652963,gps_frame,$GPGGA,165756.30,4616.72728850,N,11940.85907418,W,4,6,1.6,321.599,M,-17.561,M,0.3,0000*4D
1627577877020253079,5247,1627577877020000934,gps_frame,$GPGGA,165756.35,4616.72732292,N,11940.85893472,W,4,6,1.6,321.606,M,-17.561,M,0.3,0000*42
1627577877069960705,5248,1627577877069669961,gps_frame,$GPGGA,165756.40,4616.72736188,N,11940.85902042,W,4,6,1.6,321.586,M,-17.561,M,0.4,0000*4E
1627577877120182371,5249,1627577877119925975,gps_frame,$GPGGA,165756.45,4616.72739918,N,11940.85891963,W,4,6,1.6,321.576,M,-17.561,M,0.4,0000*4B
1627577877168503229,5250,1627577877168380022,gps_frame,$GPGGA,165756.50,4616.72745952,N,11940.85892826,W,4,6,1.6,321.598,M,-17.561,M,0.5,0000*48
1627577877220099208,5251,1627577877219903945,gps_frame,$GPGGA,165756.55,4616.72751142,N,11940.85879523,W,4,6,1.6,321.608,M,-17.561,M,0.5,0000*46
1627577877271115153,5252,1627577877270874023,gps_frame,$GPGGA,165756.60,4616.72754252,N,11940.85886820,W,4,6,1.6,321.547,M,-17.561,M,0.6,0000*42
1627577877320133541,5253,1627577877319909095,gps_frame,$GPGGA,165756.65,4616.72758124,N,11940.85873057,W,4,6,1.6,321.512,M,-17.561,M,0.6,0000*4B
1627577877368882058,5254,1627577877368643999,gps_frame,$GPGGA,165756.70,4616.72760301,N,11940.85881884,W,4,6,1.6,321.607,M,-17.561,M,0.7,0000*4C
1627577877420185026,5255,1627577877419925928,gps_frame,$GPGGA,165756.75,4616.72763100,N,11940.85870949,W,4,6,1.6,321.655,M,-17.561,M,0.7,0000*40
1627577877470518048,5256,1627577877470336914,gps_frame,$GPGGA,165756.80,4616.72771529,N,11940.85875765,W,4,6,1.6,321.593,M,-17.561,M,0.8,0000*45
1627577877520284264,5257,1627577877520026922,gps_frame,$GPGGA,165756.85,4616.72777896,N,11940.85866438,W,4,6,1.6,321.571,M,-17.561,M,0.8,0000*4A
1627577877568484078,5258,1627577877568258047,gps_frame,$GPGGA,165756.90,4616.72776364,N,11940.85868629,W,4,6,1.6,321.597,M,-17.561,M,0.9,0000*4C
1627577877620134225,5259,1627577877619920969,gps_frame,$GPGGA,165756.95,4616.72777724,N,11940.85851058,W,4,6,1.6,321.606,M,-17.561,M,0.9,0000*49
1627577877676274724,5260,1627577877676105976,gps_frame,$GPGGA,165757.00,4616.72786727,N,11940.85862354,W,4,6,1.6,321.578,M,-17.561,M,1.0,0000*44
1627577877720121626,5261,1627577877719924926,gps_frame,$GPGGA,165757.05,4616.72792932,N,11940.85856387,W,4,6,1.6,321.563,M,-17.561,M,1.0,0000*4D
1627577877779584934,5262,1627577877779388904,gps_frame,$GPGGA,165757.10,4616.72794699,N,11940.85853274,W,4,6,1.6,321.602,M,-17.561,M,1.1,0000*4C
1627577877820353567,5263,1627577877819969892,gps_frame,$GPGGA,165757.15,4616.72798091,N,11940.85834767,W,4,6,1.6,321.621,M,-17.561,M,1.1,0000*4C
1627577877870853396,5264,1627577877870661973,gps_frame,$GPGGA,165757.20,4616.72801942,N,11940.85850068,W,4,6,1.6,321.545,M,-17.561,M,0.2,0000*4B
1627577877920208714,5265,1627577877919969081,gps_frame,$GPGGA,165757.25,4616.72805624,N,11940.85841953,W,4,6,1.6,321.504,M,-17.561,M,0.2,0000*41
1627577877968740931,5266,1627577877968506097,gps_frame,$GPGGA,165757.30,4616.72810571,N,11940.85840777,W,4,6,1.6,321.561,M,-17.561,M,0.3,0000*49
1627577878020083531,5267,1627577878019891023,gps_frame,$GPGGA,165757.35,4616.72815056,N,11940.85827033,W,4,6,1.6,321.583,M,-17.561,M,0.3,0000*43
1627577878069608996,5268,1627577878069412946,gps_frame,$GPGGA,165757.40,4616.72820503,N,11940.85834112,W,4,6,1.6,321.572,M,-17.561,M,0.4,0000*4B
1627577878120202868,5269,1627577878119966030,gps_frame,$GPGGA,165757.45,4616.72825598,N,11940.85821619,W,4,6,1.6,321.573,M,-17.561,M,0.4,0000*40
1627577878168232318,5270,1627577878168015003,gps_frame,$GPGGA,165757.50,4616.72826109,N,11940.85829283,W,4,6,1.6,321.641,M,-17.561,M,0.5,0000*47
1627577878220205613,5271,1627577878219969034,gps_frame,$GPGGA,165757.55,4616.72828299,N,11940.85815816,W,4,6,1.6,321.685,M,-17.561,M,0.5,0000*47
1627577878269597450,5272,1627577878269376039,gps_frame,$GPGGA,165757.60,4616.72833875,N,11940.85817398,W,4,6,1.6,321.528,M,-17.561,M,0.6,0000*4B
1627577878320150331,5273,1627577878319916009,gps_frame,$GPGGA,165757.65,4616.72838210,N,11940.85805708,W,4,6,1.6,321.444,M,-17.561,M,0.6,0000*49
1627577878368493030,5274,1627577878368227958,gps_frame,$GPGGA,165757.70,4616.72842670,N,11940.85816924,W,4,6,1.6,321.616,M,-17.561,M,0.7,0000*44
1627577878420188793,5275,1627577878420006990,gps_frame,$GPGGA,165757.75,4616.72847085,N,11940.85809003,W,4,6,1.6,321.695,M,-17.561,M,0.7,0000*41
1627577878469532538,5276,1627577878469306945,gps_frame,$GPGGA,165757.80,4616.72850215,N,11940.85805085,W,4,6,1.6,321.522,M,-17.561,M,0.8,0000*44
1627577878520156476,5277,1627577878520013093,gps_frame,$GPGGA,165757.85,4616.72853815,N,11940.85787522,W,4,6,1.6,321.442,M,-17.561,M,0.8,0000*42
1627577878568189872,5278,1627577878568059921,gps_frame,$GPGGA,165757.90,4616.72860717,N,11940.85800627,W,4,6,1.6,321.584,M,-17.561,M,0.9,0000*47
1627577878620167158,5279,1627577878619976043,gps_frame,$GPGGA,165757.95,4616.72866409,N,11940.85792059,W,4,6,1.6,321.645,M,-17.561,M,0.9,0000*4D
1627577878676050090,5280,1627577878675961017,gps_frame,$GPGGA,165758.00,4616.72866007,N,11940.85796698,W,4,6,1.6,321.624,M,-17.561,M,1.0,0000*44
1627577878720695948,5281,1627577878720472097,gps_frame,$GPGGA,165758.05,4616.72867836,N,11940.85781962,W,4,6,1.6,321.633,M,-17.561,M,1.0,0000*40
1627577878768738246,5282,1627577878768491029,gps_frame,$GPGGA,165758.10,4616.72876754,N,11940.85786365,W,4,6,1.6,321.585,M,-17.561,M,1.1,0000*4A
1627577878820084035,5283,1627577878819911003,gps_frame,$GPGGA,165758.15,4616.72883077,N,11940.85776436,W,4,6,1.6,321.557,M,-17.561,M,1.1,0000*42
1627577878870803927,5284,1627577878870620965,gps_frame,$GPGGA,165758.20,4616.72882032,N,11940.85782198,W,4,5,1.9,321.544,M,-17.561,M,0.2,0000*42
1627577878920179302,5285,1627577878919959068,gps_frame,$GPGGA,165758.25,4616.72883686,N,11940.85767336,W,4,5,1.9,321.525,M,-17.561,M,0.2,0000*45
1627577878969028511,5286,1627577878968667984,gps_frame,$GPGGA,165758.30,4616.72889495,N,11940.85774774,W,4,5,1.9,321.557,M,-17.561,M,0.3,0000*4F
1627577879020271810,5287,1627577879020015954,gps_frame,$GPGGA,165758.35,4616.72893782,N,11940.85766739,W,4,5,1.9,321.571,M,-17.561,M,0.3,0000*4A
1627577879069768125,5288,1627577879069540023,gps_frame,$GPGGA,165758.40,4616.72900429,N,11940.85767407,W,4,5,1.9,321.544,M,-17.561,M,0.4,0000*4F
1627577879120087340,5289,1627577879119920969,gps_frame,$GPGGA,165758.45,4616.72906211,N,11940.85754557,W,4,5,1.9,321.533,M,-17.561,M,0.4,0000*45
1627577879168768909,5290,1627577879168394088,gps_frame,$GPGGA,165758.50,4616.72905492,N,11940.85762535,W,4,5,1.9,321.490,M,-17.561,M,0.5,0000*47
1627577879220192895,5291,1627577879219959020,gps_frame,$GPGGA,165758.55,4616.72907153,N,11940.85747749,W,4,5,1.9,321.459,M,-17.561,M,0.5,0000*43
1627577879270949593,5292,1627577879270656108,gps_frame,$GPGGA,165758.60,4616.72913865,N,11940.85756000,W,4,5,1.9,321.476,M,-17.561,M,0.6,0000*48
1627577879320154169,5293,1627577879319955110,gps_frame,$GPGGA,165758.65,4616.72918727,N,11940.85748807,W,4,5,1.9,321.476,M,-17.561,M,0.6,0000*4F
1627577879368766995,5294,1627577879368549108,gps_frame,$GPGGA,165758.70,4616.72923892,N,11940.85746030,W,4,5,1.9,321.542,M,-17.561,M,0.7,0000*47
1627577879420105516,5295,1627577879419935941,gps_frame,$GPGGA,165758.75,4616.72928946,N,11940.85730042,W,4,5,1.9,321.583,M,-17.561,M,0.7,0000*48
1627577879469589166,5296,1627577879469377040,gps_frame,$GPGGA,165758.80,4616.72930110,N,11940.85740635,W,4,5,1.9,321.499,M,-17.561,M,0.8,0000*44
1627577879520129975,5297,1627577879519939899,gps_frame,$GPGGA,165758.85,4616.72932699,N,11940.85727614,W,4,5,1.9,321.462,M,-17.561,M,0.8,0000*43
1627577879568525837,5298,1627577879568309068,gps_frame,$GPGGA,165758.90,4616.72938111,N,11940.85735233,W,4,5,1.9,321.539,M,-17.561,M,0.9,0000*46
1627577879620234113,5299,1627577879619956016,gps_frame,$GPGGA,165758.95,4616.72942489,N,11940.85726686,W,4,5,1.9,321.575,M,-17.561,M,0.9,0000*4A
1627577879675601915,5300,1627577879675446033,gps_frame,$GPGGA,165759.00,4616.72946073,N,11940.85728318,W,4,5,1.9,321.485,M,-17.561,M,1.0,0000*48
1627577879720655217,5301,1627577879720467090,gps_frame,$GPGGA,165759.05,4616.72949948,N,11940.85715145,W,4,5,1.9,321.441,M,-17.561,M,1.0,0000*4F
1627577879768603428,5302,1627577879768337011,gps_frame,$GPGGA,165759.10,4616.72953795,N,11940.85721547,W,4,5,1.9,321.508,M,-17.561,M,1.1,0000*42
1627577879820111869,5303,1627577879819896936,gps_frame,$GPGGA,165759.15,4616.72957652,N,11940.85709758,W,4,5,1.9,321.535,M,-17.561,M,1.1,0000*41
1627577879870651626,5304,1627577879870418071,gps_frame,$GPGGA,165759.20,4616.72964085,N,11940.85714971,W,4,5,1.9,321.510,M,-17.561,M,0.2,0000*47
1627577879920601749,5305,1627577879920237064,gps_frame,$GPGGA,165759.25,4616.72969575,N,11940.85703268,W,4,5,1.9,321.503,M,-17.561,M,0.2,0000*42
1627577879968737002,5306,1627577879968420982,gps_frame,$GPGGA,165759.30,4616.72968111,N,11940.85708655,W,4,5,1.9,321.480,M,-17.561,M,0.3,0000*4B
1627577880020364684,5307,1627577880020001888,gps_frame,$GPGGA,165759.35,4616.72969193,N,11940.85693538,W,4,5,1.9,321.462,M,-17.561,M,0.3,0000*42
1627577880069777490,5308,1627577880069577932,gps_frame,$GPGGA,165759.40,4616.72979512,N,11940.85700546,W,4,5,1.9,321.500,M,-17.561,M,0.4,0000*4C
1627577880120144689,5309,1627577880119976997,gps_frame,$GPGGA,165759.45,4616.72986448,N,11940.85693881,W,4,5,1.9,321.518,M,-17.561,M,0.4,0000*43
1627577880168424309,5310,1627577880168262004,gps_frame,$GPGGA,165759.50,4616.72985534,N,11940.85693996,W,4,5,1.9,321.491,M,-17.561,M,0.5,0000*48
1627577880220147582,5311,1627577880219969034,gps_frame,$GPGGA,165759.55,4616.72987495,N,11940.85675843,W,4,5,1.9,321.481,M,-17.561,M,0.5,0000*45
1627577880269510915,5312,1627577880269352912,gps_frame,$GPGGA,165759.60,4616.72992519,N,11940.85690958,W,4,5,1.9,321.509,M,-17.561,M,0.6,0000*40
1627577880320074429,5313,1627577880319902896,gps_frame,$GPGGA,165759.65,4616.72996420,N,11940.85685555,W,4,5,1.9,321.523,M,-17.561,M,0.6,0000*47
1627577880368907078,5314,1627577880368705034,gps_frame,$GPGGA,165759.70,4616.73002662,N,11940.85680683,W,4,5,1.9,321.496,M,-17.561,M,0.7,0000*41
1627577880420231981,5315,1627577880419964075,gps_frame,$GPGGA,165759.75,4616.73008047,N,11940.85665946,W,4,5,1.9,321.485,M,-17.561,M,0.7,0000*40
1627577880469545274,5316,1627577880469362020,gps_frame,$GPGGA,165759.80,4616.73006970,N,11940.85675897,W,4,5,1.9,321.537,M,-17.561,M,0.8,0000*42
1627577880520214946,5317,1627577880519963979,gps_frame,$GPGGA,165759.85,4616.73008259,N,11940.85662766,W,4,5,1.9,321.566,M,-17.561,M,0.8,0000*4A
1627577880568600288,5318,1627577880568351030,gps_frame,$GPGGA,165759.90,4616.73014583,N,11940.85668473,W,4,5,1.9,321.419,M,-17.561,M,0.9,0000*46
1627577880620173972,5319,1627577880619923114,gps_frame,$GPGGA,165759.95,4616.73019063,N,11940.85661319,W,4,5,1.9,321.337,M,-17.561,M,0.9,0000*4C
1627577880676204910,5320,1627577880676045894,gps_frame,$GPGGA,165800.00,4616.73024070,N,11940.85660382,W,4,5,1.9,321.463,M,-17.561,M,1.0,0000*42
1627577880720022893,5321,1627577880719868898,gps_frame,$GPGGA,165800.05,4616.73028885,N,11940.85646629,W,4,5,1.9,321.513,M,-17.561,M,1.0,0000*4F
1627577880779357342,5322,1627577880779134035,gps_frame,$GPGGA,165800.10,4616.73031723,N,11940.85656706,W,4,5,1.9,321.466,M,-17.561,M,1.1,0000*4F
1627577880820145346,5323,1627577880819922924,gps_frame,$GPGGA,165800.15,4616.73035286,N,11940.85644922,W,4,5,1.9,321.455,M,-17.561,M,1.1,0000*4F
1627577880870794152,5324,1627577880870616912,gps_frame,$GPGGA,165800.20,4616.73039010,N,11940.85648473,W,4,5,1.9,321.388,M,-17.561,M,0.2,0000*48
1627577880920249288,5325,1627577880919982910,gps_frame,$GPGGA,165800.25,4616.73042675,N,11940.85635814,W,4,5,1.9,321.341,M,-17.561,M,0.2,0000*46
1627577880968420745,5326,1627577880968241930,gps_frame,$GPGGA,165800.30,4616.73047091,N,11940.85643359,W,4,5,1.9,321.450,M,-17.561,M,0.3,0000*4E
1627577881020104210,5327,1627577881019942045,gps_frame,$GPGGA,165800.35,4616.73051232,N,11940.85633418,W,4,5,1.9,321.501,M,-17.561,M,0.3,0000*47
1627577881069708099,5328,1627577881069523096,gps_frame,$GPGGA,165800.40,4616.73054951,N,11940.85636553,W,4,5,1.9,321.429,M,-17.561,M,0.4,0000*49
1627577881120117896,5329,1627577881119959115,gps_frame,$GPGGA,165800.45,4616.73058825,N,11940.85623712,W,4,5,1.9,321.402,M,-17.561,M,0.4,0000*48
1627577881168321208,5330,1627577881168148040,gps_frame,$GPGGA,165800.50,4616.73063527,N,11940.85628571,W,4,5,1.9,321.447,M,-17.561,M,0.5,0000*47
1627577881220191065,5331,1627577881219954013,gps_frame,$GPGGA,165800.55,4616.73067926,N,11940.85616067,W,4,5,1.9,321.466,M,-17.561,M,0.5,0000*47
1627577881270517848,5332,1627577881270359039,gps_frame,$GPGGA,165800.60,4616.73070088,N,11940.85622460,W,4,5,1.9,321.380,M,-17.561,M,0.6,0000*42
1627577881320246222,5333,1627577881320048093,gps_frame,$GPGGA,165800.65,4616.73073068,N,11940.85610060,W,4,5,1.9,321.333,M,-17.561,M,0.6,0000*47
1627577881368772995,5334,1627577881368588924,gps_frame,$GPGGA,165800.70,4616.73078937,N,11940.85615082,W,4,5,1.9,321.443,M,-17.561,M,0.7,0000*43
1627577881420150300,5335,1627577881419914960,gps_frame,$GPGGA,165800.75,4616.73083749,N,11940.85604643,W,4,5,1.9,321.496,M,-17.561,M,0.7,0000*46
1627577881469909222,5336,1627577881469744920,gps_frame,$GPGGA,165800.80,4616.73086419,N,11940.85607316,W,4,5,1.9,321.430,M,-17.561,M,0.8,0000*4A
1627577881520207501,5337,1627577881519944906,gps_frame,$GPGGA,165800.85,4616.73089874,N,11940.85592936,W,4,5,1.9,321.408,M,-17.561,M,0.8,0000*4B
1627577881568666562,5338,1627577881568453073,gps_frame,$GPGGA,165800.90,4616.73096803,N,11940.85599689,W,4,5,1.9,321.434,M,-17.561,M,0.9,0000*4F
1627577881620433076,5339,1627577881620114088,gps_frame,$GPGGA,165800.95,4616.73102459,N,11940.85588346,W,4,5,1.9,321.441,M,-17.561,M,0.9,0000*41
1627577881676458596,5340,1627577881676265001,gps_frame,$GPGGA,165801.00,4616.73102232,N,11940.85594664,W,4,5,1.9,321.412,M,-17.561,M,1.0,0000*41
1627577881720085654,5341,1627577881719926118,gps_frame,$GPGGA,165801.05,4616.73104159,N,11940.85580140,W,4,5,1.9,321.396,M,-17.561,M,1.0,0000*43
1627577881768507881,5342,1627577881768347978,gps_frame,$GPGGA,165801.10,4616.73110563,N,11940.85587838,W,4,5,1.9,321.430,M,-17.561,M,1.1,0000*44
1627577881820125260,5343,1627577881819931983,gps_frame,$GPGGA,165801.15,4616.73115327,N,11940.85579883,W,4,5,1.9,321.446,M,-17.561,M,1.1,0000*42
1627577881870855587,5344,1627577881870610952,gps_frame,$GPGGA,165801.20,4616.73119135,N,11940.85581835,W,4,5,1.9,321.414,M,-17.561,M,0.2,0000*46
1627577881920067803,5345,1627577881919902086,gps_frame,$GPGGA,165801.25,4616.73123294,N,11940.85568626,W,4,5,1.9,321.400,M,-17.561,M,0.2,0000*4C
1627577881968761463,5346,1627577881968502044,gps_frame,$GPGGA,165801.30,4616.73129006,N,11940.85572884,W,4,5,1.9,321.424,M,-17.561,M,0.3,0000*41
1627577882020111391,5347,1627577882019937038,gps_frame,$GPGGA,165801.35,4616.73134150,N,11940.85558878,W,4,5,1.9,321.434,M,-17.561,M,0.3,0000*40
1627577882069959688,5348,1627577882069678068,gps_frame,$GPGGA,165801.40,4616.73135190,N,11940.85566619,W,4,5,1.9,321.400,M,-17.561,M,0.4,0000*4B
1627577882120322965,5349,1627577882120011091,gps_frame,$GPGGA,165801.45,4616.73137733,N,11940.85552731,W,4,5,1.9,321.382,M,-17.561,M,0.4,0000*42
1627577882168667914,5350,1627577882168243885,gps_frame,$GPGGA,165801.50,4616.73143530,N,11940.85560362,W,4,5,1.9,321.401,M,-17.561,M,0.5,0000*4A
1627577882220092916,5351,1627577882219896078,gps_frame,$GPGGA,165801.55,4616.73148135,N,11940.85551553,W,4,5,1.9,321.406,M,-17.561,M,0.5,0000*44
1627577882269580655,5352,1627577882269402027,gps_frame,$GPGGA,165801.60,4616.73154105,N,11940.85548773,W,4,5,1.9,321.411,M,-17.561,M,0.6,0000*41
1627577882320097705,5353,1627577882319905996,gps_frame,$GPGGA,165801.65,4616.73159575,N,11940.85532238,W,4,5,1.9,321.415,M,-17.561,M,0.6,0000*49
1627577882368591097,5354,1627577882368398904,gps_frame,$GPGGA,165801.70,4616.73159766,N,11940.85544011,W,4,5,1.9,321.387,M,-17.561,M,0.7,0000*48
1627577882420075389,5355,1627577882419893026,gps_frame,$GPGGA,165801.75,4616.73161890,N,11940.85530779,W,4,5,1.9,321.370,M,-17.561,M,0.7,0000*42
1627577882469901223,5356,1627577882469577074,gps_frame,$GPGGA,165801.80,4616.73171075,N,11940.85538748,W,4,5,1.9,321.414,M,-17.561,M,0.8,0000*4A
1627577882520159828,5357,1627577882519979953,gps_frame,$GPGGA,165801.85,4616.73177675,N,11940.85531117,W,4,5,1.9,321.435,M,-17.561,M,0.8,0000*49
1627577882568600704,5358,1627577882568367958,gps_frame,$GPGGA,165801.90,4616.73177622,N,11940.85529070,W,4,5,1.9,321.379,M,-17.561,M,0.9,0000*48
1627577882620064047,5359,1627577882619919061,gps_frame,$GPGGA,165801.95,4616.73180005,N,11940.85509321,W,4,5,1.9,321.351,M,-17.561,M,0.9,0000*49
1627577882676266528,5360,1627577882676090002,gps_frame,$GPGGA,165802.00,4616.73188064,N,11940.85523246,W,4,5,1.9,321.366,M,-17.561,M,1.0,0000*4D
1627577882720125459,5361,1627577882719906091,gps_frame,$GPGGA,165802.05,4616.73194045,N,11940.85515780,W,4,5,1.9,321.365,M,-17.561,M,1.0,0000*4F
1627577882768510898,5362,1627577882768325090,gps_frame,$GPGGA,165802.10,4616.73195563,N,11940.85516399,W,4,5,1.9,321.376,M,-17.561,M,1.1,0000*47
1627577882820111303,5363,1627577882819910049,gps_frame,$GPGGA,165802.15,4616.73198715,N,11940.85499600,W,4,5,1.9,321.382,M,-17.561,M,1.1,0000*44
1627577882870908120,5364,1627577882870662927,gps_frame,$GPGGA,165802.20,4616.73205761,N,11940.85506480,W,4,6,1.6,321.282,M,-17.561,M,0.2,0000*44
1627577882920075637,5365,1627577882919872045,gps_frame,$GPGGA,165802.25,4616.73211381,N,11940.85494308,W,4,6,1.6,321.221,M,-17.561,M,0.2,0000*4A
1627577882968602679,5366,1627577882968475103,gps_frame,$GPGGA,165802.30,4616.73214146,N,11940.85501492,W,4,6,1.6,321.332,M,-17.561,M,0.3,0000*49
1627577883020136102,5367,1627577883019941091,gps_frame,$GPGGA,165802.35,4616.73217957,N,11940.85487470,W,4,6,1.6,321.379,M,-17.561,M,0.3,0000*4B
1627577883069625854,5368,1627577883069437026,gps_frame,$GPGGA,165802.40,4616.73223234,N,11940.85492586,W,4,6,1.6,321.304,M,-17.561,M,0.4,0000*41
1627577883120095815,5369,1627577883119936943,gps_frame,$GPGGA,165802.45,4616.73227974,N,11940.85479085,W,4,6,1.6,321.274,M,-17.561,M,0.4,0000*4A
1627577883168674516,5370,1627577883168406009,gps_frame,$GPGGA,165802.50,4616.73233402,N,11940.85485043,W,4,6,1.6,321.338,M,-17.561,M,0.5,0000*46
1627577883220092889,5371,1627577883219909906,gps_frame,$GPGGA,165802.55,4616.73238579,N,11940.85471295,W,4,6,1.6,321.367,M,-17.561,M,0.5,0000*4D
1627577883270713030,5372,1627577883270524978,gps_frame,$GPGGA,165802.60,4616.73242098,N,11940.85480037,W,4,6,1.6,321.335,M,-17.561,M,0.6,0000*4C
1627577883320084195,5373,1627577883319930076,gps_frame,$GPGGA,165802.65,4616.73246224,N,11940.85466467,W,4,6,1.6,321.325,M,-17.561,M,0.6,0000*40
1627577883368572972,5374,1627577883368374109,gps_frame,$GPGGA,165802.70,4616.73252008,N,11940.85469439,W,4,6,1.6,321.264,M,-17.561,M,0.7,0000*4C
1627577883420057298,5375,1627577883419884920,gps_frame,$GPGGA,165802.75,4616.73257185,N,11940.85454315,W,4,6,1.6,321.223,M,-17.561,M,0.7,0000*4C
1627577883469515482,5376,1627577883469338893,gps_frame,$GPGGA,165802.80,4616.73261318,N,11940.85463607,W,4,6,1.6,321.311,M,-17.561,M,0.8,0000*48
1627577883520055673,5377,1627577883519906044,gps_frame,$GPGGA,165802.85,4616.73265833,N,11940.85450239,W,4,6,1.6,321.352,M,-17.561,M,0.8,0000*45
1627577883568330745,5378,1627577883568141937,gps_frame,$GPGGA,165802.90,4616.73269021,N,11940.85455017,W,4,6,1.6,321.238,M,-17.561,M,0.9,0000*41
1627577883620057726,5379,1627577883619884014,gps_frame,$GPGGA,165802.95,4616.73272696,N,11940.85440262,W,4,6,1.6,321.181,M,-17.561,M,0.9,0000*41
1627577883676118730,5380,1627577883675961971,gps_frame,$GPGGA,165803.00,4616.73279885,N,11940.85445776,W,4,6,1.6,321.282,M,-17.561,M,1.0,0000*46
1627577883720568317,5381,1627577883720398902,gps_frame,$GPGGA,165803.05,4616.73285786,N,11940.85433203,W,4,6,1.6,321.325,M,-17.561,M,1.0,0000*46
1627577883768513169,5382,1627577883768323898,gps_frame,$GPGGA,165803.10,4616.73288727,N,11940.85440540,W,4,6,1.6,321.266,M,-17.561,M,1.1,0000*47
1627577883820068730,5383,1627577883819945096,gps_frame,$GPGGA,165803.15,4616.73292752,N,11940.85425548,W,4,6,1.6,321.244,M,-17.561,M,1.1,0000*40
1627577883870535913,5384,1627577883870352983,gps_frame,$GPGGA,165803.20,4616.73299754,N,11940.85430992,W,4,5,1.9,321.232,M,-17.561,M,0.2,0000*4B
1627577883920162297,5385,1627577883920017004,gps_frame,$GPGGA,165803.25,4616.73305666,N,11940.85416711,W,4,5,1.9,321.217,M,-17.561,M,0.2,0000*4C
1627577883968466081,5386,1627577883968278884,gps_frame,$GPGGA,165803.30,4616.73307468,N,11940.85423967,W,4,5,1.9,321.214,M,-17.561,M,0.3,0000*4D
1627577884020313276,5387,1627577884020076990,gps_frame,$GPGGA,165803.35,4616.73310775,N,11940.85408071,W,4,5,1.9,321.207,M,-17.561,M,0.3,0000*44
1627577884069624195,5388,1627577884069434881,gps_frame,$GPGGA,165803.40,4616.73318194,N,11940.85417007,W,4,5,1.9,321.243,M,-17.561,M,0.4,0000*4F
1627577884120229297,5389,1627577884119961977,gps_frame,$GPGGA,165803.45,4616.73324107,N,11940.85406172,W,4,5,1.9,321.264,M,-17.561,M,0.4,0000*49
1627577884168316932,5390,1627577884168104887,gps_frame,$GPGGA,165803.50,4616.73327452,N,11940.85407010,W,4,5,1.9,321.211,M,-17.561,M,0.5,0000*4C
1627577884220045609,5391,1627577884219882965,gps_frame,$GPGGA,165803.55,4616.73331737,N,11940.85388723,W,4,5,1.9,321.185,M,-17.561,M,0.5,0000*47
1627577884269614631,5392,1627577884269402027,gps_frame,$GPGGA,165803.60,4616.73335570,N,11940.85401856,W,4,5,1.9,321.170,M,-17.561,M,0.6,0000*46
1627577884320058609,5393,1627577884319884061,gps_frame,$GPGGA,165803.65,4616.73339568,N,11940.85390668,W,4,5,1.9,321.150,M,-17.561,M,0.6,0000*48
1627577884368576518,5394,1627577884368376970,gps_frame,$GPGGA,165803.70,4616.73347751,N,11940.85393374,W,4,5,1.9,321.238,M,-17.561,M,0.7,0000*4A
1627577884420195486,5395,1627577884419924974,gps_frame,$GPGGA,165803.75,4616.73354402,N,11940.85379753,W,4,5,1.9,321.287,M,-17.561,M,0.7,0000*49
1627577884469874928,5396,1627577884469652891,gps_frame,$GPGGA,165803.80,4616.73356398,N,11940.85384428,W,4,5,1.9,321.263,M,-17.561,M,0.8,0000*4D
1627577884520147260,5397,1627577884519929885,gps_frame,$GPGGA,165803.85,4616.73360098,N,11940.85365538,W,4,5,1.9,321.266,M,-17.561,M,0.8,0000*44
1627577884568500092,5398,1627577884568150997,gps_frame,$GPGGA,165803.90,4616.73367110,N,11940.85379424,W,4,5,1.9,321.202,M,-17.561,M,0.9,0000*44
1627577884620111410,5399,1627577884619930982,gps_frame,$GPGGA,165803.95,4616.73372910,N,11940.85369339,W,4,5,1.9,321.162,M,-17.561,M,0.9,0000*42
1627577884675464653,5400,1627577884675328016,gps_frame,$GPGGA,165804.00,4616.73374913,N,11940.85367825,W,4,5,1.9,321.132,M,-17.561,M,1.0,0000*49
1627577884720682031,5401,1627577884720452070,gps_frame,$GPGGA,165804.05,4616.73378307,N,11940.85348341,W,4,5,1.9,321.098,M,-17.561,M,1.0,0000*4A
1627577884768431668,5402,1627577884768147945,gps_frame,$GPGGA,165804.10,4616.73385478,N,11940.85360919,W,4,5,1.9,321.137,M,-17.561,M,1.1,0000*4B
1627577884820147103,5403,1627577884819920063,gps_frame,$GPGGA,165804.15,4616.73391266,N,11940.85350955,W,4,5,1.9,321.149,M,-17.561,M,1.1,0000*40
1627577884871283368,5404,1627577884870559930,gps_frame,$GPGGA,165804.20,4616.73394405,N,11940.85353779,W,4,5,1.9,321.136,M,-17.561,M,0.2,0000*49
1627577884920127304,5405,1627577884919969081,gps_frame,$GPGGA,165804.25,4616.73398514,N,11940.85337294,W,4,5,1.9,321.132,M,-17.561,M,0.2,0000*41
1627577884968381265,5406,1627577884968214035,gps_frame,$GPGGA,165804.30,4616.73406180,N,11940.85344617,W,4,5,1.9,321.056,M,-17.561,M,0.3,0000*45
1627577885020165592,5407,1627577885019961118,gps_frame,$GPGGA,165804.35,4616.73412544,N,11940.85330865,W,4,5,1.9,321.006,M,-17.561,M,0.3,0000*44
1627577885069439563,5408,1627577885069227933,gps_frame,$GPGGA,165804.40,4616.73415383,N,11940.85339076,W,4,5,1.9,321.180,M,-17.561,M,0.4,0000*47
1627577885120360856,5409,1627577885120078086,gps_frame,$GPGGA,165804.45,4616.73419513,N,11940.85322942,W,4,5,1.9,321.273,M,-17.561,M,0.4,0000*4A
1627577885168626670,5410,1627577885168380975,gps_frame,$GPGGA,165804.50,4616.73427287,N,11940.85326594,W,4,5,1.9,321.105,M,-17.561,M,0.5,0000*49
1627577885220075928,5411,1627577885219898939,gps_frame,$GPGGA,165804.55,4616.73433727,N,11940.85310260,W,4,5,1.9,321.032,M,-17.561,M,0.5,0000*4A
1627577885270686581,5412,1627577885270421981,gps_frame,$GPGGA,165804.60,4616.73433397,N,11940.85322375,W,4,5,1.9,321.112,M,-17.561,M,0.6,0000*47
1627577885320047855,5413,1627577885319888114,gps_frame,$GPGGA,165804.65,4616.73435545,N,11940.85307592,W,4,5,1.9,321.136,M,-17.561,M,0.6,0000*43
1627577885368830690,5414,1627577885368546962,gps_frame,$GPGGA,165804.70,4616.73445372,N,11940.85311418,W,4,5,1.9,321.020,M,-17.561,M,0.7,0000*41
1627577885420334724,5415,1627577885419939994,gps_frame,$GPGGA,165804.75,4616.73452387,N,11940.85299972,W,4,5,1.9,320.955,M,-17.561,M,0.7,0000*42
1627577885469711291,5416,1627577885469547033,gps_frame,$GPGGA,165804.80,4616.73455216,N,11940.85303482,W,4,5,1.9,320.999,M,-17.561,M,0.8,0000*49
1627577885520208277,5417,1627577885520057916,gps_frame,$GPGGA,165804.85,4616.73459578,N,11940.85284936,W,4,5,1.9,321.003,M,-17.561,M,0.8,0000*48
1627577885568543527,5418,1627577885568244934,gps_frame,$GPGGA,165804.90,4616.73464590,N,11940.85298424,W,4,5,1.9,321.067,M,-17.561,M,0.9,0000*44
1627577885620073081,5419,1627577885619883060,gps_frame,$GPGGA,165804.95,4616.73469364,N,11940.85286555,W,4,5,1.9,321.110,M,-17.561,M,0.9,0000*48
1627577885676378018,5420,1627577885676253080,gps_frame,$GPGGA,165805.00,4616.73475793,N,11940.85289352,W,4,5,1.9,321.029,M,-17.561,M,1.0,0000*49
1627577885720075226,5421,1627577885719878911,gps_frame,$GPGGA,165805.05,4616.73481616,N,11940.85273799,W,4,5,1.9,320.994,M,-17.561,M,1.0,0000*43
1627577885779311242,5422,1627577885779032945,gps_frame,$GPGGA,165805.10,4616.73485280,N,11940.85280948,W,4,5,1.9,321.000,M,-17.561,M,1.1,0000*42
1627577885820061162,5423,1627577885819894075,gps_frame,$GPGGA,165805.15,4616.73489735,N,11940.85264275,W,4,5,1.9,320.992,M,-17.561,M,1.1,0000*4C
1627577885870658849,5424,1627577885870527982,gps_frame,$GPGGA,165805.20,4616.73496071,N,11940.85270711,W,4,5,1.9,320.962,M,-17.561,M,0.2,0000*4C
1627577885920039414,5425,1627577885919877052,gps_frame,$GPGGA,165805.25,4616.73501718,N,11940.85255551,W,4,5,1.9,320.939,M,-17.561,M,0.2,0000*41
1627577885968830000,5426,1627577885968524932,gps_frame,$GPGGA,165805.30,4616.73504806,N,11940.85264016,W,4,5,1.9,320.970,M,-17.561,M,0.3,0000*48
1627577886020112151,5427,1627577886019923925,gps_frame,$GPGGA,165805.35,4616.73508831,N,11940.85248892,W,4,5,1.9,320.982,M,-17.561,M,0.3,0000*42
1627577886070007491,5428,1627577886069833993,gps_frame,$GPGGA,165805.40,4616.73515336,N,11940.85254292,W,4,5,1.9,320.989,M,-17.561,M,0.4,0000*4B
1627577886120082690,5429,1627577886119910001,gps_frame,$GPGGA,165805.45,4616.73520933,N,11940.85240083,W,4,5,1.9,320.998,M,-17.561,M,0.4,0000*40
1627577886169028054,5430,1627577886168606042,gps_frame,$GPGGA,165805.50,4616.73528020,N,11940.85242403,W,4,5,1.9,320.916,M,-17.561,M,0.5,0000*4E
1627577886220105355,5431,1627577886219881057,gps_frame,$GPGGA,165805.55,4616.73534561,N,11940.85224092,W,4,5,1.9,320.867,M,-17.561,M,0.5,0000*4D
1627577886269658470,5432,1627577886269431114,gps_frame,$GPGGA,165805.60,4616.73534856,N,11940.85235378,W,4,5,1.9,320.930,M,-17.561,M,0.6,0000*45
1627577886320123725,5433,1627577886319937944,gps_frame,$GPGGA,165805.65,4616.73537438,N,11940.85218268,W,4,5,1.9,320.953,M,-17.561,M,0.6,0000*4D
1627577886368816232,5434,1627577886368460893,gps_frame,$GPGGA,165805.70,4616.73545826,N,11940.85226774,W,4,5,1.9,320.909,M,-17.561,M,0.7,0000*44
1627577886420139673,5435,1627577886419945955,gps_frame,$GPGGA,165805.75,4616.73552089,N,11940.85216437,W,4,5,1.9,320.889,M,-17.561,M,0.7,0000*44
1627577886469938289,5436,1627577886469727993,gps_frame,$GPGGA,165805.80,4616.73558604,N,11940.85216658,W,4,5,1.9,320.923,M,-17.561,M,0.8,0000*42
1627577886520184398,5437,1627577886519962072,gps_frame,$GPGGA,165805.85,4616.73565027,N,11940.85197824,W,4,5,1.9,320.938,M,-17.561,M,0.8,0000*4B
1627577886568362459,5438,1627577886568115949,gps_frame,$GPGGA,165805.90,4616.73567675,N,11940.85211903,W,4,5,1.9,320.914,M,-17.561,M,0.9,0000*4A
1627577886620157631,5439,1627577886619961977,gps_frame,$GPGGA,165805.95,4616.73571705,N,11940.85196240,W,4,5,1.9,320.904,M,-17.561,M,0.9,0000*4F
1627577886675550992,5440,1627577886675391912,gps_frame,$GPGGA,165806.00,4616.73576115,N,11940.85203292,W,4,5,1.9,320.854,M,-17.561,M,1.0,0000*4C
1627577886720819611,5441,1627577886720555067,gps_frame,$GPGGA,165806.05,4616.73580385,N,11940.85189468,W,4,5,1.9,320.819,M,-17.561,M,1.0,0000*40
1627577886768328365,5442,1627577886768165111,gps_frame,$GPGGA,165806.10,4616.73588107,N,11940.85194483,W,4,5,1.9,320.873,M,-17.561,M,1.1,0000*40
1627577886819994022,5443,1627577886819854021,gps_frame,$GPGGA,165806.15,4616.73594565,N,11940.85180916,W,4,5,1.9,320.894,M,-17.561,M,1.1,0000*45
1627577886870607802,5444,1627577886870414972,gps_frame,$GPGGA,165806.20,4616.73598369,N,11940.85185991,W,4,5,1.9,320.850,M,-17.561,M,0.2,0000*45
1627577886920124170,5445,1627577886919945001,gps_frame,$GPGGA,165806.25,4616.73603145,N,11940.85167637,W,4,5,1.9,320.830,M,-17.561,M,0.2,0000*44
1627577886968352242,5446,1627577886968178987,gps_frame,$GPGGA,165806.30,4616.73607261,N,11940.85178304,W,4,5,1.9,320.821,M,-17.561,M,0.3,0000*4B
1627577887020057838,5447,1627577887019891977,gps_frame,$GPGGA,165806.35,4616.73611618,N,11940.85164139,W,4,5,1.9,320.807,M,-17.561,M,0.3,0000*46
1627577887069446971,5448,1627577887069305896,gps_frame,$GPGGA,165806.40,4616.73618967,N,11940.85168849,W,4,5,1.9,320.868,M,-17.561,M,0.4,0000*46
1627577887120027035,5449,1627577887119872093,gps_frame,$GPGGA,165806.45,4616.73625221,N,11940.85154336,W,4,5,1.9,320.901,M,-17.561,M,0.4,0000*46
1627577887168355591,5450,1627577887168212890,gps_frame,$GPGGA,165806.50,4616.73627956,N,11940.85159202,W,4,5,1.9,320.825,M,-17.561,M,0.5,0000*46
1627577887220080612,5451,1627577887219877958,gps_frame,$GPGGA,165806.55,4616.73631980,N,11940.85140765,W,4,5,1.9,320.790,M,-17.561,M,0.5,0000*42
1627577887271227161,5452,1627577887270879030,gps_frame,$GPGGA,165806.60,4616.73637205,N,11940.85151111,W,4,5,1.9,320.862,M,-17.561,M,0.6,0000*40
1627577887320088826,5453,1627577887319899082,gps_frame,$GPGGA,165806.65,4616.73641990,N,11940.85138474,W,4,5,1.9,320.895,M,-17.561,M,0.6,0000*42
1627577887369182176,5454,1627577887368972063,gps_frame,$GPGGA,165806.70,4616.73645933,N,11940.85144565,W,4,5,1.9,320.792,M,-17.561,M,0.7,0000*48
1627577887420151639,5455,1627577887420022964,gps_frame,$GPGGA,165806.75,4616.73650184,N,11940.85130994,W,4,5,1.9,320.738,M,-17.561,M,0.7,0000*4C
1627577887469930927,5456,1627577887469624042,gps_frame,$GPGGA,165806.80,4616.73660288,N,11940.85142123,W,4,5,1.9,320.909,M,-17.561,M,0.8,0000*48
1627577887520174266,5457,1627577887519969940,gps_frame,$GPGGA,165806.85,4616.73668249,N,11940.85132126,W,4,5,1.9,320.998,M,-17.561,M,0.8,0000*42
1627577887568493508,5458,1627577887568311929,gps_frame,$GPGGA,165806.90,4616.73667555,N,11940.85127356,W,4,5,1.9,320.809,M,-17.561,M,0.9,0000*4A
1627577887620210201,5459,1627577887619946956,gps_frame,$GPGGA,165806.95,4616.73670030,N,11940.85100796,W,4,5,1.9,320.723,M,-17.561,M,0.9,0000*45
1627577887676425231,5460,1627577887676264047,gps_frame,$GPGGA,165807.00,4616.73676265,N,11940.85125519,W,4,5,1.9,320.807,M,-17.561,M,1.0,0000*4F
1627577887720076310,5461,1627577887719887971,gps_frame,$GPGGA,165807.05,4616.73681124,N,11940.85121407,W,4,5,1.9,320.829,M,-17.561,M,1.0,0000*42
1627577887779252982,5462,1627577887779098033,gps_frame,$GPGGA,165807.10,4616.73684369,N,11940.85113935,W,4,5,1.9,320.783,M,-17.561,M,1.1,0000*4B
1627577887820026554,5463,1627577887819875001,gps_frame,$GPGGA,165807.15,4616.73688204,N,11940.85095633,W,4,5,1.9,320.761,M,-17.561,M,1.1,0000*42
1627577887870742282,5464,1627577887870557069,gps_frame,$GPGGA,165807.20,4616.73693563,N,11940.85107086,W,4,5,1.9,320.739,M,-17.561,M,0.2,0000*45
1627577887920068562,5465,1627577887919872999,gps_frame,$GPGGA,165807.25,4616.73698364,N,11940.85096426,W,4,5,1.9,320.717,M,-17.561,M,0.2,0000*41
1627577887968556562,5466,1627577887968373060,gps_frame,$GPGGA,165807.30,4616.73698408,N,11940.85105148,W,4,5,1.9,320.782,M,-17.561,M,0.3,0000*43
1627577888020121599,5467,1627577888019947052,gps_frame,$GPGGA,165807.35,4616.73700193,N,11940.85094044,W,4,5,1.9,320.815,M,-17.561,M,0.3,0000*44
1627577888070722120,5468,1627577888070519924,gps_frame,$GPGGA,165807.40,4616.73710382,N,11940.85093378,W,4,5,1.9,320.722,M,-17.561,M,0.4,0000*42
1627577888120269382,5469,1627577888119973897,gps_frame,$GPGGA,165807.45,4616.73717494,N,11940.85082183,W,4,5,1.9,320.676,M,-17.561,M,0.4,0000*46
1627577888168414211,5470,1627577888168204069,gps_frame,$GPGGA,165807.50,4616.73716434,N,11940.85089304,W,4,5,1.9,320.767,M,-17.561,M,0.5,0000*4F
1627577888220081606,5471,1627577888219904899,gps_frame,$GPGGA,165807.55,4616.73718366,N,11940.85073141,W,4,5,1.9,320.808,M,-17.561,M,0.5,0000*44
1627577888269674732,5472,1627577888269512891,gps_frame,$GPGGA,165807.60,4616.73722837,N,11940.85083078,W,4,5,1.9,320.798,M,-17.561,M,0.6,0000*45
1627577888320054260,5473,1627577888319889068,gps_frame,$GPGGA,165807.65,4616.73726379,N,11940.85075081,W,4,5,1.9,320.806,M,-17.561,M,0.6,0000*42
1627577888368530835,5474,1627577888368302106,gps_frame,$GPGGA,165807.70,4616.73733095,N,11940.85073320,W,4,5,1.9,320.733,M,-17.561,M,0.7,0000*45
1627577888420117607,5475,1627577888419975996,gps_frame,$GPGGA,165807.75,4616.73738649,N,11940.85060410,W,4,5,1.9,320.690,M,-17.561,M,0.7,0000*42
1627577888469417049,5476,1627577888469244003,gps_frame,$GPGGA,165807.80,4616.73738254,N,11940.85068825,W,4,5,1.9,320.722,M,-17.561,M,0.8,0000*45
1627577888520059757,5477,1627577888519908905,gps_frame,$GPGGA,165807.85,4616.73740038,N,11940.85055231,W,4,5,1.9,320.727,M,-17.561,M,0.8,0000*43
1627577888568294892,5478,1627577888568123102,gps_frame,$GPGGA,165807.90,4616.73744968,N,11940.85065433,W,4,5,1.9,320.669,M,-17.561,M,0.9,0000*42
1627577888620056102,5479,1627577888619867086,gps_frame,$GPGGA,165807.95,4616.73748746,N,11940.85059780,W,4,5,1.9,320.634,M,-17.561,M,0.9,0000*45
1627577888675387753,5480,1627577888675260066,gps_frame,$GPGGA,165808.00,4616.73751419,N,11940.85059032,W,4,5,1.9,320.706,M,-17.561,M,1.0,0000*41
1627577888720645141,5481,1627577888720439910,gps_frame,$GPGGA,165808.05,4616.73754497,N,11940.85047193,W,4,5,1.9,320.738,M,-17.561,M,1.0,0000*4F
1627577888768610292,5482,1627577888768316984,gps_frame,$GPGGA,165808.10,4616.73759255,N,11940.85053710,W,4,5,1.9,320.723,M,-17.561,M,1.1,0000*4D
1627577888820036641,5483,1627577888819865942,gps_frame,$GPGGA,165808.15,4616.73763398,N,11940.85044575,W,4,5,1.9,320.725,M,-17.561,M,1.1,0000*40
1627577888870560483,5484,1627577888870321035,gps_frame,$GPGGA,165808.20,4616.73764258,N,11940.85048267,W,4,5,1.9,320.674,M,-17.561,M,0.2,0000*43
1627577888920230246,5485,1627577888920068025,gps_frame,$GPGGA,165808.25,4616.73766321,N,11940.85036414,W,4,5,1.9,320.643,M,-17.561,M,0.2,0000*44
1627577888968891321,5486,1627577888968580007,gps_frame,$GPGGA,165808.30,4616.73773186,N,11940.85040079,W,4,5,1.9,320.658,M,-17.561,M,0.3,0000*4E
1627577889020149555,5487,1627577889019933938,gps_frame,$GPGGA,165808.35,4616.73778293,N,11940.85031135,W,4,5,1.9,320.656,M,-17.561,M,0.3,0000*46
1627577889069504388,5488,1627577889069261074,gps_frame,$GPGGA,165808.40,4616.73779277,N,11940.85033943,W,4,5,1.9,320.673,M,-17.561,M,0.4,0000*44
1627577889120021195,5489,1627577889119878053,gps_frame,$GPGGA,165808.45,4616.73781771,N,11940.85020088,W,4,5,1.9,320.682,M,-17.561,M,0.4,0000*47
1627577889168208001,5490,1627577889168076992,gps_frame,$GPGGA,165808.50,4616.73785616,N,11940.85029281,W,4,5,1.9,320.675,M,-17.561,M,0.5,0000*4C
1627577889220125252,5491,1627577889219887971,gps_frame,$GPGGA,165808.55,4616.73788966,N,11940.85021604,W,4,5,1.9,320.674,M,-17.561,M,0.5,0000*4C
1627577889270566592,5492,1627577889270338058,gps_frame,$GPGGA,165808.60,4616.73792640,N,11940.85022858,W,4,5,1.9,320.639,M,-17.561,M,0.6,0000*44
1627577889320122712,5493,1627577889319911956,gps_frame,$GPGGA,165808.65,4616.73796196,N,11940.85012066,W,4,5,1.9,320.617,M,-17.561,M,0.6,0000*43
1627577889368625088,5494,1627577889368355989,gps_frame,$GPGGA,165808.70,4616.73802253,N,11940.85015891,W,4,5,1.9,320.706,M,-17.561,M,0.7,0000*48
1627577889420036454,5495,1627577889419866085,gps_frame,$GPGGA,165808.75,4616.73807394,N,11940.85004640,W,4,5,1.9,320.754,M,-17.561,M,0.7,0000*47
1627577889470464911,5496,1627577889469445943,gps_frame,$GPGGA,165808.80,4616.73809498,N,11940.85008357,W,4,5,1.9,320.670,M,-17.561,M,0.8,0000*4F
1627577889520121347,5497,1627577889519926071,gps_frame,$GPGGA,165808.85,4616.73812714,N,11940.84993284,W,4,5,1.9,320.633,M,-17.561,M,0.8,0000*45
1627577889568430611,5498,1627577889568206071,gps_frame,$GPGGA,165808.90,4616.73815254,N,11940.85004963,W,4,5,1.9,320.633,M,-17.561,M,0.9,0000*42
1627577889620117372,5499,1627577889619925975,gps_frame,$GPGGA,165808.95,4616.73818042,N,11940.84996817,W,4,5,1.9,320.620,M,-17.561,M,0.9,0000*4C
1627577889675629980,5500,1627577889675452947,gps_frame,$GPGGA,165809.00,4616.73826760,N,11940.84994856,W,4,5,1.9,320.661,M,-17.561,M,1.0,0000*41
1627577889720511758,5501,1627577889720349073,gps_frame,$GPGGA,165809.05,4616.73833307,N,11940.84982660,W,4,5,1.9,320.682,M,-17.561,M,1.0,0000*44
1627577889768463109,5502,1627577889768233060,gps_frame,$GPGGA,165809.10,4616.73832482,N,11940.84988144,W,4,5,1.9,320.545,M,-17.561,M,1.1,0000*49
1627577889820062920,5503,1627577889819891929,gps_frame,$GPGGA,165809.15,4616.73834356,N,11940.84971225,W,4,5,1.9,320.466,M,-17.561,M,1.1,0000*46
1627577889870507986,5504,1627577889870333909,gps_frame,$GPGGA,165809.20,4616.73840922,N,11940.84982216,W,4,5,1.9,320.553,M,-17.561,M,0.2,0000*43
1627577889920505962,5505,1627577889920145988,gps_frame,$GPGGA,165809.25,4616.73845768,N,11940.84975067,W,4,5,1.9,320.579,M,-17.561,M,0.2,0000*47
1627577889968419210,5506,1627577889968228101,gps_frame,$GPGGA,165809.30,4616.73850694,N,11940.84972618,W,4,5,1.9,320.528,M,-17.561,M,0.3,0000*49
1627577890020274637,5507,1627577890020062923,gps_frame,$GPGGA,165809.35,4616.73855590,N,11940.84956763,W,4,5,1.9,320.506,M,-17.561,M,0.3,0000*49
1627577890069742099,5508,1627577890069559097,gps_frame,$GPGGA,165809.40,4616.73857297,N,11940.84968334,W,4,5,1.9,320.522,M,-17.561,M,0.4,0000*43
1627577890120061277,5509,1627577890119875907,gps_frame,$GPGGA,165809.45,4616.73860172,N,11940.84956335,W,4,5,1.9,320.524,M,-17.561,M,0.4,0000*40
1627577890168638032,5510,1627577890168190002,gps_frame,$GPGGA,165809.50,4616.73865812,N,11940.84961716,W,4,5,1.9,320.509,M,-17.561,M,0.5,0000*41
1627577890220016575,5511,1627577890219847917,gps_frame,$GPGGA,165809.55,4616.73870439,N,11940.84951591,W,4,5,1.9,320.500,M,-17.561,M,0.5,0000*42
1627577890269741009,5512,1627577890269474983,gps_frame,$GPGGA,165809.60,4616.73873850,N,11940.84954597,W,4,5,1.9,320.514,M,-17.561,M,0.6,0000*41
1627577890320249549,5513,1627577890319938898,gps_frame,$GPGGA,165809.65,4616.73877706,N,11940.84941007,W,4,5,1.9,320.520,M,-17.561,M,0.6,0000*43
1627577890368332935,5514,1627577890368165969,gps_frame,$GPGGA,165809.70,4616.73883376,N,11940.84946659,W,4,5,1.9,320.564,M,-17.561,M,0.7,0000*44
1627577890420117449,5515,1627577890419954061,gps_frame,$GPGGA,165809.75,4616.73888382,N,11940.84934138,W,4,5,1.9,320.594,M,-17.561,M,0.7,0000*4B
1627577890469557490,5516,1627577890469305992,gps_frame,$GPGGA,165809.80,4616.73890845,N,11940.84940401,W,4,5,1.9,320.585,M,-17.561,M,0.8,0000*4B
1627577890520089294,5517,1627577890519925117,gps_frame,$GPGGA,165809.85,4616.73894239,N,11940.84926598,W,4,5,1.9,320.591,M,-17.561,M,0.8,0000*4F
1627577890568411530,5518,1627577890568198919,gps_frame,$GPGGA,165809.90,4616.73900031,N,11940.84931819,W,4,5,1.9,320.546,M,-17.561,M,0.9,0000*44
1627577890620090063,5519,1627577890619889020,gps_frame,$GPGGA,165809.95,4616.73904946,N,11940.84919734,W,4,5,1.9,320.520,M,-17.561,M,0.9,0000*46
1627577890675595647,5520,1627577890675323963,gps_frame,$GPGGA,165810.00,4616.73906548,N,11940.84926115,W,4,5,1.9,320.452,M,-17.561,M,1.0,0000*47
1627577890720692379,5521,1627577890720438003,gps_frame,$GPGGA,165810.05,4616.73909363,N,11940.84913016,W,4,5,1.9,320.400,M,-17.561,M,1.0,0000*41
1627577890768496198,5522,1627577890768177986,gps_frame,$GPGGA,165810.10,4616.73914155,N,11940.84919490,W,4,5,1.9,320.483,M,-17.561,M,1.1,0000*44
1627577890820092101,5523,1627577890819878101,gps_frame,$GPGGA,165810.15,4616.73918223,N,11940.84909775,W,4,5,1.9,320.516,M,-17.561,M,1.1,0000*4B
1627577890870546219,5524,1627577890870310068,gps_frame,$GPGGA,165810.20,4616.73921710,N,11940.84911163,W,4,5,1.9,320.427,M,-17.561,M,0.2,0000*4B
1627577890920067040,5525,1627577890919866085,gps_frame,$GPGGA,165810.25,4616.73925410,N,11940.84897954,W,4,5,1.9,320.383,M,-17.561,M,0.2,0000*43
1627577890968736597,5526,1627577890968400955,gps_frame,$GPGGA,165810.30,4616.73928582,N,11940.84904869,W,4,5,1.9,320.433,M,-17.561,M,0.3,0000*49
1627577891020127269,5527,1627577891019953966,gps_frame,$GPGGA,165810.35,4616.73931948,N,11940.84893957,W,4,5,1.9,320.449,M,-17.561,M,0.3,0000*40
1627577891069438558,5528,1627577891069297075,gps_frame,$GPGGA,165810.40,4616.73936925,N,11940.84896506,W,4,5,1.9,320.450,M,-17.561,M,0.4,0000*4C
1627577891120207789,5529,1627577891119952917,gps_frame,$GPGGA,165810.45,4616.73941312,N,11940.84884611,W,4,5,1.9,320.457,M,-17.561,M,0.4,0000*46
1627577891168310172,5530,1627577891168112039,gps_frame,$GPGGA,165810.50,4616.73943176,N,11940.84890800,W,4,5,1.9,320.388,M,-17.561,M,0.5,0000*4F
1627577891220147671,5531,1627577891219948053,gps_frame,$GPGGA,165810.55,4616.73945964,N,11940.84878818,W,4,5,1.9,320.347,M,-17.561,M,0.5,0000*4B
1627577891270689985,5532,1627577891270401954,gps_frame,$GPGGA,165810.60,4616.73951952,N,11940.84885936,W,4,5,1.9,320.493,M,-17.561,M,0.6,0000*4F
1627577891320046470,5533,1627577891319935083,gps_frame,$GPGGA,165810.65,4616.73956767,N,11940.84877407,W,4,5,1.9,320.571,M,-17.561,M,0.6,0000*4A
1627577891368389183,5534,1627577891368246078,gps_frame,$GPGGA,165810.70,4616.73960195,N,11940.84880574,W,4,5,1.9,320.531,M,-17.561,M,0.7,0000*48
1627577891420062727,5535,1627577891419884920,gps_frame,$GPGGA,165810.75,4616.73964131,N,11940.84867309,W,4,5,1.9,320.535,M,-17.561,M,0.7,0000*46
1627577891469531589,5536,1627577891469341993,gps_frame,$GPGGA,165810.80,4616.73966400,N,11940.84875945,W,4,5,1.9,320.460,M,-17.561,M,0.8,0000*46
1627577891520230222,5537,1627577891520057916,gps_frame,$GPGGA,165810.85,4616.73969280,N,11940.84865149,W,4,5,1.9,320.414,M,-17.561,M,0.8,0000*44
1627577891568210892,5538,1627577891568020105,gps_frame,$GPGGA,165810.90,4616.73973871,N,11940.84864953,W,4,5,1.9,320.423,M,-17.561,M,0.9,0000*48
1627577891620040365,5539,1627577891619884014,gps_frame,$GPGGA,165810.95,4616.73977836,N,11940.84852285,W,4,5,1.9,320.413,M,-17.561,M,0.9,0000*4C
1627577891675439517,5540,1627577891675321102,gps_frame,$GPGGA,165811.00,4616.73977309,N,11940.84859553,W,4,5,1.9,320.329,M,-17.561,M,1.0,0000*47
1627577891720505828,5541,1627577891720366001,gps_frame,$GPGGA,165811.05,4616.73978427,N,11940.84849178,W,4,5,1.9,320.272,M,-17.561,M,1.0,0000*45
1627577891768295370,5542,1627577891768151998,gps_frame,$GPGGA,165811.10,4616.73984776,N,11940.84853997,W,4,5,1.9,320.334,M,-17.561,M,1.1,0000*45
1627577891820132794,5543,1627577891819971084,gps_frame,$GPGGA,165811.15,4616.73989209,N,11940.84848493,W,4,5,1.9,320.353,M,-17.561,M,1.1,0000*42
1627577891870483443,5544,1627577891870341062,gps_frame,$GPGGA,165811.20,4616.73990020,N,11940.84848307,W,4,5,1.9,320.334,M,-17.561,M,0.2,0000*4C
1627577891920241692,5545,1627577891919994115,gps_frame,$GPGGA,165811.25,4616.73992158,N,11940.84835836,W,4,5,1.9,320.330,M,-17.561,M,0.2,0000*42
1627577891968369195,5546,1627577891968198060,gps_frame,$GPGGA,165811.30,4616.73996410,N,11940.84848657,W,4,5,1.9,320.456,M,-17.561,M,0.3,0000*4E
1627577892020160325,5547,1627577892019948005,gps_frame,$GPGGA,165811.35,4616.73999888,N,11940.84844957,W,4,5,1.9,320.534,M,-17.561,M,0.3,0000*4F
1627577892069547652,5548,1627577892069391012,gps_frame,$GPGGA,165811.40,4616.74003690,N,11940.84836740,W,4,5,1.9,320.313,M,-17.561,M,0.4,0000*4E
