%time,field.header.seq,field.header.stamp,field.header.frame_id,field.sentence
1627577751470083130,2736,1627577751469916105,gps_frame,$GPGGA,165550.80,4616.76616020,N,11940.88085671,W,4,8,1.1,323.222,M,-17.561,M,0.8,0000*41
1627577751520166004,2737,1627577751520042896,gps_frame,$GPGGA,165550.85,4616.76610495,N,11940.88103177,W,4,8,1.1,323.221,M,-17.561,M,0.8,0000*45
1627577751568944258,2738,1627577751568718910,gps_frame,$GPGGA,165550.90,4616.76602786,N,11940.88089057,W,4,8,1.1,323.252,M,-17.561,M,0.9,0000*46
1627577751620452804,2739,1627577751620258092,gps_frame,$GPGGA,165550.95,4616.76595876,N,11940.88102110,W,4,8,1.1,323.271,M,-17.561,M,0.9,0000*4F
1627577751677516934,2740,1627577751677270889,gps_frame,$GPGGA,165551.00,4616.76590445,N,11940.88097825,W,4,8,1.1,323.234,M,-17.561,M,1.0,0000*40
1627577751720142437,2741,1627577751720024108,gps_frame,$GPGGA,165551.05,4616.76584472,N,11940.88118213,W,4,8,1.1,323.217,M,-17.561,M,1.0,0000*4C
1627577751780751746,2742,1627577751780606985,gps_frame,$GPGGA,165551.10,4616.76580550,N,11940.88099381,W,4,8,1.1,323.248,M,-17.561,M,1.1,0000*44
1627577751820166460,2743,1627577751820015907,gps_frame,$GPGGA,165551.15,4616.76575878,N,11940.88111995,W,4,8,1.1,323.262,M,-17.561,M,1.1,0000*4A
1627577751871201665,2744,1627577751871011018,gps_frame,$GPGGA,165551.20,4616.76564815,N,11940.88105889,W,4,8,1.1,323.266,M,-17.561,M,0.2,0000*48
1627577751920294618,2745,1627577751920104980,gps_frame,$GPGGA,165551.25,4616.76556091,N,11940.88120337,W,4,8,1.1,323.274,M,-17.561,M,0.2,0000*42
1627577751969091425,2746,1627577751968935012,gps_frame,$GPGGA,165551.30,4616.76553350,N,11940.88113678,W,4,8,1.1,323.279,M,-17.561,M,0.3,0000*4F
1627577752020188994,2747,1627577752020026922,gps_frame,$GPGGA,165551.35,4616.76548419,N,11940.88136535,W,4,8,1.1,323.285,M,-17.561,M,0.3,0000*44
1627577752070538667,2748,1627577752070352077,gps_frame,$GPGGA,165551.40,4616.76546809,N,11940.88116071,W,4,8,1.1,323.242,M,-17.561,M,0.4,0000*4E
1627577752120164819,2749,1627577752120004892,gps_frame,$GPGGA,165551.45,4616.76543983,N,11940.88127340,W,4,8,1.1,323.217,M,-17.561,M,0.4,0000*4E
1627577752168890800,2750,1627577752168688058,gps_frame,$GPGGA,165551.50,4616.76530807,N,11940.88127890,W,4,8,1.1,323.274,M,-17.561,M,0.5,0000*41
1627577752220294948,2751,1627577752220084905,gps_frame,$GPGGA,165551.55,4616.76521420,N,11940.88141422,W,4,8,1.1,323.300,M,-17.561,M,0.5,0000*4A
1627577752270509655,2752,1627577752270364046,gps_frame,$GPGGA,165551.60,4616.76519417,N,11940.88134181,W,4,8,1.1,323.281,M,-17.561,M,0.6,0000*46
1627577752320224901,2753,1627577752320030927,gps_frame,$GPGGA,165551.65,4616.76514712,N,11940.88156701,W,4,8,1.1,323.278,M,-17.561,M,0.6,0000*44
1627577752369470858,2754,1627577752369338035,gps_frame,$GPGGA,165551.70,4616.76510478,N,11940.88135503,W,4,8,1.1,323.275,M,-17.561,M,0.7,0000*42
1627577752420216268,2755,1627577752420064926,gps_frame,$GPGGA,165551.75,4616.76506072,N,11940.88146081,W,4,8,1.1,323.271,M,-17.561,M,0.7,0000*41
1627577752470155726,2756,1627577752469975948,gps_frame,$GPGGA,165551.80,4616.76495576,N,11940.88147306,W,4,8,1.1,323.271,M,-17.561,M,0.8,0000*43
1627577752520331309,2757,1627577752520112991,gps_frame,$GPGGA,165551.85,4616.76487309,N,11940.88164332,W,4,8,1.1,323.270,M,-17.561,M,0.8,0000*4C
1627577752568789421,2758,1627577752568641901,gps_frame,$GPGGA,165551.90,4616.76485958,N,11940.88147384,W,4,8,1.1,323.274,M,-17.561,M,0.9,0000*4D
1627577752620318190,2759,1627577752620081901,gps_frame,$GPGGA,165551.95,4616.76482075,N,11940.88163507,W,4,8,1.1,323.276,M,-17.561,M,0.9,0000*40
1627577752677350408,2760,1627577752677151918,gps_frame,$GPGGA,165552.00,4616.76470227,N,11940.88153224,W,4,8,1.1,323.316,M,-17.561,M,1.0,0000*4D
1627577752720265990,2761,1627577752720082998,gps_frame,$GPGGA,165552.05,4616.76461295,N,11940.88165926,W,4,8,1.1,323.343,M,-17.561,M,1.0,0000*4D
1627577752780725279,2762,1627577752780508041,gps_frame,$GPGGA,165552.10,4616.76462406,N,11940.88159288,W,4,8,1.1,323.290,M,-17.561,M,1.1,0000*48
1627577752820191263,2763,1627577752820060014,gps_frame,$GPGGA,165552.15,4616.76459840,N,11940.88181511,W,4,8,1.1,323.266,M,-17.561,M,1.1,0000*40
1627577752871203271,2764,1627577752871012926,gps_frame,$GPGGA,165552.20,4616.76446671,N,11940.88156883,W,4,8,1.1,323.316,M,-17.561,M,0.2,0000*4C
1627577752920258456,2765,1627577752920089006,gps_frame,$GPGGA,165552.25,4616.76437384,N,11940.88160237,W,4,8,1.1,323.339,M,-17.561,M,0.2,0000*4D
1627577752969234256,2766,1627577752969024896,gps_frame,$GPGGA,165552.30,4616.76433872,N,11940.88168265,W,4,8,1.1,323.351,M,-17.561,M,0.3,0000*4F
1627577753020276961,2767,1627577753020153045,gps_frame,$GPGGA,165552.35,4616.76428245,N,11940.88196369,W,4,8,1.1,323.367,M,-17.561,M,0.3,0000*47
1627577753070126789,2768,1627577753069973945,gps_frame,$GPGGA,165552.40,4616.76427968,N,11940.88165702,W,4,8,1.1,323.279,M,-17.561,M,0.4,0000*42
1627577753120191994,2769,1627577753120029926,gps_frame,$GPGGA,165552.45,4616.76425732,N,11940.88174272,W,4,8,1.1,323.229,M,-17.561,M,0.4,0000*43
1627577753169240384,2770,1627577753169048070,gps_frame,$GPGGA,165552.50,4616.76410322,N,11940.88180429,W,4,8,1.1,323.325,M,-17.561,M,0.5,0000*4B
1627577753220188655,2771,1627577753220030069,gps_frame,$GPGGA,165552.55,4616.76399735,N,11940.88195644,W,4,8,1.1,323.368,M,-17.561,M,0.5,0000*4E
1627577753271062963,2772,1627577753270931959,gps_frame,$GPGGA,165552.60,4616.76399148,N,11940.88186751,W,4,8,1.1,323.335,M,-17.561,M,0.6,0000*48
1627577753320188642,2773,1627577753320034027,gps_frame,$GPGGA,165552.65,4616.76394900,N,11940.88211116,W,4,8,1.1,323.330,M,-17.561,M,0.6,0000*49
1627577753369306474,2774,1627577753369048118,gps_frame,$GPGGA,165552.70,4616.76390841,N,11940.88180344,W,4,8,1.1,323.311,M,-17.561,M,0.7,0000*41
1627577753420638198,2775,1627577753420437097,gps_frame,$GPGGA,165552.75,4616.76386714,N,11940.88185229,W,4,8,1.1,323.297,M,-17.561,M,0.7,0000*4C
1627577753470075119,2776,1627577753469921112,gps_frame,$GPGGA,165552.80,4616.76373726,N,11940.88196536,W,4,8,1.1,323.355,M,-17.561,M,0.8,0000*46
1627577753520166468,2777,1627577753520044088,gps_frame,$GPGGA,165552.85,4616.76363982,N,11940.88216995,W,4,8,1.1,323.386,M,-17.561,M,0.8,0000*42
1627577753568901149,2778,1627577753568727016,gps_frame,$GPGGA,165552.90,4616.76363678,N,11940.88191782,W,4,8,1.1,323.350,M,-17.561,M,0.9,0000*42
1627577753620207430,2779,1627577753620048999,gps_frame,$GPGGA,165552.95,4616.76359917,N,11940.88206986,W,4,8,1.1,323.338,M,-17.561,M,0.9,0000*41
1627577753677571687,2780,1627577753677350997,gps_frame,$GPGGA,165553.00,4616.76357368,N,11940.88195881,W,4,8,1.1,323.329,M,-17.561,M,1.0,0000*47
1627577753720451331,2781,1627577753720026969,gps_frame,$GPGGA,165553.05,4616.76354376,N,11940.88208321,W,4,8,1.1,323.318,M,-17.561,M,1.0,0000*4A
1627577753780658957,2782,1627577753780508041,gps_frame,$GPGGA,165553.10,4616.76336286,N,11940.88209858,W,4,8,1.1,323.378,M,-17.561,M,1.1,0000*47
1627577753820184386,2783,1627577753820024013,gps_frame,$GPGGA,165553.15,4616.76323724,N,11940.88224121,W,4,8,1.1,323.413,M,-17.561,M,1.1,0000*49
1627577753871191349,2784,1627577753870986938,gps_frame,$GPGGA,165553.20,4616.76330177,N,11940.88209621,W,4,8,1.1,323.367,M,-17.561,M,0.2,0000*43
1627577753920253696,2785,1627577753920053958,gps_frame,$GPGGA,165553.25,4616.76329669,N,11940.88234842,W,4,8,1.1,323.350,M,-17.561,M,0.2,0000*47
1627577753969208131,2786,1627577753968955039,gps_frame,$GPGGA,165553.30,4616.76320964,N,11940.88212399,W,4,8,1.1,323.299,M,-17.561,M,0.3,0000*44
1627577754020286394,2787,1627577754020091056,gps_frame,$GPGGA,165553.35,4616.76315260,N,11940.88215863,W,4,8,1.1,323.260,M,-17.561,M,0.3,0000*47
1627577754070584810,2788,1627577754070406913,gps_frame,$GPGGA,165553.40,4616.76302236,N,11940.88225693,W,4,8,1.1,323.370,M,-17.561,M,0.4,0000*45
1627577754120201665,2789,1627577754120049953,gps_frame,$GPGGA,165553.45,4616.76291891,N,11940.88245950,W,4,8,1.1,323.426,M,-17.561,M,0.4,0000*4E
1627577754168843451,2790,1627577754168684005,gps_frame,$GPGGA,165553.50,4616.76294467,N,11940.88224098,W,4,8,1.1,323.356,M,-17.561,M,0.5,0000*41
1627577754220181724,2791,1627577754220035076,gps_frame,$GPGGA,165553.55,4616.76292313,N,11940.88243594,W,4,8,1.1,323.333,M,-17.561,M,0.5,0000*4D
1627577754270411259,2792,1627577754270243883,gps_frame,$GPGGA,165553.60,4616.76282291,N,11940.88227976,W,4,8,1.1,323.366,M,-17.561,M,0.6,0000*40
1627577754320432781,2793,1627577754320337057,gps_frame,$GPGGA,165553.65,4616.76275149,N,11940.88235969,W,4,8,1.1,323.379,M,-17.561,M,0.6,0000*48
1627577754369382852,2794,1627577754369201898,gps_frame,$GPGGA,165553.70,4616.76267611,N,11940.88235883,W,4,8,1.1,323.384,M,-17.561,M,0.7,0000*43
1627577754420312015,2795,1627577754420124053,gps_frame,$GPGGA,165553.75,4616.76260218,N,11940.88255614,W,4,8,1.1,323.392,M,-17.561,M,0.7,0000*4D
1627577754470133251,2796,1627577754469929933,gps_frame,$GPGGA,165553.80,4616.76256546,N,11940.88237667,W,4,8,1.1,323.393,M,-17.561,M,0.8,0000*40
1627577754520259876,2797,1627577754520080089,gps_frame,$GPGGA,165553.85,4616.76251512,N,11940.88253839,W,4,8,1.1,323.396,M,-17.561,M,0.8,0000*41
1627577754568788577,2798,1627577754568610906,gps_frame,$GPGGA,165553.90,4616.76245239,N,11940.88243225,W,4,8,1.1,323.379,M,-17.561,M,0.9,0000*48
1627577754620209292,2799,1627577754620033979,gps_frame,$GPGGA,165553.95,4616.76239419,N,11940.88257738,W,4,8,1.1,323.370,M,-17.561,M,0.9,0000*47
1627577754677451402,2800,1627577754677310943,gps_frame,$GPGGA,165554.00,4616.76231604,N,11940.88250059,W,4,8,1.1,323.389,M,-17.561,M,1.0,0000*43
1627577754720300357,2801,1627577754720103025,gps_frame,$GPGGA,165554.05,4616.76224519,N,11940.88266161,W,4,8,1.1,323.398,M,-17.561,M,1.0,0000*42
1627577754780615289,2802,1627577754780384063,gps_frame,$GPGGA,165554.10,4616.76217418,N,11940.88254240,W,4,8,1.1,323.406,M,-17.561,M,1.1,0000*46
1627577754820190830,2803,1627577754820025920,gps_frame,$GPGGA,165554.15,4616.76210323,N,11940.88271457,W,4,8,1.1,323.415,M,-17.561,M,1.1,0000*4E
1627577754871185218,2804,1627577754871001005,gps_frame,$GPGGA,165554.20,4616.76208868,N,11940.88255084,W,4,8,1.1,323.384,M,-17.561,M,0.2,0000*44
1627577754920168649,2805,1627577754920018911,gps_frame,$GPGGA,165554.25,4616.76205348,N,11940.88270650,W,4,8,1.1,323.368,M,-17.561,M,0.2,0000*4F
1627577754969156697,2806,1627577754969006061,gps_frame,$GPGGA,165554.30,4616.76194203,N,11940.88262584,W,4,8,1.1,323.417,M,-17.561,M,0.3,0000*49
1627577755020429304,2807,1627577755020247936,gps_frame,$GPGGA,165554.35,4616.76185849,N,11940.88275009,W,4,8,1.1,323.443,M,-17.561,M,0.3,0000*4F
1627577755070219027,2808,1627577755070027112,gps_frame,$GPGGA,165554.40,4616.76180583,N,11940.88266112,W,4,8,1.1,323.431,M,-17.561,M,0.4,0000*48
1627577755120135203,2809,1627577755119993925,gps_frame,$GPGGA,165554.45,4616.76174186,N,11940.88285328,W,4,8,1.1,323.433,M,-17.561,M,0.4,0000*43
1627577755168751058,2810,1627577755168612957,gps_frame,$GPGGA,165554.50,4616.76172033,N,11940.88269041,W,4,8,1.1,323.433,M,-17.561,M,0.5,0000*41
1627577755220142272,2811,1627577755220021963,gps_frame,$GPGGA,165554.55,4616.76168327,N,11940.88284611,W,4,8,1.1,323.435,M,-17.561,M,0.5,0000*4F
1627577755271062786,2812,1627577755270936965,gps_frame,$GPGGA,165554.60,4616.76156465,N,11940.88277412,W,4,8,1.1,323.433,M,-17.561,M,0.6,0000*4D
1627577755320186950,2813,1627577755320019960,gps_frame,$GPGGA,165554.65,4616.76147588,N,11940.88290385,W,4,8,1.1,323.433,M,-17.561,M,0.6,0000*4A
1627577755369628479,2814,1627577755369465112,gps_frame,$GPGGA,165554.70,4616.76145219,N,11940.88280972,W,4,8,1.1,323.452,M,-17.561,M,0.7,0000*46
1627577755420156149,2815,1627577755420018911,gps_frame,$GPGGA,165554.75,4616.76140468,N,11940.88301311,W,4,8,1.1,323.464,M,-17.561,M,0.7,0000*44
1627577755470095805,2816,1627577755469933032,gps_frame,$GPGGA,165554.80,4616.76134935,N,11940.88285582,W,4,8,1.1,323.437,M,-17.561,M,0.8,0000*40
1627577755520208108,2817,1627577755520050048,gps_frame,$GPGGA,165554.85,4616.76129688,N,11940.88298629,W,4,8,1.1,323.425,M,-17.561,M,0.8,0000*4D
1627577755568849481,2818,1627577755568685054,gps_frame,$GPGGA,165554.90,4616.76122319,N,11940.88292987,W,4,8,1.1,323.452,M,-17.561,M,0.9,0000*4F
1627577755620227799,2819,1627577755620023012,gps_frame,$GPGGA,165554.95,4616.76115727,N,11940.88308427,W,4,8,1.1,323.465,M,-17.561,M,0.9,0000*46
1627577755678559409,2820,1627577755678359031,gps_frame,$GPGGA,165555.00,4616.76109206,N,11940.88297379,W,4,8,1.1,323.452,M,-17.561,M,1.0,0000*47
1627577755720110690,2821,1627577755720021963,gps_frame,$GPGGA,165555.05,4616.76102659,N,11940.88313496,W,4,8,1.1,323.449,M,-17.561,M,1.0,0000*46
1627577755781380484,2822,1627577755781002998,gps_frame,$GPGGA,165555.10,4616.76099077,N,11940.88304368,W,4,8,1.1,323.443,M,-17.561,M,1.1,0000*40
1627577755820116898,2823,1627577755820024967,gps_frame,$GPGGA,165555.15,4616.76094410,N,11940.88322639,W,4,8,1.1,323.439,M,-17.561,M,1.1,0000*45
1627577755871146154,2824,1627577755871021986,gps_frame,$GPGGA,165555.20,4616.76086844,N,11940.88307245,W,4,8,1.1,323.466,M,-17.561,M,0.2,0000*4D
1627577755920143289,2825,1627577755919986009,gps_frame,$GPGGA,165555.25,4616.76080340,N,11940.88318200,W,4,8,1.1,323.481,M,-17.561,M,0.2,0000*47
1627577755969242838,2826,1627577755968975067,gps_frame,$GPGGA,165555.30,4616.76074315,N,11940.88315247,W,4,8,1.1,323.471,M,-17.561,M,0.3,0000*48
1627577756020171024,2827,1627577756020031929,gps_frame,$GPGGA,165555.35,4616.76068115,N,11940.88334325,W,4,8,1.1,323.471,M,-17.561,M,0.3,0000*44
1627577756070665624,2828,1627577756070549011,gps_frame,$GPGGA,165555.40,4616.76062803,N,11940.88318990,W,4,8,1.1,323.458,M,-17.561,M,0.4,0000*44
1627577756120183629,2829,1627577756120026111,gps_frame,$GPGGA,165555.45,4616.76057166,N,11940.88333602,W,4,8,1.1,323.449,M,-17.561,M,0.4,0000*40
1627577756168769332,2830,1627577756168611049,gps_frame,$GPGGA,165555.50,4616.76049864,N,11940.88324222,W,4,8,1.1,323.477,M,-17.561,M,0.5,0000*4C
1627577756220160956,2831,1627577756219990015,gps_frame,$GPGGA,165555.55,4616.76043171,N,11940.88339565,W,4,8,1.1,323.491,M,-17.561,M,0.5,0000*4E
1627577756270162938,2832,1627577756270020961,gps_frame,$GPGGA,165555.60,4616.76038861,N,11940.88331596,W,4,8,1.1,323.472,M,-17.561,M,0.6,0000*46
1627577756320171835,2833,1627577756320038080,gps_frame,$GPGGA,165555.65,4616.76033680,N,11940.88350078,W,4,8,1.1,323.466,M,-17.561,M,0.6,0000*4E
1627577756369103207,2834,1627577756368932962,gps_frame,$GPGGA,165555.70,4616.76024917,N,11940.88336167,W,4,8,1.1,323.496,M,-17.561,M,0.7,0000*4C
1627577756420214458,2835,1627577756420042037,gps_frame,$GPGGA,165555.75,4616.76017465,N,11940.88349348,W,4,8,1.1,323.513,M,-17.561,M,0.7,0000*4A
1627577756470093084,2836,1627577756469917058,gps_frame,$GPGGA,165555.80,4616.76014656,N,11940.88339249,W,4,8,1.1,323.482,M,-17.561,M,0.8,0000*40
1627577756520149952,2837,1627577756520039081,gps_frame,$GPGGA,165555.85,4616.76010147,N,11940.88356981,W,4,8,1.1,323.469,M,-17.561,M,0.8,0000*45
1627577756569086440,2838,1627577756568864107,gps_frame,$GPGGA,165555.90,4616.76001975,N,11940.88346219,W,4,8,1.1,323.491,M,-17.561,M,0.9,0000*45
1627577756620182792,2839,1627577756620034933,gps_frame,$GPGGA,165555.95,4616.75995143,N,11940.88360096,W,4,8,1.1,323.500,M,-17.561,M,0.9,0000*42
1627577756677400297,2840,1627577756677239894,gps_frame,$GPGGA,165556.00,4616.75988225,N,11940.88351365,W,4,8,1.1,323.518,M,-17.561,M,1.0,0000*4E
1627577756720172301,2841,1627577756720017910,gps_frame,$GPGGA,165556.05,4616.75981339,N,11940.88368469,W,4,8,1.1,323.533,M,-17.561,M,1.0,0000*46
1627577756780906979,2842,1627577756780545949,gps_frame,$GPGGA,165556.10,4616.75979898,N,11940.88358101,W,4,8,1.1,323.485,M,-17.561,M,1.1,0000*40
1627577756820151430,2843,1627577756820013046,gps_frame,$GPGGA,165556.15,4616.75976464,N,11940.88376829,W,4,8,1.1,323.460,M,-17.561,M,1.1,0000*41
1627577756871171371,2844,1627577756870996952,gps_frame,$GPGGA,165556.20,4616.75963511,N,11940.88361695,W,4,8,1.1,323.523,M,-17.561,M,0.2,0000*4B
1627577756920355596,2845,1627577756920150041,gps_frame,$GPGGA,165556.25,4616.75954043,N,11940.88370487,W,4,8,1.1,323.554,M,-17.561,M,0.2,0000*49
1627577756969145422,2846,1627577756968970060,gps_frame,$GPGGA,165556.30,4616.75952360,N,11940.88368102,W,4,8,1.1,323.525,M,-17.561,M,0.3,0000*4F
1627577757020204258,2847,1627577757020036935,gps_frame,$GPGGA,165556.35,4616.75947826,N,11940.88392499,W,4,8,1.1,323.518,M,-17.561,M,0.3,0000*4B
1627577757070111243,2848,1627577757069937944,gps_frame,$GPGGA,165556.40,4616.75940111,N,11940.88371981,W,4,8,1.1,323.522,M,-17.561,M,0.4,0000*44
1627577757120180622,2849,1627577757120009899,gps_frame,$GPGGA,165556.45,4616.75933561,N,11940.88383346,W,4,8,1.1,323.522,M,-17.561,M,0.4,0000*4A
1627577757169004935,2850,1627577757168812036,gps_frame,$GPGGA,165556.50,4616.75927265,N,11940.88378184,W,4,8,1.1,323.523,M,-17.561,M,0.5,0000*40
1627577757220340196,2851,1627577757220117092,gps_frame,$GPGGA,165556.55,4616.75920877,N,11940.88396032,W,4,8,1.1,323.524,M,-17.561,M,0.5,0000*40
1627577757271177586,2852,1627577757270981073,gps_frame,$GPGGA,165556.60,4616.75912840,N,11940.88381423,W,4,8,1.1,323.543,M,-17.561,M,0.6,0000*43
1627577757320190009,2853,1627577757320034980,gps_frame,$GPGGA,165556.65,4616.75905407,N,11940.88396483,W,4,8,1.1,323.555,M,-17.561,M,0.6,0000*44
1627577757369055946,2854,1627577757368946075,gps_frame,$GPGGA,165556.70,4616.75901615,N,11940.88387558,W,4,8,1.1,323.527,M,-17.561,M,0.7,0000*46
1627577757420167989,2855,1627577757420041084,gps_frame,$GPGGA,165556.75,4616.75896491,N,11940.88407387,W,4,8,1.1,323.515,M,-17.561,M,0.7,0000*48
1627577757470115697,2856,1627577757469954967,gps_frame,$GPGGA,165556.80,4616.75886526,N,11940.88390557,W,4,8,1.1,323.555,M,-17.561,M,0.8,0000*47
1627577757520258206,2857,1627577757520106077,gps_frame,$GPGGA,165556.85,4616.75878333,N,11940.88402689,W,4,8,1.1,323.576,M,-17.561,M,0.8,0000*4C
1627577757568781930,2858,1627577757568628072,gps_frame,$GPGGA,165556.90,4616.75875489,N,11940.88399417,W,4,8,1.1,323.545,M,-17.561,M,0.9,0000*42
1627577757620116370,2859,1627577757619996070,gps_frame,$GPGGA,165556.95,4616.75870687,N,11940.88422679,W,4,8,1.1,323.534,M,-17.561,M,0.9,0000*45
1627577757677591131,2860,1627577757677315950,gps_frame,$GPGGA,165557.00,4616.75861065,N,11940.88401051,W,4,8,1.1,323.567,M,-17.561,M,1.0,0000*41
1627577757720196180,2861,1627577757720040082,gps_frame,$GPGGA,165557.05,4616.75853207,N,11940.88411138,W,4,8,1.1,323.584,M,-17.561,M,1.0,0000*41
1627577757780900435,2862,1627577757780633926,gps_frame,$GPGGA,165557.10,4616.75846380,N,11940.88409271,W,4,8,1.1,323.558,M,-17.561,M,1.1,0000*48
1627577757820112378,2863,1627577757819983959,gps_frame,$GPGGA,165557.15,4616.75839175,N,11940.88431753,W,4,8,1.1,323.547,M,-17.561,M,1.1,0000*4D
1627577757871089361,2864,1627577757870965957,gps_frame,$GPGGA,165557.20,4616.75835822,N,11940.88412184,W,4,8,1.1,323.566,M,-17.561,M,0.2,0000*40
1627577757920156736,2865,1627577757920056104,gps_frame,$GPGGA,165557.25,4616.75831059,N,11940.88428343,W,4,8,1.1,323.574,M,-17.561,M,0.2,0000*46
1627577757969103021,2866,1627577757968939065,gps_frame,$GPGGA,165557.30,4616.75819322,N,11940.88417006,W,4,8,1.1,323.563,M,-17.561,M,0.3,0000*4E
1627577758020195869,2867,1627577758020057916,gps_frame,$GPGGA,165557.35,4616.75810138,N,11940.88430353,W,4,8,1.1,323.559,M,-17.561,M,0.3,0000*44
1627577758070496303,2868,1627577758070329904,gps_frame,$GPGGA,165557.40,4616.75807387,N,11940.88422393,W,4,8,1.1,323.560,M,-17.561,M,0.4,0000*44
1627577758120174534,2869,1627577758120013952,gps_frame,$GPGGA,165557.45,4616.75802281,N,11940.88445081,W,4,8,1.1,323.559,M,-17.561,M,0.4,0000*48
1627577758169102461,2870,1627577758168884038,gps_frame,$GPGGA,165557.50,4616.75790864,N,11940.88421995,W,4,8,1.1,323.573,M,-17.561,M,0.5,0000*4E
1627577758220136561,2871,1627577758219978094,gps_frame,$GPGGA,165557.55,4616.75781757,N,11940.88432191,W,4,8,1.1,323.582,M,-17.561,M,0.5,0000*44
1627577758270178291,2872,1627577758270037889,gps_frame,$GPGGA,165557.60,4616.75778029,N,11940.88429819,W,4,8,1.1,323.597,M,-17.561,M,0.6,0000*4E
1627577758320144246,2873,1627577758319983959,gps_frame,$GPGGA,165557.65,4616.75772332,N,11940.88454928,W,4,8,1.1,323.609,M,-17.561,M,0.6,0000*45
1627577758369124058,2874,1627577758368989944,gps_frame,$GPGGA,165557.70,4616.75764201,N,11940.88430032,W,4,8,1.1,323.588,M,-17.561,M,0.7,0000*4C
1627577758420209713,2875,1627577758420052051,gps_frame,$GPGGA,165557.75,4616.75756961,N,11940.88441214,W,4,8,1.1,323.579,M,-17.561,M,0.7,0000*4B
1627577758470085814,2876,1627577758469922065,gps_frame,$GPGGA,165557.80,4616.75751359,N,11940.88437131,W,4,8,1.1,323.587,M,-17.561,M,0.8,0000*4C
1627577758520207278,2877,1627577758520050048,gps_frame,$GPGGA,165557.85,4616.75745158,N,11940.88457783,W,4,8,1.1,323.589,M,-17.561,M,0.8,0000*48
1627577758568929450,2878,1627577758568763971,gps_frame,$GPGGA,165557.90,4616.75735380,N,11940.88441817,W,4,8,1.1,323.592,M,-17.561,M,0.9,0000*42
1627577758620198939,2879,1627577758620037078,gps_frame,$GPGGA,165557.95,4616.75726912,N,11940.88457037,W,4,8,1.1,323.595,M,-17.561,M,0.9,0000*4E
1627577758677458908,2880,1627577758677244901,gps_frame,$GPGGA,165558.00,4616.75719278,N,11940.88442930,W,4,8,1.1,323.625,M,-17.561,M,1.0,0000*4C
1627577758720176700,2881,1627577758720019102,gps_frame,$GPGGA,165558.05,4616.75711339,N,11940.88461684,W,4,8,1.1,323.646,M,-17.561,M,1.0,0000*41
1627577758780823393,2882,1627577758780590057,gps_frame,$GPGGA,165558.10,4616.75712233,N,11940.88450565,W,4,8,1.1,323.575,M,-17.561,M,1.1,0000*41
1627577758820432624,2883,1627577758820202112,gps_frame,$GPGGA,165558.15,4616.75709894,N,11940.88472678,W,4,8,1.1,323.537,M,-17.561,M,1.1,0000*40
1627577758871118339,2884,1627577758870997905,gps_frame,$GPGGA,165558.20,4616.75691831,N,11940.88451826,W,4,8,1.1,323.606,M,-17.561,M,0.2,0000*4E
1627577758920173174,2885,1627577758920017004,gps_frame,$GPGGA,165558.25,4616.75679524,N,11940.88456457,W,4,8,1.1,323.636,M,-17.561,M,0.2,0000*4A
1627577758969257399,2886,1627577758969062089,gps_frame,$GPGGA,165558.30,4616.75677772,N,11940.88457897,W,4,8,1.1,323.607,M,-17.561,M,0.3,0000*43
1627577759020224685,2887,1627577759020052909,gps_frame,$GPGGA,165558.35,4616.75672156,N,11940.88488755,W,4,8,1.1,323.599,M,-17.561,M,0.3,0000*44
1627577759070095243,2888,1627577759069905996,gps_frame,$GPGGA,165558.40,4616.75666916,N,11940.88457189,W,4,8,1.1,323.600,M,-17.561,M,0.4,0000*4E
1627577759120167186,2889,1627577759120054006,gps_frame,$GPGGA,165558.45,4616.75661538,N,11940.88467941,W,4,8,1.1,323.598,M,-17.561,M,0.4,0000*41
1627577759168846275,2890,1627577759168663024,gps_frame,$GPGGA,165558.50,4616.75647741,N,11940.88460748,W,4,8,1.1,323.631,M,-17.561,M,0.5,0000*4C
1627577759220178091,2891,1627577759220050096,gps_frame,$GPGGA,165558.55,4616.75637025,N,11940.88475155,W,4,8,1.1,323.651,M,-17.561,M,0.5,0000*43
1627577759271011126,2892,1627577759270879030,gps_frame,$GPGGA,165558.60,4616.75637411,N,11940.88466430,W,4,8,1.1,323.616,M,-17.561,M,0.6,0000*42
1627577759320167077,2893,1627577759320023059,gps_frame,$GPGGA,165558.65,4616.75633733,N,11940.88492724,W,4,8,1.1,323.601,M,-17.561,M,0.6,0000*4B
1627577759369183276,2894,1627577759368959903,gps_frame,$GPGGA,165558.70,4616.75623026,N,11940.88464507,W,4,8,1.1,323.639,M,-17.561,M,0.7,0000*4D
1627577759420371245,2895,1627577759420128107,gps_frame,$GPGGA,165558.75,4616.75614892,N,11940.88470548,W,4,8,1.1,323.658,M,-17.561,M,0.7,0000*42
1627577759470102048,2896,1627577759469927072,gps_frame,$GPGGA,165558.80,4616.75606115,N,11940.88469969,W,4,8,1.1,323.664,M,-17.561,M,0.8,0000*4A
1627577759520277631,2897,1627577759520082950,gps_frame,$GPGGA,165558.85,4616.75597573,N,11940.88491732,W,4,8,1.1,323.674,M,-17.561,M,0.8,0000*46
1627577759568761203,2898,1627577759568603038,gps_frame,$GPGGA,165558.90,4616.75596175,N,11940.88469230,W,4,8,1.1,323.633,M,-17.561,M,0.9,0000*43
1627577759620119769,2899,1627577759620028972,gps_frame,$GPGGA,165558.95,4616.75592162,N,11940.88486348,W,4,8,1.1,323.611,M,-17.561,M,0.9,0000*4B
1627577759677447703,2900,1627577759677278041,gps_frame,$GPGGA,165559.00,4616.75580113,N,11940.88471854,W,4,8,1.1,323.648,M,-17.561,M,1.0,0000*49
1627577759720459789,2901,1627577759720144033,gps_frame,$GPGGA,165559.05,4616.75571006,N,11940.88482695,W,4,8,1.1,323.663,M,-17.561,M,1.0,0000*41
1627577759780935500,2902,1627577759780654907,gps_frame,$GPGGA,165559.10,4616.75566795,N,11940.88477284,W,4,8,1.1,323.654,M,-17.561,M,1.1,0000*45
1627577759820181576,2903,1627577759820034980,gps_frame,$GPGGA,165559.15,4616.75560791,N,11940.88500063,W,4,8,1.1,323.654,M,-17.561,M,1.1,0000*48
1627577759871114120,2904,1627577759870994091,gps_frame,$GPGGA,165559.20,4616.75554271,N,11940.88476560,W,4,8,1.1,323.660,M,-17.561,M,0.2,0000*41
1627577759920154186,2905,1627577759919986009,gps_frame,$GPGGA,165559.25,4616.75547940,N,11940.88488441,W,4,8,1.1,323.663,M,-17.561,M,0.2,0000*4F
1627577759969217924,2906,1627577759968954086,gps_frame,$GPGGA,165559.30,4616.75539196,N,11940.88486675,W,4,8,1.1,323.642,M,-17.561,M,0.3,0000*48
1627577760020239178,2907,1627577760020112037,gps_frame,$GPGGA,165559.35,4616.75531335,N,11940.88507246,W,4,8,1.1,323.630,M,-17.561,M,0.3,0000*47
1627577760070663758,2908,1627577760070420980,gps_frame,$GPGGA,165559.40,4616.75523844,N,11940.88485268,W,4,8,1.1,323.655,M,-17.561,M,0.4,0000*48
1627577760120178718,2909,1627577760120037078,gps_frame,$GPGGA,165559.45,4616.75516218,N,11940.88499739,W,4,8,1.1,323.667,M,-17.561,M,0.4,0000*45
1627577760169162633,2910,1627577760169012069,gps_frame,$GPGGA,165559.50,4616.75510701,N,11940.88487360,W,4,8,1.1,323.664,M,-17.561,M,0.5,0000*4F
1627577760220182565,2911,1627577760220026016,gps_frame,$GPGGA,165559.55,4616.75504412,N,11940.88506067,W,4,8,1.1,323.666,M,-17.561,M,0.5,0000*40
1627577760270208637,2912,1627577760270001888,gps_frame,$GPGGA,165559.60,4616.75498425,N,11940.88491427,W,4,8,1.1,323.684,M,-17.561,M,0.6,0000*46
1627577760320135765,2913,1627577760319979906,gps_frame,$GPGGA,165559.65,4616.75492327,N,11940.88507193,W,4,8,1.1,323.696,M,-17.561,M,0.6,0000*4B
1627577760369191558,2914,1627577760369059085,gps_frame,$GPGGA,165559.70,4616.75482623,N,11940.88492622,W,4,8,1.1,323.658,M,-17.561,M,0.7,0000*4C
1627577760420170380,2915,1627577760420015096,gps_frame,$GPGGA,165559.75,4616.75474239,N,11940.88506155,W,4,8,1.1,323.638,M,-17.561,M,0.7,0000*42
1627577760470012517,2916,1627577760469877958,gps_frame,$GPGGA,165559.80,4616.75468912,N,11940.88498984,W,4,8,1.1,323.667,M,-17.561,M,0.8,0000*40
1627577760520154457,2917,1627577760520034074,gps_frame,$GPGGA,165559.85,4616.75462465,N,11940.88521273,W,4,8,1.1,323.679,M,-17.561,M,0.8,0000*4D
1627577760568735054,2918,1627577760568593978,gps_frame,$GPGGA,165559.90,4616.75453096,N,11940.88495660,W,4,8,1.1,323.693,M,-17.561,M,0.9,0000*4E
1627577760620104550,2919,1627577760619980096,gps_frame,$GPGGA,165559.95,4616.75444798,N,11940.88506567,W,4,8,1.1,323.707,M,-17.561,M,0.9,0000*47
1627577760677414360,2920,1627577760677205085,gps_frame,$GPGGA,165600.00,4616.75440518,N,11940.88500294,W,4,8,1.1,323.665,M,-17.561,M,1.0,0000*4A
1627577760720141863,2921,1627577760719990015,gps_frame,$GPGGA,165600.05,4616.75434768,N,11940.88522208,W,4,8,1.1,323.644,M,-17.561,M,1.0,0000*4F
1627577760780843319,2922,1627577760780551910,gps_frame,$GPGGA,165600.10,4616.75427197,N,11940.88505199,W,4,8,1.1,323.650,M,-17.561,M,1.1,0000*45
1627577760820106090,2923,1627577760819986104,gps_frame,$GPGGA,165600.15,4616.75420292,N,11940.88519855,W,4,8,1.1,323.647,M,-17.561,M,1.1,0000*43
1627577760871053483,2924,1627577760870934963,gps_frame,$GPGGA,165600.20,4616.75408230,N,11940.88506518,W,4,8,1.1,323.682,M,-17.561,M,0.2,0000*46
1627577760920104415,2925,1627577760919984102,gps_frame,$GPGGA,165600.25,4616.75398057,N,11940.88521875,W,4,8,1.1,323.702,M,-17.561,M,0.2,0000*44
1627577760969322532,2926,1627577760969073057,gps_frame,$GPGGA,165600.30,4616.75398703,N,11940.88512646,W,4,8,1.1,323.664,M,-17.561,M,0.3,0000*48
1627577761020288760,2927,1627577761020097017,gps_frame,$GPGGA,165600.35,4616.75395388,N,11940.88538679,W,4,8,1.1,323.647,M,-17.561,M,0.3,0000*42
1627577761070074495,2928,1627577761069921970,gps_frame,$GPGGA,165600.40,4616.75380615,N,11940.88510472,W,4,8,1.1,323.693,M,-17.561,M,0.4,0000*48
1627577761120157004,2929,1627577761119999885,gps_frame,$GPGGA,165600.45,4616.75370037,N,11940.88515313,W,4,8,1.1,323.716,M,-17.561,M,0.4,0000*4D
1627577761168886221,2930,1627577761168739080,gps_frame,$GPGGA,165600.50,4616.75368225,N,11940.88517800,W,4,8,1.1,323.672,M,-17.561,M,0.5,0000*48
1627577761220100819,2931,1627577761219978094,gps_frame,$GPGGA,165600.55,4616.75363203,N,11940.88546195,W,4,8,1.1,323.653,M,-17.561,M,0.5,0000*40
1627577761271095106,2932,1627577761270916938,gps_frame,$GPGGA,165600.60,4616.75351664,N,11940.88514153,W,4,8,1.1,323.695,M,-17.561,M,0.6,0000*46
1627577761320281312,2933,1627577761320100069,gps_frame,$GPGGA,165600.65,4616.75342510,N,11940.88521393,W,4,8,1.1,323.715,M,-17.561,M,0.6,0000*40
1627577761369581196,2934,1627577761369409084,gps_frame,$GPGGA,165600.70,4616.75337397,N,11940.88522558,W,4,8,1.1,323.685,M,-17.561,M,0.7,0000*44
1627577761420178776,2935,1627577761420021057,gps_frame,$GPGGA,165600.75,4616.75330805,N,11940.88548879,W,4,8,1.1,323.673,M,-17.561,M,0.7,0000*4D
1627577761470114069,2936,1627577761469990015,gps_frame,$GPGGA,165600.80,4616.75324130,N,11940.88523680,W,4,8,1.1,323.672,M,-17.561,M,0.8,0000*46
1627577761520270523,2937,1627577761520157098,gps_frame,$GPGGA,165600.85,4616.75317486,N,11940.88537095,W,4,8,1.1,323.667,M,-17.561,M,0.8,0000*48
1627577761569018595,2938,1627577761568808078,gps_frame,$GPGGA,165600.90,4616.75306953,N,11940.88526673,W,4,8,1.1,323.688,M,-17.561,M,0.9,0000*47
1627577761620227604,2939,1627577761620068073,gps_frame,$GPGGA,165600.95,4616.75297844,N,11940.88543347,W,4,8,1.1,323.699,M,-17.561,M,0.9,0000*4D
1627577761677851554,2940,1627577761677690029,gps_frame,$GPGGA,165601.00,4616.75291935,N,11940.88531569,W,4,8,1.1,323.687,M,-17.561,M,1.0,0000*49
1627577761720154576,2941,1627577761720024108,gps_frame,$GPGGA,165601.05,4616.75284855,N,11940.88553991,W,4,8,1.1,323.683,M,-17.561,M,1.0,0000*44
1627577761780774785,2942,1627577761780618906,gps_frame,$GPGGA,165601.10,4616.75278544,N,11940.88530649,W,4,8,1.1,323.678,M,-17.561,M,1.1,0000*44
1627577761820158812,2943,1627577761820049047,gps_frame,$GPGGA,165601.15,4616.75271952,N,11940.88544855,W,4,8,1.1,323.674,M,-17.561,M,1.1,0000*4F
1627577761871128385,2944,1627577761870995044,gps_frame,$GPGGA,165601.20,4616.75260466,N,11940.88534259,W,4,8,1.1,323.708,M,-17.561,M,0.2,0000*4A
1627577761920270194,2945,1627577761920108079,gps_frame,$GPGGA,165601.25,4616.75250772,N,11940.88551283,W,4,8,1.1,323.728,M,-17.561,M,0.2,0000*4C
1627577761969173515,2946,1627577761968981027,gps_frame,$GPGGA,165601.30,4616.75244556,N,11940.88535573,W,4,8,1.1,323.699,M,-17.561,M,0.3,0000*49
1627577762020384071,2947,1627577762020136117,gps_frame,$GPGGA,165601.35,4616.75237067,N,11940.88556878,W,4,8,1.1,323.689,M,-17.561,M,0.3,0000*4D
1627577762070512763,2948,1627577762070346117,gps_frame,$GPGGA,165601.40,4616.75234082,N,11940.88542326,W,4,8,1.1,323.669,M,-17.561,M,0.4,0000*4B
1627577762120174207,2949,1627577762120019912,gps_frame,$GPGGA,165601.45,4616.75229448,N,11940.88562930,W,4,8,1.1,323.653,M,-17.561,M,0.4,0000*46
1627577762168971143,2950,1627577762168740034,gps_frame,$GPGGA,165601.50,4616.75212620,N,11940.88542772,W,4,8,1.1,323.698,M,-17.561,M,0.5,0000*4A
1627577762220181522,2951,1627577762220022916,gps_frame,$GPGGA,165601.55,4616.75200257,N,11940.88552039,W,4,8,1.1,323.720,M,-17.561,M,0.5,0000*43
1627577762270607231,2952,1627577762270430088,gps_frame,$GPGGA,165601.60,4616.75198631,N,11940.88545671,W,4,8,1.1,323.729,M,-17.561,M,0.6,0000*45
1627577762320117310,2953,1627577762319989919,gps_frame,$GPGGA,165601.65,4616.75193074,N,11940.88574744,W,4,8,1.1,323.743,M,-17.561,M,0.6,0000*45
1627577762369070922,2954,1627577762368943929,gps_frame,$GPGGA,165601.70,4616.75187291,N,11940.88545401,W,4,8,1.1,323.683,M,-17.561,M,0.7,0000*41
1627577762420164832,2955,1627577762420027017,gps_frame,$GPGGA,165601.75,4616.75181591,N,11940.88556812,W,4,8,1.1,323.650,M,-17.561,M,0.7,0000*47
1627577762470048273,2956,1627577762469902992,gps_frame,$GPGGA,165601.80,4616.75167197,N,11940.88549152,W,4,8,1.1,323.716,M,-17.561,M,0.8,0000*48
1627577762520193236,2957,1627577762520066022,gps_frame,$GPGGA,165601.85,4616.75155986,N,11940.88564176,W,4,8,1.1,323.746,M,-17.561,M,0.8,0000*48
1627577762568778868,2958,1627577762568640947,gps_frame,$GPGGA,165601.90,4616.75152958,N,11940.88553242,W,4,8,1.1,323.702,M,-17.561,M,0.9,0000*49
1627577762620174418,2959,1627577762620032072,gps_frame,$GPGGA,165601.95,4616.75146934,N,11940.88579634,W,4,8,1.1,323.684,M,-17.561,M,0.9,0000*41
1627577762677240627,2960,1627577762677098989,gps_frame,$GPGGA,165602.00,4616.75140279,N,11940.88553414,W,4,8,1.1,323.687,M,-17.561,M,1.0,0000*49
1627577762720238960,2961,1627577762720052957,gps_frame,$GPGGA,165602.05,4616.75133854,N,11940.88566170,W,4,8,1.1,323.683,M,-17.561,M,1.0,0000*48
1627577762780481598,2962,1627577762780333042,gps_frame,$GPGGA,165602.10,4616.75123163,N,11940.88558953,W,4,8,1.1,323.720,M,-17.561,M,1.1,0000*4D
1627577762820161341,2963,1627577762820004940,gps_frame,$GPGGA,165602.15,4616.75114034,N,11940.88576605,W,4,8,1.1,323.742,M,-17.561,M,1.1,0000*4B
1627577762871150890,2964,1627577762870992898,gps_frame,$GPGGA,165602.20,4616.75108210,N,11940.88561751,W,4,8,1.1,323.709,M,-17.561,M,0.2,0000*4F
1627577762920201303,2965,1627577762920033931,gps_frame,$GPGGA,165602.25,4616.75101177,N,11940.88582496,W,4,8,1.1,323.696,M,-17.561,M,0.2,0000*43
1627577762969030771,2966,1627577762968887090,gps_frame,$GPGGA,165602.30,4616.75094805,N,11940.88560611,W,4,8,1.1,323.702,M,-17.561,M,0.3,0000*4A
1627577763020167149,2967,1627577763020044088,gps_frame,$GPGGA,165602.35,4616.75088191,N,11940.88575036,W,4,8,1.1,323.701,M,-17.561,M,0.3,0000*42
1627577763070111689,2968,1627577763069930076,gps_frame,$GPGGA,165602.40,4616.75076635,N,11940.88566366,W,4,8,1.1,323.727,M,-17.561,M,0.4,0000*4F
1627577763120184416,2969,1627577763120029926,gps_frame,$GPGGA,165602.45,4616.75066889,N,11940.88584712,W,4,8,1.1,323.743,M,-17.561,M,0.4,0000*4B
1627577763168746286,2970,1627577763168617010,gps_frame,$GPGGA,165602.50,4616.75065764,N,11940.88566699,W,4,8,1.1,323.710,M,-17.561,M,0.5,0000*49
1627577763220179415,2971,1627577763220024108,gps_frame,$GPGGA,165602.55,4616.75061483,N,11940.88587155,W,4,8,1.1,323.695,M,-17.561,M,0.5,0000*46
1627577763271134048,2972,1627577763270977973,gps_frame,$GPGGA,165602.60,4616.75051283,N,11940.88571163,W,4,8,1.1,323.724,M,-17.561,M,0.6,0000*41
1627577763320168941,2973,1627577763320015907,gps_frame,$GPGGA,165602.65,4616.75043250,N,11940.88583566,W,4,8,1.1,323.737,M,-17.561,M,0.6,0000*47
1627577763369030664,2974,1627577763368906974,gps_frame,$GPGGA,165602.70,4616.75034306,N,11940.88575444,W,4,8,1.1,323.729,M,-17.561,M,0.7,0000*47
1627577763420179544,2975,1627577763420011997,gps_frame,$GPGGA,165602.75,4616.75025695,N,11940.88594887,W,4,8,1.1,323.729,M,-17.561,M,0.7,0000*41
1627577763470026859,2976,1627577763469913959,gps_frame,$GPGGA,165602.80,4616.75020985,N,11940.88577110,W,4,8,1.1,323.730,M,-17.561,M,0.8,0000*4D
1627577763520191231,2977,1627577763520035982,gps_frame,$GPGGA,165602.85,4616.75014848,N,11940.88596466,W,4,8,1.1,323.731,M,-17.561,M,0.8,0000*45
1627577763568984216,2978,1627577763568799018,gps_frame,$GPGGA,165602.90,4616.75005917,N,11940.88578097,W,4,8,1.1,323.732,M,-17.561,M,0.9,0000*42
1627577763620116442,2979,1627577763620019912,gps_frame,$GPGGA,165602.95,4616.74998009,N,11940.88591982,W,4,8,1.1,323.734,M,-17.561,M,0.9,0000*41
1627577763677379650,2980,1627577763677241086,gps_frame,$GPGGA,165603.00,4616.74994046,N,11940.88580471,W,4,8,1.1,323.725,M,-17.561,M,1.0,0000*42
1627577763720209987,2981,1627577763720058917,gps_frame,$GPGGA,165603.05,4616.74988640,N,11940.88599121,W,4,8,1.1,323.720,M,-17.561,M,1.0,0000*47
1627577763781856646,2982,1627577763781409025,gps_frame,$GPGGA,165603.10,4616.74977738,N,11940.88583460,W,4,8,1.1,323.736,M,-17.561,M,1.1,0000*40
1627577763820202857,2983,1627577763820054054,gps_frame,$GPGGA,165603.15,4616.74968847,N,11940.88596796,W,4,8,1.1,323.745,M,-17.561,M,1.1,0000*46
1627577763871155074,2984,1627577763871001005,gps_frame,$GPGGA,165603.20,4616.74963252,N,11940.88587766,W,4,8,1.1,323.724,M,-17.561,M,0.2,0000*4F
1627577763920148686,2985,1627577763919992923,gps_frame,$GPGGA,165603.25,4616.74956451,N,11940.88609505,W,4,8,1.1,323.714,M,-17.561,M,0.2,0000*48
1627577763969207798,2986,1627577763968966960,gps_frame,$GPGGA,165603.30,4616.74947341,N,11940.88585872,W,4,8,1.1,323.746,M,-17.561,M,0.3,0000*46
1627577764020169711,2987,1627577764020045995,gps_frame,$GPGGA,165603.35,4616.74939075,N,11940.88598906,W,4,8,1.1,323.762,M,-17.561,M,0.3,0000*46
1627577764070525625,2988,1627577764070369958,gps_frame,$GPGGA,165603.40,4616.74935575,N,11940.88588057,W,4,8,1.1,323.724,M,-17.561,M,0.4,0000*44
1627577764120159264,2989,1627577764120031118,gps_frame,$GPGGA,165603.45,4616.74930330,N,11940.88607984,W,4,8,1.1,323.705,M,-17.561,M,0.4,0000*43
1627577764168806833,2990,1627577764168631076,gps_frame,$GPGGA,165603.50,4616.74921368,N,11940.88592917,W,4,8,1.1,323.744,M,-17.561,M,0.5,0000*4B
1627577764220263519,2991,1627577764220098018,gps_frame,$GPGGA,165603.55,4616.74913766,N,11940.88606951,W,4,8,1.1,323.763,M,-17.561,M,0.5,0000*4C
1627577764270182213,2992,1627577764270064115,gps_frame,$GPGGA,165603.60,4616.74907179,N,11940.88593367,W,4,8,1.1,323.716,M,-17.561,M,0.6,0000*46
1627577764320190542,2993,1627577764320004940,gps_frame,$GPGGA,165603.65,4616.74900220,N,11940.88609564,W,4,8,1.1,323.693,M,-17.561,M,0.6,0000*42
1627577764369176150,2994,1627577764368995904,gps_frame,$GPGGA,165603.70,4616.74891297,N,11940.88596787,W,4,8,1.1,323.741,M,-17.561,M,0.7,0000*46
1627577764420196989,2995,1627577764420028924,gps_frame,$GPGGA,165603.75,4616.74883094,N,11940.88614264,W,4,8,1.1,323.763,M,-17.561,M,0.7,0000*40
1627577764470130069,2996,1627577764469944953,gps_frame,$GPGGA,165603.80,4616.74880301,N,11940.88595011,W,4,8,1.1,323.742,M,-17.561,M,0.8,0000*40
1627577764520242801,2997,1627577764520081996,gps_frame,$GPGGA,165603.85,4616.74875527,N,11940.88611195,W,4,8,1.1,323.736,M,-17.561,M,0.8,0000*4C
1627577764568774138,2998,1627577764568608999,gps_frame,$GPGGA,165603.90,4616.74867572,N,11940.88598732,W,4,8,1.1,323.717,M,-17.561,M,0.9,0000*40
1627577764620146044,2999,1627577764620022058,gps_frame,$GPGGA,165603.95,4616.74860782,N,11940.88611983,W,4,8,1.1,323.703,M,-17.561,M,0.9,0000*4C
1627577764677277676,3000,1627577764677063941,gps_frame,$GPGGA,165604.00,4616.74850733,N,11940.88598232,W,4,8,1.1,323.744,M,-17.561,M,1.0,0000*46
1627577764720200811,3001,1627577764720031976,gps_frame,$GPGGA,165604.05,4616.74841876,N,11940.88611991,W,4,8,1.1,323.765,M,-17.561,M,1.0,0000*4E
1627577764781002251,3002,1627577764780723094,gps_frame,$GPGGA,165604.10,4616.74838070,N,11940.88599030,W,4,8,1.1,323.765,M,-17.561,M,1.1,0000*4A
1627577764820164452,3003,1627577764820024967,gps_frame,$GPGGA,165604.15,4616.74832415,N,11940.88619167,W,4,8,1.1,323.774,M,-17.561,M,1.1,0000*4A
1627577764871159043,3004,1627577764871020078,gps_frame,$GPGGA,165604.20,4616.74825402,N,11940.88604844,W,4,8,1.1,323.752,M,-17.561,M,0.2,0000*4E
1627577764920156035,3005,1627577764920015096,gps_frame,$GPGGA,165604.25,4616.74818886,N,11940.88620669,W,4,8,1.1,323.741,M,-17.561,M,0.2,0000*40
1627577764969110624,3006,1627577764968938112,gps_frame,$GPGGA,165604.30,4616.74809085,N,11940.88602405,W,4,8,1.1,323.746,M,-17.561,M,0.3,0000*41
1627577765020194705,3007,1627577765020059108,gps_frame,$GPGGA,165604.35,4616.74800486,N,11940.88614161,W,4,8,1.1,323.745,M,-17.561,M,0.3,0000*49
1627577765070007787,3008,1627577765069889068,gps_frame,$GPGGA,165604.40,4616.74796026,N,11940.88609100,W,4,8,1.1,323.771,M,-17.561,M,0.4,0000*4E
1627577765120175665,3009,1627577765120017051,gps_frame,$GPGGA,165604.45,4616.74790051,N,11940.88632789,W,4,8,1.1,323.786,M,-17.561,M,0.4,0000*4A
1627577765168773995,3010,1627577765168647050,gps_frame,$GPGGA,165604.50,4616.74781368,N,11940.88608792,W,4,8,1.1,323.765,M,-17.561,M,0.5,0000*48
1627577765220187336,3011,1627577765220027923,gps_frame,$GPGGA,165604.55,4616.74773676,N,11940.88620333,W,4,8,1.1,323.757,M,-17.561,M,0.5,0000*4E
1627577765271104111,3012,1627577765270956993,gps_frame,$GPGGA,165604.60,4616.74767358,N,11940.88609321,W,4,8,1.1,323.774,M,-17.561,M,0.6,0000*4E
1627577765320144987,3013,1627577765320020914,gps_frame,$GPGGA,165604.65,4616.74760537,N,11940.88626862,W,4,8,1.1,323.782,M,-17.561,M,0.6,0000*4B
1627577765369099199,3014,1627577765368962049,gps_frame,$GPGGA,165604.70,4616.74752561,N,11940.88613941,W,4,8,1.1,323.774,M,-17.561,M,0.7,0000*43
1627577765420145276,3015,1627577765420016050,gps_frame,$GPGGA,165604.75,4616.74745007,N,11940.88631570,W,4,8,1.1,323.772,M,-17.561,M,0.7,0000*4D
1627577765470033713,3016,1627577765469911098,gps_frame,$GPGGA,165604.80,4616.74738106,N,11940.88612946,W,4,8,1.1,323.783,M,-17.561,M,0.8,0000*44
1627577765520152631,3017,1627577765519998073,gps_frame,$GPGGA,165604.85,4616.74730966,N,11940.88628083,W,4,8,1.1,323.790,M,-17.561,M,0.8,0000*4C
1627577765569039065,3018,1627577765568898916,gps_frame,$GPGGA,165604.90,4616.74725154,N,11940.88618114,W,4,8,1.1,323.766,M,-17.561,M,0.9,0000*41
1627577765620170373,3019,1627577765620009899,gps_frame,$GPGGA,165604.95,4616.74718855,N,11940.88637350,W,4,8,1.1,323.752,M,-17.561,M,0.9,0000*4A
1627577765677553415,3020,1627577765677314996,gps_frame,$GPGGA,165605.00,4616.74710548,N,11940.88618285,W,4,8,1.1,323.787,M,-17.561,M,1.0,0000*4A
1627577765720193156,3021,1627577765720037937,gps_frame,$GPGGA,165605.05,4616.74702976,N,11940.88631175,W,4,8,1.1,323.804,M,-17.561,M,1.0,0000*4E
1627577765780615382,3022,1627577765780488014,gps_frame,$GPGGA,165605.10,4616.74692929,N,11940.88619416,W,4,8,1.1,323.790,M,-17.561,M,1.1,0000*41
1627577765820172705,3023,1627577765820008039,gps_frame,$GPGGA,165605.15,4616.74683788,N,11940.88636904,W,4,8,1.1,323.787,M,-17.561,M,1.1,0000*44
1627577765871066107,3024,1627577765870945930,gps_frame,$GPGGA,165605.20,4616.74683276,N,11940.88622700,W,4,8,1.1,323.762,M,-17.561,M,0.2,0000*40
1627577765920161497,3025,1627577765920031070,gps_frame,$GPGGA,165605.25,4616.74679605,N,11940.88644493,W,4,8,1.1,323.745,M,-17.561,M,0.2,0000*4C
1627577765969063484,3026,1627577765968908071,gps_frame,$GPGGA,165605.30,4616.74665227,N,11940.88618007,W,4,8,1.1,323.801,M,-17.561,M,0.3,0000*4F
1627577766020187956,3027,1627577766020034074,gps_frame,$GPGGA,165605.35,4616.74654769,N,11940.88622561,W,4,8,1.1,323.831,M,-17.561,M,0.3,0000*48
1627577766070749815,3028,1627577766070600986,gps_frame,$GPGGA,165605.40,4616.74651523,N,11940.88626408,W,4,8,1.1,323.791,M,-17.561,M,0.4,0000*4B
1627577766120189539,3029,1627577766120029926,gps_frame,$GPGGA,165605.45,4616.74645637,N,11940.88655507,W,4,8,1.1,323.777,M,-17.561,M,0.4,0000*4F
1627577766168777870,3030,1627577766168612003,gps_frame,$GPGGA,165605.50,4616.74637163,N,11940.88624324,W,4,8,1.1,323.799,M,-17.561,M,0.5,0000*48
1627577766220177204,3031,1627577766220017910,gps_frame,$GPGGA,165605.55,4616.74629635,N,11940.88634183,W,4,8,1.1,323.807,M,-17.561,M,0.5,0000*40
1627577766270444309,3032,1627577766270291090,gps_frame,$GPGGA,165605.60,4616.74622131,N,11940.88629519,W,4,8,1.1,323.799,M,-17.561,M,0.6,0000*4E
1627577766320152407,3033,1627577766319996118,gps_frame,$GPGGA,165605.65,4616.74614618,N,11940.88650056,W,4,8,1.1,323.797,M,-17.561,M,0.6,0000*4C
1627577766369146846,3034,1627577766368973970,gps_frame,$GPGGA,165605.70,4616.74606285,N,11940.88628624,W,4,8,1.1,323.804,M,-17.561,M,0.7,0000*43
1627577766420152236,3035,1627577766420001983,gps_frame,$GPGGA,165605.75,4616.74598253,N,11940.88643370,W,4,8,1.1,323.808,M,-17.561,M,0.7,0000*4C
1627577766470137066,3036,1627577766469949960,gps_frame,$GPGGA,165605.80,4616.74592748,N,11940.88629865,W,4,8,1.1,323.803,M,-17.561,M,0.8,0000*44
1627577766520160979,3037,1627577766520026922,gps_frame,$GPGGA,165605.85,4616.74586319,N,11940.88648643,W,4,8,1.1,323.802,M,-17.561,M,0.8,0000*48
1627577766568920981,3038,1627577766568732976,gps_frame,$GPGGA,165605.90,4616.74577877,N,11940.88632886,W,4,8,1.1,323.784,M,-17.561,M,0.9,0000*4B
1627577766620351759,3039,1627577766620172023,gps_frame,$GPGGA,165605.95,4616.74570173,N,11940.88648515,W,4,8,1.1,323.772,M,-17.561,M,0.9,0000*47
1627577766677292255,3040,1627577766677073001,gps_frame,$GPGGA,165606.00,4616.74561076,N,11940.88633140,W,4,8,1.1,323.823,M,-17.561,M,1.0,0000*47
1627577766720151423,3041,1627577766719997882,gps_frame,$GPGGA,165606.05,4616.74552489,N,11940.88649705,W,4,8,1.1,323.850,M,-17.561,M,1.0,0000*48
1627577766780519574,3042,1627577766780282974,gps_frame,$GPGGA,165606.10,4616.74548642,N,11940.88637035,W,4,8,1.1,323.799,M,-17.561,M,1.1,0000*44
1627577766820162935,3043,1627577766820034027,gps_frame,$GPGGA,165606.15,4616.74543060,N,11940.88658331,W,4,8,1.1,323.777,M,-17.561,M,1.1,0000*42
1627577766871154419,3044,1627577766870986938,gps_frame,$GPGGA,165606.20,4616.74532084,N,11940.88636029,W,4,8,1.1,323.828,M,-17.561,M,0.2,0000*4D
1627577766920206575,3045,1627577766920015096,gps_frame,$GPGGA,165606.25,4616.74523082,N,11940.88646904,W,4,8,1.1,323.852,M,-17.561,M,0.2,0000*42
1627577766969121456,3046,1627577766968898057,gps_frame,$GPGGA,165606.30,4616.74517383,N,11940.88638464,W,4,8,1.1,323.800,M,-17.561,M,0.3,0000*47
1627577767020213286,3047,1627577767020056009,gps_frame,$GPGGA,165606.35,4616.74510475,N,11940.88660022,W,4,8,1.1,323.776,M,-17.561,M,0.3,0000*4E
1627577767070137924,3048,1627577767069916009,gps_frame,$GPGGA,165606.40,4616.74502589,N,11940.88641495,W,4,8,1.1,323.809,M,-17.561,M,0.4,0000*46
1627577767120224830,3049,1627577767120071887,gps_frame,$GPGGA,165606.45,4616.74495060,N,11940.88657997,W,4,8,1.1,323.821,M,-17.561,M,0.4,0000*4C
1627577767168866899,3050,1627577767168656110,gps_frame,$GPGGA,165606.50,4616.74486315,N,11940.88639633,W,4,8,1.1,323.833,M,-17.561,M,0.5,0000*40
1627577767220226500,3051,1627577767220042943,gps_frame,$GPGGA,165606.55,4616.74478015,N,11940.88654517,W,4,8,1.1,323.845,M,-17.561,M,0.5,0000*48
1627577767271067476,3052,1627577767270925998,gps_frame,$GPGGA,165606.60,4616.74472017,N,11940.88644998,W,4,8,1.1,323.799,M,-17.561,M,0.6,0000*41
1627577767320254941,3053,1627577767320061922,gps_frame,$GPGGA,165606.65,4616.74465176,N,11940.88666946,W,4,8,1.1,323.774,M,-17.561,M,0.6,0000*44
1627577767370054330,3054,1627577767369744062,gps_frame,$GPGGA,165606.70,4616.74456607,N,11940.88642213,W,4,8,1.1,323.825,M,-17.561,M,0.7,0000*46
1627577767420950462,3055,1627577767420748949,gps_frame,$GPGGA,165606.75,4616.74448670,N,11940.88654366,W,4,8,1.1,323.849,M,-17.561,M,0.7,0000*42
1627577767470068368,3056,1627577767469928979,gps_frame,$GPGGA,165606.80,4616.74440472,N,11940.88646200,W,4,8,1.1,323.821,M,-17.561,M,0.8,0000*43
1627577767520373161,3057,1627577767520174026,gps_frame,$GPGGA,165606.85,4616.74432370,N,11940.88666810,W,4,8,1.1,323.813,M,-17.561,M,0.8,0000*4E
1627577767568782051,3058,1627577767568634033,gps_frame,$GPGGA,165606.90,4616.74427546,N,11940.88645719,W,4,8,1.1,323.822,M,-17.561,M,0.9,0000*49
1627577767620177005,3059,1627577767620001077,gps_frame,$GPGGA,165606.95,4616.74421522,N,11940.88662235,W,4,8,1.1,323.824,M,-17.561,M,0.9,0000*40
1627577767677523261,3060,1627577767677320957,gps_frame,$GPGGA,165607.00,4616.74411485,N,11940.88646099,W,4,8,1.1,323.810,M,-17.561,M,1.0,0000*4F
1627577767720217915,3061,1627577767720036029,gps_frame,$GPGGA,165607.05,4616.74402916,N,11940.88659814,W,4,8,1.1,323.803,M,-17.561,M,1.0,0000*4E
1627577767780629024,3062,1627577767780416965,gps_frame,$GPGGA,165607.10,4616.74392303,N,11940.88650246,W,4,8,1.1,323.846,M,-17.561,M,1.1,0000*4E
1627577767820165412,3063,1627577767819993019,gps_frame,$GPGGA,165607.15,4616.74382438,N,11940.88671440,W,4,8,1.1,323.871,M,-17.561,M,1.1,0000*42
1627577767871217702,3064,1627577767871033906,gps_frame,$GPGGA,165607.20,4616.74383313,N,11940.88648121,W,4,8,1.1,323.814,M,-17.561,M,0.2,0000*42
1627577767920372978,3065,1627577767920109987,gps_frame,$GPGGA,165607.25,4616.74380257,N,11940.88667658,W,4,8,1.1,323.786,M,-17.561,M,0.2,0000*45
1627577767969058934,3066,1627577767968905925,gps_frame,$GPGGA,165607.30,4616.74364485,N,11940.88649327,W,4,8,1.1,323.830,M,-17.561,M,0.3,0000*40
1627577768020221947,3067,1627577768020056009,gps_frame,$GPGGA,165607.35,4616.74353368,N,11940.88657305,W,4,8,1.1,323.847,M,-17.561,M,0.3,0000*4A
1627577768070557205,3068,1627577768070338964,gps_frame,$GPGGA,165607.40,4616.74346064,N,11940.88655087,W,4,8,1.1,323.849,M,-17.561,M,0.4,0000*41
1627577768120235810,3069,1627577768120045900,gps_frame,$GPGGA,165607.45,4616.74337364,N,11940.88682672,W,4,8,1.1,323.857,M,-17.561,M,0.4,0000*48
1627577768168743061,3070,1627577768168591976,gps_frame,$GPGGA,165607.50,4616.74334970,N,11940.88650306,W,4,8,1.1,323.820,M,-17.561,M,0.5,0000*48
1627577768220235112,3071,1627577768220048904,gps_frame,$GPGGA,165607.55,4616.74330268,N,11940.88665393,W,4,8,1.1,323.799,M,-17.561,M,0.5,0000*4C
1627577768270205898,3072,1627577768270036935,gps_frame,$GPGGA,165607.60,4616.74316590,N,11940.88657728,W,4,8,1.1,323.834,M,-17.561,M,0.6,0000*40
1627577768320246449,3073,1627577768320035934,gps_frame,$GPGGA,165607.65,4616.74306198,N,11940.88673753,W,4,8,1.1,323.848,M,-17.561,M,0.6,0000*49
1627577768369263557,3074,1627577768369038105,gps_frame,$GPGGA,165607.70,4616.74299054,N,11940.88657006,W,4,8,1.1,323.841,M,-17.561,M,0.7,0000*42
1627577768420141722,3075,1627577768420006036,gps_frame,$GPGGA,165607.75,4616.74290722,N,11940.88677706,W,4,8,1.1,323.842,M,-17.561,M,0.7,0000*4E
1627577768470013782,3076,1627577768469894886,gps_frame,$GPGGA,165607.80,4616.74287544,N,11940.88654705,W,4,8,1.1,323.831,M,-17.561,M,0.8,0000*49
1627577768520219250,3077,1627577768520034074,gps_frame,$GPGGA,165607.85,4616.74282480,N,11940.88671983,W,4,8,1.1,323.825,M,-17.561,M,0.8,0000*42
1627577768569035429,3078,1627577768568880081,gps_frame,$GPGGA,165607.90,4616.74267417,N,11940.88658176,W,4,8,1.1,323.855,M,-17.561,M,0.9,0000*4C
1627577768620172911,3079,1627577768620012998,gps_frame,$GPGGA,165607.95,4616.74256015,N,11940.88671686,W,4,8,1.1,323.872,M,-17.561,M,0.9,0000*4B
1627577768677479662,3080,1627577768677275896,gps_frame,$GPGGA,165608.00,4616.74254477,N,11940.88658481,W,4,8,1.1,323.848,M,-17.561,M,1.0,0000*45
1627577768720195515,3081,1627577768720029115,gps_frame,$GPGGA,165608.05,4616.74249329,N,11940.88682925,W,4,8,1.1,323.840,M,-17.561,M,1.0,0000*4C
1627577768780661711,3082,1627577768780308008,gps_frame,$GPGGA,165608.10,4616.74237869,N,11940.88659776,W,4,8,1.1,323.844,M,-17.561,M,1.1,0000*45
1627577768820149137,3083,1627577768820020914,gps_frame,$GPGGA,165608.15,4616.74228719,N,11940.88671967,W,4,8,1.1,323.844,M,-17.561,M,1.1,0000*42
1627577768871486567,3084,1627577768871279001,gps_frame,$GPGGA,165608.20,4616.74218661,N,11940.88661306,W,4,8,1.1,323.855,M,-17.561,M,0.2,0000*47
1627577768920211689,3085,1627577768920066118,gps_frame,$GPGGA,165608.25,4616.74208936,N,11940.88682007,W,4,8,1.1,323.862,M,-17.561,M,0.2,0000*45
1627577768969038120,3086,1627577768968872070,gps_frame,$GPGGA,165608.30,4616.74207839,N,11940.88663580,W,4,8,1.1,323.829,M,-17.561,M,0.3,0000*4B
1627577769020167636,3087,1627577769020032882,gps_frame,$GPGGA,165608.35,4616.74203583,N,11940.88686073,W,4,8,1.1,323.811,M,-17.561,M,0.3,0000*4F
1627577769069975283,3088,1627577769069865942,gps_frame,$GPGGA,165608.40,4616.74186762,N,11940.88662677,W,4,8,1.1,323.869,M,-17.561,M,0.4,0000*4E
1627577769120161473,3089,1627577769120016098,gps_frame,$GPGGA,165608.45,4616.74174540,N,11940.88671064,W,4,8,1.1,323.899,M,-17.561,M,0.4,0000*4D
1627577769168807766,3090,1627577769168617010,gps_frame,$GPGGA,165608.50,4616.74173460,N,11940.88663691,W,4,8,1.1,323.862,M,-17.561,M,0.5,0000*47
1627577769220121471,3091,1627577769220015048,gps_frame,$GPGGA,165608.55,4616.74168301,N,11940.88691273,W,4,8,1.1,323.849,M,-17.561,M,0.5,0000*44
1627577769271078575,3092,1627577769270932912,gps_frame,$GPGGA,165608.60,4616.74157101,N,11940.88664309,W,4,8,1.1,323.844,M,-17.561,M,0.6,0000*44
1627577769320513194,3093,1627577769320303916,gps_frame,$GPGGA,165608.65,4616.74148113,N,11940.88675732,W,4,8,1.1,323.836,M,-17.561,M,0.6,0000*45
1627577769369131171,3094,1627577769368941068,gps_frame,$GPGGA,165608.70,4616.74139157,N,11940.88667770,W,4,8,1.1,323.868,M,-17.561,M,0.7,0000*48
1627577769420163176,3095,1627577769420007944,gps_frame,$GPGGA,165608.75,4616.74130189,N,11940.88689556,W,4,8,1.1,323.885,M,-17.561,M,0.7,0000*42
1627577769470073606,3096,1627577769469907045,gps_frame,$GPGGA,165608.80,4616.74126497,N,11940.88665802,W,4,8,1.1,323.860,M,-17.561,M,0.8,0000*4F
1627577769520122038,3097,1627577769519995927,gps_frame,$GPGGA,165608.85,4616.74120875,N,11940.88683565,W,4,8,1.1,323.850,M,-17.561,M,0.8,0000*4B
1627577769568742787,3098,1627577769568619012,gps_frame,$GPGGA,165608.90,4616.74108647,N,11940.88668775,W,4,8,1.1,323.854,M,-17.561,M,0.9,0000*49
1627577769620182820,3099,1627577769620007038,gps_frame,$GPGGA,165608.95,4616.74098837,N,11940.88683430,W,4,8,1.1,323.853,M,-17.561,M,0.9,0000*4D
1627577769677544832,3100,1627577769677331924,gps_frame,$GPGGA,165609.00,4616.74091735,N,11940.88669184,W,4,8,1.1,323.865,M,-17.561,M,1.0,0000*47
1627577769720318505,3101,1627577769720081090,gps_frame,$GPGGA,165609.05,4616.74083642,N,11940.88690236,W,4,8,1.1,323.872,M,-17.561,M,1.0,0000*4A
1627577769780636117,3102,1627577769780400991,gps_frame,$GPGGA,165609.10,4616.74078299,N,11940.88670484,W,4,8,1.1,323.851,M,-17.561,M,1.1,0000*49
1627577769820222679,3103,1627577769820039033,gps_frame,$GPGGA,165609.15,4616.74071949,N,11940.88689086,W,4,8,1.1,323.839,M,-17.561,M,1.1,0000*4D
1627577769871109371,3104,1627577769870987892,gps_frame,$GPGGA,165609.20,4616.74058639,N,11940.88668286,W,4,8,1.1,323.883,M,-17.561,M,0.2,0000*46
1627577769920177566,3105,1627577769919990062,gps_frame,$GPGGA,165609.25,4616.74047877,N,11940.88680513,W,4,8,1.1,323.906,M,-17.561,M,0.2,0000*48
1627577769969074287,3106,1627577769968902111,gps_frame,$GPGGA,165609.30,4616.74045208,N,11940.88675544,W,4,8,1.1,323.868,M,-17.561,M,0.3,0000*4C
1627577770020190577,3107,1627577770020029067,gps_frame,$GPGGA,165609.35,4616.74039576,N,11940.88704092,W,4,8,1.1,323.852,M,-17.561,M,0.3,0000*4C
1627577770070552551,3108,1627577770070375919,gps_frame,$GPGGA,165609.40,4616.74027867,N,11940.88673526,W,4,8,1.1,323.860,M,-17.561,M,0.4,0000*41
1627577770120233498,3109,1627577770120032072,gps_frame,$GPGGA,165609.45,4616.74018382,N,11940.88683198,W,4,8,1.1,323.860,M,-17.561,M,0.4,0000*46
1627577770168879332,3110,1627577770168606996,gps_frame,$GPGGA,165609.50,4616.74010176,N,11940.88675777,W,4,8,1.1,323.891,M,-17.561,M,0.5,0000*42
1627577770220238905,3111,1627577770220067977,gps_frame,$GPGGA,165609.55,4616.74001502,N,11940.88698625,W,4,8,1.1,323.910,M,-17.561,M,0.5,0000*4D
1627577770270182160,3112,1627577770270008087,gps_frame,$GPGGA,165609.60,4616.73997486,N,11940.88675197,W,4,8,1.1,323.878,M,-17.561,M,0.6,0000*46
1627577770320135837,3113,1627577770320013046,gps_frame,$GPGGA,165609.65,4616.73991765,N,11940.88693206,W,4,8,1.1,323.864,M,-17.561,M,0.6,0000*45
1627577770369088934,3114,1627577770368920087,gps_frame,$GPGGA,165609.70,4616.73980725,N,11940.88675730,W,4,8,1.1,323.870,M,-17.561,M,0.7,0000*49
1627577770420251685,3115,1627577770420051097,gps_frame,$GPGGA,165609.75,4616.73971631,N,11940.88688814,W,4,8,1.1,323.869,M,-17.561,M,0.7,0000*45
1627577770470180943,3116,1627577770469957113,gps_frame,$GPGGA,165609.80,4616.73963340,N,11940.88677488,W,4,8,1.1,323.903,M,-17.561,M,0.8,0000*44
1627577770520213017,3117,1627577770520068883,gps_frame,$GPGGA,165609.85,4616.73954755,N,11940.88698308,W,4,8,1.1,323.923,M,-17.561,M,0.8,0000*49
1627577770568821694,3118,1627577770568674087,gps_frame,$GPGGA,165609.90,4616.73948234,N,11940.88676556,W,4,8,1.1,323.893,M,-17.561,M,0.9,0000*44
1627577770620247907,3119,1627577770620063066,gps_frame,$GPGGA,165609.95,4616.73940957,N,11940.88694460,W,4,8,1.1,323.882,M,-17.561,M,0.9,0000*4F
1627577770677352672,3120,1627577770677192926,gps_frame,$GPGGA,165610.00,4616.73935274,N,11940.88680718,W,4,8,1.1,323.877,M,-17.561,M,1.0,0000*48
1627577770720259551,3121,1627577770720057010,gps_frame,$GPGGA,165610.05,4616.73929008,N,11940.88699478,W,4,8,1.1,323.869,M,-17.561,M,1.0,0000*4B
1627577770780798514,3122,1627577770780602931,gps_frame,$GPGGA,165610.10,4616.73915988,N,11940.88679858,W,4,8,1.1,323.890,M,-17.561,M,1.1,0000*46
1627577770820228144,3123,1627577770820046901,gps_frame,$GPGGA,165610.15,4616.73905441,N,11940.88692232,W,4,8,1.1,323.901,M,-17.561,M,1.1,0000*40
1627577770871185985,3124,1627577770871006965,gps_frame,$GPGGA,165610.20,4616.73901592,N,11940.88681917,W,4,8,1.1,323.895,M,-17.561,M,0.2,0000*4D
1627577770920232910,3125,1627577770920042037,gps_frame,$GPGGA,165610.25,4616.73895290,N,11940.88706612,W,4,8,1.1,323.896,M,-17.561,M,0.2,0000*46
1627577770969049105,3126,1627577770968919992,gps_frame,$GPGGA,165610.30,4616.73887749,N,11940.88681705,W,4,8,1.1,323.886,M,-17.561,M,0.3,0000*49
1627577771020216266,3127,1627577771020029067,gps_frame,$GPGGA,165610.35,4616.73880662,N,11940.88694890,W,4,8,1.1,323.879,M,-17.561,M,0.3,0000*44
1627577771070147208,3128,1627577771069945096,gps_frame,$GPGGA,165610.40,4616.73870769,N,11940.88684355,W,4,8,1.1,323.875,M,-17.561,M,0.4,0000*4B
1627577771120198659,3129,1627577771120043992,gps_frame,$GPGGA,165610.45,4616.73861903,N,11940.88701670,W,4,8,1.1,323.870,M,-17.561,M,0.4,0000*47
1627577771168740659,3130,1627577771168586015,gps_frame,$GPGGA,165610.50,4616.73854947,N,11940.88683228,W,4,8,1.1,323.893,M,-17.561,M,0.5,0000*4B
1627577771220229457,3131,1627577771220065116,gps_frame,$GPGGA,165610.55,4616.73847293,N,11940.88701388,W,4,8,1.1,323.906,M,-17.561,M,0.5,0000*43
1627577771271137984,3132,1627577771270968914,gps_frame,$GPGGA,165610.60,4616.73841644,N,11940.88686593,W,4,8,1.1,323.882,M,-17.561,M,0.6,0000*41
1627577771320193664,3133,1627577771320027112,gps_frame,$GPGGA,165610.65,4616.73835261,N,11940.88705769,W,4,8,1.1,323.872,M,-17.561,M,0.6,0000*46
1627577771369144781,3134,1627577771368992090,gps_frame,$GPGGA,165610.70,4616.73823549,N,11940.88686809,W,4,8,1.1,323.902,M,-17.561,M,0.7,0000*4C
1627577771420158423,3135,1627577771419994115,gps_frame,$GPGGA,165610.75,4616.73813787,N,11940.88700229,W,4,8,1.1,323.917,M,-17.561,M,0.7,0000*49
1627577771470044197,3136,1627577771469877958,gps_frame,$GPGGA,165610.80,4616.73809692,N,11940.88686701,W,4,8,1.1,323.899,M,-17.561,M,0.8,0000*45
1627577771520248133,3137,1627577771520031929,gps_frame,$GPGGA,165610.85,4616.73803522,N,11940.88708093,W,4,8,1.1,323.893,M,-17.561,M,0.8,0000*43
1627577771568804479,3138,1627577771568651914,gps_frame,$GPGGA,165610.90,4616.73794616,N,11940.88689522,W,4,8,1.1,323.886,M,-17.561,M,0.9,0000*40
1627577771620211591,3139,1627577771620050907,gps_frame,$GPGGA,165610.95,4616.73786712,N,11940.88704766,W,4,8,1.1,323.878,M,-17.561,M,0.9,0000*44
1627577771677596379,3140,1627577771677431106,gps_frame,$GPGGA,165611.00,4616.73777844,N,11940.88688555,W,4,8,1.1,323.911,M,-17.561,M,1.0,0000*4A
1627577771720111887,3141,1627577771719994068,gps_frame,$GPGGA,165611.05,4616.73769329,N,11940.88704734,W,4,8,1.1,323.930,M,-17.561,M,1.0,0000*43
1627577771780487227,3142,1627577771780328035,gps_frame,$GPGGA,165611.10,4616.73765234,N,11940.88690952,W,4,8,1.1,323.897,M,-17.561,M,1.1,0000*49
1627577771820143717,3143,1627577771819992065,gps_frame,$GPGGA,165611.15,4616.73759521,N,11940.88711361,W,4,8,1.1,323.883,M,-17.561,M,1.1,0000*47
1627577771871185347,3144,1627577771871002912,gps_frame,$GPGGA,165611.20,4616.73747150,N,11940.88690056,W,4,8,1.1,323.900,M,-17.561,M,0.2,0000*4B
1627577771920162827,3145,1627577771920000076,gps_frame,$GPGGA,165611.25,4616.73737216,N,11940.88701483,W,4,8,1.1,323.906,M,-17.561,M,0.2,0000*4B
1627577771969044532,3146,1627577771968878030,gps_frame,$GPGGA,165611.30,4616.73733742,N,11940.88694551,W,4,8,1.1,323.891,M,-17.561,M,0.3,0000*42
1627577772020178758,3147,1627577772020026922,gps_frame,$GPGGA,165611.35,4616.73727904,N,11940.88719380,W,4,8,1.1,323.883,M,-17.561,M,0.3,0000*43
1627577772070393842,3148,1627577772070270061,gps_frame,$GPGGA,165611.40,4616.73718009,N,11940.88692049,W,4,8,1.1,323.901,M,-17.561,M,0.4,0000*41
