%time,field.header.seq,field.header.stamp,field.header.frame_id,field.sentence
1627578171469491562,11136,1627578171469230890,gps_frame,$GPGGA,170250.80,4616.71775294,N,11940.87151761,W,4,5,1.8,322.510,M,-17.561,M,0.8,0000*48
1627578171519794836,11137,1627578171519609928,gps_frame,$GPGGA,170250.85,4616.71781892,N,11940.87142533,W,4,5,1.8,322.510,M,-17.561,M,0.8,0000*4D
1627578171568029625,11138,1627578171567823886,gps_frame,$GPGGA,170250.90,4616.71780842,N,11940.87142889,W,4,5,1.8,322.509,M,-17.561,M,0.9,0000*40
1627578171619834023,11139,1627578171619612932,gps_frame,$GPGGA,170250.95,4616.71782592,N,11940.87123818,W,4,5,1.8,322.508,M,-17.561,M,0.9,0000*49
1627578171675979144,11140,1627578171675801992,gps_frame,$GPGGA,170251.00,4616.71791064,N,11940.87139934,W,4,5,1.8,322.595,M,-17.561,M,1.0,0000*42
1627578171719759096,11141,1627578171719585895,gps_frame,$GPGGA,170251.05,4616.71797073,N,11940.87135487,W,4,5,1.8,322.650,M,-17.561,M,1.0,0000*44
1627578171779378576,11142,1627578171779239892,gps_frame,$GPGGA,170251.10,4616.71796390,N,11940.87128034,W,4,5,1.8,322.528,M,-17.561,M,1.1,0000*42
1627578171819722336,11143,1627578171819513082,gps_frame,$GPGGA,170251.15,4616.71798158,N,11940.87107529,W,4,5,1.8,322.471,M,-17.561,M,1.1,0000*46
1627578171870368426,11144,1627578171870069026,gps_frame,$GPGGA,170251.20,4616.71806526,N,11940.87122073,W,4,6,1.5,322.470,M,-17.561,M,0.2,0000*45
1627578171919753735,11145,1627578171919550895,gps_frame,$GPGGA,170251.25,4616.71812475,N,11940.87116410,W,4,6,1.5,322.449,M,-17.561,M,0.2,0000*4E
1627578171968289377,11146,1627578171968107938,gps_frame,$GPGGA,170251.30,4616.71810246,N,11940.87115198,W,4,6,1.5,322.435,M,-17.561,M,0.3,0000*42
1627578172019697919,11147,1627578172019570112,gps_frame,$GPGGA,170251.35,4616.71811011,N,11940.87098324,W,4,6,1.5,322.418,M,-17.561,M,0.3,0000*48
1627578172069658285,11148,1627578172069407939,gps_frame,$GPGGA,170251.40,4616.71820866,N,11940.87105619,W,4,6,1.5,322.423,M,-17.561,M,0.4,0000*41
1627578172119913131,11149,1627578172119642019,gps_frame,$GPGGA,170251.45,4616.71827392,N,11940.87098916,W,4,6,1.5,322.421,M,-17.561,M,0.4,0000*44
1627578172168302737,11150,1627578172168050050,gps_frame,$GPGGA,170251.50,4616.71826762,N,11940.87103117,W,4,6,1.5,322.393,M,-17.561,M,0.5,0000*4F
1627578172219806791,11151,1627578172219578981,gps_frame,$GPGGA,170251.55,4616.71828753,N,11940.87088623,W,4,6,1.5,322.375,M,-17.561,M,0.5,0000*4C
1627578172269684181,11152,1627578172269453048,gps_frame,$GPGGA,170251.60,4616.71835861,N,11940.87096283,W,4,6,1.5,322.411,M,-17.561,M,0.6,0000*4F
1627578172319826077,11153,1627578172319607973,gps_frame,$GPGGA,170251.65,4616.71841095,N,11940.87087668,W,4,6,1.5,322.427,M,-17.561,M,0.6,0000*4E
1627578172368375958,11154,1627578172368180036,gps_frame,$GPGGA,170251.70,4616.71845548,N,11940.87087756,W,4,6,1.5,322.409,M,-17.561,M,0.7,0000*4A
1627578172419815425,11155,1627578172419591903,gps_frame,$GPGGA,170251.75,4616.71850287,N,11940.87072060,W,4,6,1.5,322.403,M,-17.561,M,0.7,0000*4D
1627578172469267361,11156,1627578172469033002,gps_frame,$GPGGA,170251.80,4616.71851486,N,11940.87082419,W,4,6,1.5,322.418,M,-17.561,M,0.8,0000*41
1627578172519859375,11157,1627578172519642114,gps_frame,$GPGGA,170251.85,4616.71853981,N,11940.87069827,W,4,6,1.5,322.425,M,-17.561,M,0.8,0000*46
1627578172568195987,11158,1627578172568030118,gps_frame,$GPGGA,170251.90,4616.71861033,N,11940.87074789,W,4,6,1.5,322.447,M,-17.561,M,0.9,0000*41
1627578172619928730,11159,1627578172619674921,gps_frame,$GPGGA,170251.95,4616.71866417,N,11940.87065103,W,4,6,1.5,322.464,M,-17.561,M,0.9,0000*44
1627578172676098568,11160,1627578172675903081,gps_frame,$GPGGA,170252.00,4616.71868278,N,11940.87068209,W,4,6,1.5,322.407,M,-17.561,M,1.0,0000*43
1627578172719736732,11161,1627578172719549894,gps_frame,$GPGGA,170252.05,4616.71871430,N,11940.87053412,W,4,6,1.5,322.377,M,-17.561,M,1.0,0000*40
1627578172779171551,11162,1627578172779015064,gps_frame,$GPGGA,170252.10,4616.71876343,N,11940.87062547,W,4,6,1.5,322.404,M,-17.561,M,1.1,0000*41
1627578172819708637,11163,1627578172819540023,gps_frame,$GPGGA,170252.15,4616.71880611,N,11940.87052890,W,4,6,1.5,322.410,M,-17.561,M,1.1,0000*4E
1627578172870313428,11164,1627578172870147943,gps_frame,$GPGGA,170252.20,4616.71884000,N,11940.87055424,W,4,6,1.5,322.490,M,-17.561,M,0.2,0000*44
1627578172919715879,11165,1627578172919533014,gps_frame,$GPGGA,170252.25,4616.71887711,N,11940.87042329,W,4,6,1.5,322.543,M,-17.561,M,0.2,0000*46
1627578172968337320,11166,1627578172968203067,gps_frame,$GPGGA,170252.30,4616.71891825,N,11940.87050087,W,4,6,1.5,322.458,M,-17.561,M,0.3,0000*43
1627578173019771062,11167,1627578173019603013,gps_frame,$GPGGA,170252.35,4616.71895791,N,11940.87039608,W,4,6,1.5,322.424,M,-17.561,M,0.3,0000*47
1627578173069574215,11168,1627578173069359064,gps_frame,$GPGGA,170252.40,4616.71900655,N,11940.87043083,W,4,6,1.5,322.473,M,-17.561,M,0.4,0000*4C
1627578173119736326,11169,1627578173119576930,gps_frame,$GPGGA,170252.45,4616.71905190,N,11940.87030616,W,4,6,1.5,322.491,M,-17.561,M,0.4,0000*40
1627578173168396494,11170,1627578173168103933,gps_frame,$GPGGA,170252.50,4616.71906795,N,11940.87036105,W,4,6,1.5,322.412,M,-17.561,M,0.5,0000*4D
1627578173219890879,11171,1627578173219566106,gps_frame,$GPGGA,170252.55,4616.71909472,N,11940.87022794,W,4,6,1.5,322.368,M,-17.561,M,0.5,0000*4C
1627578173270383083,11172,1627578173270205974,gps_frame,$GPGGA,170252.60,4616.71914874,N,11940.87027342,W,4,6,1.5,322.464,M,-17.561,M,0.6,0000*4E
1627578173319739322,11173,1627578173319506883,gps_frame,$GPGGA,170252.65,4616.71919278,N,11940.87016850,W,4,6,1.5,322.508,M,-17.561,M,0.6,0000*41
1627578173368436596,11174,1627578173368304014,gps_frame,$GPGGA,170252.70,4616.71922870,N,11940.87020132,W,4,6,1.5,322.413,M,-17.561,M,0.7,0000*4D
1627578173419768636,11175,1627578173419578075,gps_frame,$GPGGA,170252.75,4616.71926759,N,11940.87007185,W,4,6,1.5,322.369,M,-17.561,M,0.7,0000*4B
1627578173469566826,11176,1627578173469388961,gps_frame,$GPGGA,170252.80,4616.71929381,N,11940.87018274,W,4,6,1.5,322.470,M,-17.561,M,0.8,0000*4C
1627578173519898282,11177,1627578173519675016,gps_frame,$GPGGA,170252.85,4616.71932466,N,11940.87009493,W,4,6,1.5,322.518,M,-17.561,M,0.8,0000*4D
1627578173568119935,11178,1627578173567996025,gps_frame,$GPGGA,170252.90,4616.71939236,N,11940.87013148,W,4,6,1.5,322.460,M,-17.561,M,0.9,0000*46
1627578173619694756,11179,1627578173619541883,gps_frame,$GPGGA,170252.95,4616.71944657,N,11940.87003236,W,4,6,1.5,322.441,M,-17.561,M,0.9,0000*42
1627578173676257754,11180,1627578173676114082,gps_frame,$GPGGA,170253.00,4616.71946658,N,11940.87009474,W,4,6,1.5,322.428,M,-17.561,M,1.0,0000*4F
1627578173719700801,11181,1627578173719528913,gps_frame,$GPGGA,170253.05,4616.71949910,N,11940.86996153,W,4,6,1.5,322.413,M,-17.561,M,1.0,0000*40
1627578173779467259,11182,1627578173779314994,gps_frame,$GPGGA,170253.10,4616.71956541,N,11940.87004008,W,4,6,1.5,322.434,M,-17.561,M,1.1,0000*4A
1627578173819664756,11183,1627578173819485902,gps_frame,$GPGGA,170253.15,4616.71961935,N,11940.86993835,W,4,6,1.5,322.442,M,-17.561,M,1.1,0000*45
1627578173870395426,11184,1627578173870207071,gps_frame,$GPGGA,170253.20,4616.71961358,N,11940.86997094,W,4,6,1.5,322.401,M,-17.561,M,0.2,0000*40
1627578173919703333,11185,1627578173919570922,gps_frame,$GPGGA,170253.25,4616.71962967,N,11940.86981751,W,4,6,1.5,322.378,M,-17.561,M,0.2,0000*40
1627578173968346464,11186,1627578173968163967,gps_frame,$GPGGA,170253.30,4616.71969668,N,11940.86989077,W,4,6,1.5,322.377,M,-17.561,M,0.3,0000*4A
1627578174019696301,11187,1627578174019572019,gps_frame,$GPGGA,170253.35,4616.71974504,N,11940.86981436,W,4,6,1.5,322.368,M,-17.561,M,0.3,0000*4D
1627578174069627689,11188,1627578174069434881,gps_frame,$GPGGA,170253.40,4616.71976941,N,11940.86979415,W,4,6,1.5,322.374,M,-17.561,M,0.4,0000*4C
1627578174119795740,11189,1627578174119549036,gps_frame,$GPGGA,170253.45,4616.71980257,N,11940.86963831,W,4,6,1.5,322.375,M,-17.561,M,0.4,0000*4C
1627578174168186922,11190,1627578174168026924,gps_frame,$GPGGA,170253.50,4616.71984390,N,11940.86976063,W,4,6,1.5,322.372,M,-17.561,M,0.5,0000*4B
1627578174219900161,11191,1627578174219662904,gps_frame,$GPGGA,170253.55,4616.71988224,N,11940.86968041,W,4,6,1.5,322.371,M,-17.561,M,0.5,0000*40
1627578174269627301,11192,1627578174269433021,gps_frame,$GPGGA,170253.60,4616.71992223,N,11940.86969623,W,4,6,1.5,322.353,M,-17.561,M,0.6,0000*4A
1627578174319879771,11193,1627578174319592952,gps_frame,$GPGGA,170253.65,4616.71996162,N,11940.86957375,W,4,6,1.5,322.341,M,-17.561,M,0.6,0000*45
1627578174368303009,11194,1627578174368132114,gps_frame,$GPGGA,170253.70,4616.72000970,N,11940.86963926,W,4,6,1.5,322.351,M,-17.561,M,0.7,0000*44
1627578174420017207,11195,1627578174419720888,gps_frame,$GPGGA,170253.75,4616.72005459,N,11940.86952749,W,4,6,1.5,322.353,M,-17.561,M,0.7,0000*45
1627578174469579950,11196,1627578174469321966,gps_frame,$GPGGA,170253.80,4616.72008023,N,11940.86956541,W,4,6,1.5,322.366,M,-17.561,M,0.8,0000*4C
1627578174519803617,11197,1627578174519597053,gps_frame,$GPGGA,170253.85,4616.72011291,N,11940.86942742,W,4,6,1.5,322.375,M,-17.561,M,0.8,0000*4C
1627578174568286058,11198,1627578174568067073,gps_frame,$GPGGA,170253.90,4616.72016362,N,11940.86951859,W,4,6,1.5,322.363,M,-17.561,M,0.9,0000*43
1627578174619725193,11199,1627578174619533061,gps_frame,$GPGGA,170253.95,4616.72020773,N,11940.86942822,W,4,6,1.5,322.359,M,-17.561,M,0.9,0000*40
1627578174675932508,11200,1627578174675780057,gps_frame,$GPGGA,170254.00,4616.72023277,N,11940.86944071,W,4,6,1.5,322.373,M,-17.561,M,1.0,0000*41
1627578174719710118,11201,1627578174719516038,gps_frame,$GPGGA,170254.05,4616.72026479,N,11940.86930008,W,4,6,1.5,322.381,M,-17.561,M,1.0,0000*49
1627578174779212166,11202,1627578174779079914,gps_frame,$GPGGA,170254.10,4616.72031014,N,11940.86943034,W,4,6,1.5,322.328,M,-17.561,M,1.1,0000*4D
1627578174819773638,11203,1627578174819549083,gps_frame,$GPGGA,170254.15,4616.72035061,N,11940.86936569,W,4,6,1.5,322.296,M,-17.561,M,1.1,0000*45
1627578174870277618,11204,1627578174870068073,gps_frame,$GPGGA,170254.20,4616.72039931,N,11940.86933125,W,4,6,1.5,322.312,M,-17.561,M,0.2,0000*45
1627578174919814410,11205,1627578174919522047,gps_frame,$GPGGA,170254.25,4616.72044500,N,11940.86917861,W,4,6,1.5,322.311,M,-17.561,M,0.2,0000*48
1627578174968768613,11206,1627578174968453884,gps_frame,$GPGGA,170254.30,4616.72046732,N,11940.86928136,W,4,6,1.5,322.321,M,-17.561,M,0.3,0000*48
1627578175019867325,11207,1627578175019718885,gps_frame,$GPGGA,170254.35,4616.72049820,N,11940.86916715,W,4,6,1.5,322.328,M,-17.561,M,0.3,0000*4D
1627578175069263228,11208,1627578175069109916,gps_frame,$GPGGA,170254.40,4616.72052772,N,11940.86924323,W,4,6,1.5,322.345,M,-17.561,M,0.4,0000*41
1627578175119788361,11209,1627578175119612932,gps_frame,$GPGGA,170254.45,4616.72055773,N,11940.86915548,W,4,6,1.5,322.358,M,-17.561,M,0.4,0000*47
1627578175168174331,11210,1627578175167870044,gps_frame,$GPGGA,170254.50,4616.72061095,N,11940.86915107,W,4,6,1.5,322.328,M,-17.561,M,0.5,0000*42
1627578175219775097,11211,1627578175219536066,gps_frame,$GPGGA,170254.55,4616.72065568,N,11940.86903252,W,4,6,1.5,322.314,M,-17.561,M,0.5,0000*4F
1627578175270321594,11212,1627578175270083904,gps_frame,$GPGGA,170254.60,4616.72068319,N,11940.86910981,W,4,6,1.5,322.303,M,-17.561,M,0.6,0000*46
1627578175319718481,11213,1627578175319540023,gps_frame,$GPGGA,170254.65,4616.72071701,N,11940.86900016,W,4,6,1.5,322.290,M,-17.561,M,0.6,0000*4B
1627578175368772112,11214,1627578175368472099,gps_frame,$GPGGA,170254.70,4616.72076766,N,11940.86902685,W,4,6,1.5,322.290,M,-17.561,M,0.7,0000*46
1627578175419762902,11215,1627578175419533967,gps_frame,$GPGGA,170254.75,4616.72081214,N,11940.86890361,W,4,6,1.5,322.286,M,-17.561,M,0.7,0000*49
1627578175469791439,11216,1627578175469544887,gps_frame,$GPGGA,170254.80,4616.72082835,N,11940.86898561,W,4,6,1.5,322.264,M,-17.561,M,0.8,0000*44
1627578175519786614,11217,1627578175519632101,gps_frame,$GPGGA,170254.85,4616.72085491,N,11940.86887553,W,4,6,1.5,322.248,M,-17.561,M,0.8,0000*45
1627578175568290762,11218,1627578175568137884,gps_frame,$GPGGA,170254.90,4616.72092273,N,11940.86890608,W,4,6,1.5,322.275,M,-17.561,M,0.9,0000*49
1627578175620217884,11219,1627578175619657039,gps_frame,$GPGGA,170254.95,4616.72097544,N,11940.86880111,W,4,6,1.5,322.286,M,-17.561,M,0.9,0000*48
1627578175676245248,11220,1627578175676115036,gps_frame,$GPGGA,170255.00,4616.72098548,N,11940.86884515,W,4,6,1.5,322.264,M,-17.561,M,1.0,0000*46
1627578175719776778,11221,1627578175719583988,gps_frame,$GPGGA,170255.05,4616.72101115,N,11940.86870397,W,4,6,1.5,322.254,M,-17.561,M,1.0,0000*4A
1627578175779808407,11222,1627578175779681921,gps_frame,$GPGGA,170255.10,4616.72108355,N,11940.86879456,W,4,6,1.5,322.248,M,-17.561,M,1.1,0000*4E
1627578175819820356,11223,1627578175819621086,gps_frame,$GPGGA,170255.15,4616.72113885,N,11940.86871341,W,4,6,1.5,322.241,M,-17.561,M,1.1,0000*47
1627578175870615007,11224,1627578175870424985,gps_frame,$GPGGA,170255.20,4616.72115465,N,11940.86869886,W,4,6,1.5,322.244,M,-17.561,M,0.2,0000*4B
1627578175919901736,11225,1627578175919650077,gps_frame,$GPGGA,170255.25,4616.72118492,N,11940.86852413,W,4,6,1.5,322.243,M,-17.561,M,0.2,0000*44
1627578175968261509,11226,1627578175968137025,gps_frame,$GPGGA,170255.30,4616.72123842,N,11940.86868274,W,4,6,1.5,322.282,M,-17.561,M,0.3,0000*4B
1627578176019789606,11227,1627578176019603013,gps_frame,$GPGGA,170255.35,4616.72128342,N,11940.86862087,W,4,6,1.5,322.306,M,-17.561,M,0.3,0000*47
1627578176069669353,11228,1627578176069458007,gps_frame,$GPGGA,170255.40,4616.72131295,N,11940.86858635,W,4,6,1.5,322.227,M,-17.561,M,0.4,0000*45
1627578176120137810,11229,1627578176119821071,gps_frame,$GPGGA,170255.45,4616.72134814,N,11940.86842582,W,4,6,1.5,322.186,M,-17.561,M,0.4,0000*4A
1627578176168432579,11230,1627578176168047904,gps_frame,$GPGGA,170255.50,4616.72139985,N,11940.86853661,W,4,6,1.5,322.241,M,-17.561,M,0.5,0000*4D
1627578176219771908,11231,1627578176219575881,gps_frame,$GPGGA,170255.55,4616.72144551,N,11940.86844488,W,4,6,1.5,322.260,M,-17.561,M,0.5,0000*47
1627578176269599142,11232,1627578176269427061,gps_frame,$GPGGA,170255.60,4616.72145021,N,11940.86845283,W,4,6,1.5,322.215,M,-17.561,M,0.6,0000*4F
1627578176319774853,11233,1627578176319552898,gps_frame,$GPGGA,170255.65,4616.72146990,N,11940.86830396,W,4,6,1.5,322.193,M,-17.561,M,0.6,0000*40
1627578176368724002,11234,1627578176368480920,gps_frame,$GPGGA,170255.70,4616.72153045,N,11940.86838026,W,4,6,1.5,322.199,M,-17.561,M,0.7,0000*4A
1627578176419964814,11235,1627578176419683933,gps_frame,$GPGGA,170255.75,4616.72157605,N,11940.86830441,W,4,6,1.5,322.194,M,-17.561,M,0.7,0000*49
1627578176469595295,11236,1627578176469358921,gps_frame,$GPGGA,170255.80,4616.72163547,N,11940.86829016,W,4,6,1.5,322.224,M,-17.561,M,0.8,0000*48
1627578176520439453,11237,1627578176520071983,gps_frame,$GPGGA,170255.85,4616.72168983,N,11940.86814225,W,4,6,1.5,322.241,M,-17.561,M,0.8,0000*4D
1627578176568780341,11238,1627578176568536043,gps_frame,$GPGGA,170255.90,4616.72169161,N,11940.86824671,W,4,6,1.5,322.210,M,-17.561,M,0.9,0000*4F
1627578176619770105,11239,1627578176619568109,gps_frame,$GPGGA,170255.95,4616.72171264,N,11940.86811338,W,4,6,1.5,322.197,M,-17.561,M,0.9,0000*47
1627578176676134394,11240,1627578176675978899,gps_frame,$GPGGA,170256.00,4616.72178687,N,11940.86817939,W,4,6,1.5,322.201,M,-17.561,M,1.0,0000*41
1627578176719774518,11241,1627578176719604015,gps_frame,$GPGGA,170256.05,4616.72184163,N,11940.86809469,W,4,6,1.5,322.199,M,-17.561,M,1.0,0000*4F
1627578176768278938,11242,1627578176768038988,gps_frame,$GPGGA,170256.10,4616.72185909,N,11940.86809315,W,4,6,1.5,322.172,M,-17.561,M,1.1,0000*46
1627578176819666265,11243,1627578176819490909,gps_frame,$GPGGA,170256.15,4616.72189020,N,11940.86792925,W,4,6,1.5,322.154,M,-17.561,M,1.1,0000*4D
1627578176870185708,11244,1627578176870012998,gps_frame,$GPGGA,170256.20,4616.72193531,N,11940.86805236,W,4,6,1.5,322.177,M,-17.561,M,0.2,0000*4E
1627578176919647164,11245,1627578176919482946,gps_frame,$GPGGA,170256.25,4616.72197529,N,11940.86797042,W,4,6,1.5,322.184,M,-17.561,M,0.2,0000*4F
1627578176968266352,11246,1627578176968053102,gps_frame,$GPGGA,170256.30,4616.72204145,N,11940.86794260,W,4,6,1.5,322.132,M,-17.561,M,0.3,0000*41
1627578177019967062,11247,1627578177019772052,gps_frame,$GPGGA,170256.35,4616.72209803,N,11940.86778943,W,4,6,1.5,322.101,M,-17.561,M,0.3,0000*4A
1627578177069264314,11248,1627578177069097042,gps_frame,$GPGGA,170256.40,4616.72209672,N,11940.86791147,W,4,6,1.5,322.174,M,-17.561,M,0.4,0000*4E
1627578177119781045,11249,1627578177119560003,gps_frame,$GPGGA,170256.45,4616.72211661,N,11940.86778580,W,4,6,1.5,322.208,M,-17.561,M,0.4,0000*40
1627578177168077765,11250,1627578177167891025,gps_frame,$GPGGA,170256.50,4616.72220264,N,11940.86785031,W,4,6,1.5,322.159,M,-17.561,M,0.5,0000*4C
1627578177219841608,11251,1627578177219640016,gps_frame,$GPGGA,170256.55,4616.72226446,N,11940.86776867,W,4,6,1.5,322.140,M,-17.561,M,0.5,0000*46
1627578177270262456,11252,1627578177270056962,gps_frame,$GPGGA,170256.60,4616.72226833,N,11940.86775038,W,4,6,1.5,322.103,M,-17.561,M,0.6,0000*4B
1627578177320346627,11253,1627578177320162057,gps_frame,$GPGGA,170256.65,4616.72229341,N,11940.86756224,W,4,6,1.5,322.073,M,-17.561,M,0.6,0000*47
1627578177368255274,11254,1627578177368063926,gps_frame,$GPGGA,170256.70,4616.72236780,N,11940.86769806,W,4,6,1.5,322.133,M,-17.561,M,0.7,0000*46
1627578177419760619,11255,1627578177419534921,gps_frame,$GPGGA,170256.75,4616.72242414,N,11940.86762435,W,4,6,1.5,322.160,M,-17.561,M,0.7,0000*4F
1627578177469538751,11256,1627578177469288110,gps_frame,$GPGGA,170256.80,4616.72244703,N,11940.86760371,W,4,6,1.5,322.148,M,-17.561,M,0.8,0000*46
1627578177519721093,11257,1627578177519547939,gps_frame,$GPGGA,170256.85,4616.72248216,N,11940.86742591,W,4,6,1.5,322.151,M,-17.561,M,0.8,0000*4E
1627578177568102826,11258,1627578177567907094,gps_frame,$GPGGA,170256.90,4616.72251990,N,11940.86754605,W,4,6,1.5,322.104,M,-17.561,M,0.9,0000*4F
1627578177619766877,11259,1627578177619555950,gps_frame,$GPGGA,170256.95,4616.72255669,N,11940.86744742,W,4,6,1.5,322.075,M,-17.561,M,0.9,0000*43
1627578177676171501,11260,1627578177675993919,gps_frame,$GPGGA,170257.00,4616.72260603,N,11940.86748997,W,4,6,1.5,322.092,M,-17.561,M,1.0,0000*4F
1627578177719757477,11261,1627578177719578981,gps_frame,$GPGGA,170257.05,4616.72265077,N,11940.86737993,W,4,6,1.5,322.092,M,-17.561,M,1.0,0000*46
1627578177768386160,11262,1627578177768121004,gps_frame,$GPGGA,170257.10,4616.72268930,N,11940.86739976,W,4,6,1.5,322.112,M,-17.561,M,1.1,0000*48
1627578177819672469,11263,1627578177819516897,gps_frame,$GPGGA,170257.15,4616.72273011,N,11940.86725280,W,4,6,1.5,322.125,M,-17.561,M,1.1,0000*46
1627578177870285439,11264,1627578177870037078,gps_frame,$GPGGA,170257.20,4616.72279230,N,11940.86732881,W,4,6,1.5,322.111,M,-17.561,M,0.2,0000*43
1627578177920311921,11265,1627578177920032024,gps_frame,$GPGGA,170257.25,4616.72284667,N,11940.86720789,W,4,6,1.5,322.107,M,-17.561,M,0.2,0000*41
1627578177968320545,11266,1627578177968132019,gps_frame,$GPGGA,170257.30,4616.72284803,N,11940.86724173,W,4,6,1.5,322.115,M,-17.561,M,0.3,0000*4C
1627578178019873399,11267,1627578178019617080,gps_frame,$GPGGA,170257.35,4616.72286879,N,11940.86707630,W,4,6,1.5,322.118,M,-17.561,M,0.3,0000*4A
1627578178069636411,11268,1627578178069400072,gps_frame,$GPGGA,170257.40,4616.72293467,N,11940.86718967,W,4,6,1.5,322.108,M,-17.561,M,0.4,0000*4A
1627578178119804463,11269,1627578178119565963,gps_frame,$GPGGA,170257.45,4616.72298403,N,11940.86712382,W,4,6,1.5,322.102,M,-17.561,M,0.4,0000*47
1627578178168049560,11270,1627578178167922973,gps_frame,$GPGGA,170257.50,4616.72303070,N,11940.86709952,W,4,6,1.5,322.109,M,-17.561,M,0.5,0000*47
1627578178219817211,11271,1627578178219578027,gps_frame,$GPGGA,170257.55,4616.72307835,N,11940.86694004,W,4,6,1.5,322.112,M,-17.561,M,0.5,0000*4A
1627578178269612967,11272,1627578178269366025,gps_frame,$GPGGA,170257.60,4616.72311557,N,11940.86704512,W,4,6,1.5,322.070,M,-17.561,M,0.6,0000*4E
1627578178319890391,11273,1627578178319645881,gps_frame,$GPGGA,170257.65,4616.72315661,N,11940.86692038,W,4,6,1.5,322.044,M,-17.561,M,0.6,0000*4D
1627578178368461302,11274,1627578178368256092,gps_frame,$GPGGA,170257.70,4616.72319053,N,11940.86696263,W,4,6,1.5,322.082,M,-17.561,M,0.7,0000*41
1627578178419787591,11275,1627578178419524908,gps_frame,$GPGGA,170257.75,4616.72322706,N,11940.86682624,W,4,6,1.5,322.097,M,-17.561,M,0.7,0000*4D
1627578178469479816,11276,1627578178469286918,gps_frame,$GPGGA,170257.80,4616.72329392,N,11940.86689674,W,4,6,1.5,322.060,M,-17.561,M,0.8,0000*4C
1627578178519959645,11277,1627578178519644021,gps_frame,$GPGGA,170257.85,4616.72334968,N,11940.86678772,W,4,6,1.5,322.043,M,-17.561,M,0.8,0000*42
1627578178568307714,11278,1627578178568078994,gps_frame,$GPGGA,170257.90,4616.72335603,N,11940.86683113,W,4,6,1.5,322.098,M,-17.561,M,0.9,0000*47
1627578178619667762,11279,1627578178619472980,gps_frame,$GPGGA,170257.95,4616.72338047,N,11940.86667557,W,4,6,1.5,322.127,M,-17.561,M,0.9,0000*42
1627578178676127252,11280,1627578178675944089,gps_frame,$GPGGA,170258.00,4616.72344826,N,11940.86676301,W,4,6,1.5,322.053,M,-17.561,M,1.0,0000*4A
1627578178719671510,11281,1627578178719506025,gps_frame,$GPGGA,170258.05,4616.72350018,N,11940.86667550,W,4,6,1.5,322.016,M,-17.561,M,1.0,0000*4C
1627578178768203767,11282,1627578178768027067,gps_frame,$GPGGA,170258.10,4616.72353358,N,11940.86667905,W,4,6,1.5,322.071,M,-17.561,M,1.1,0000*40
1627578178819776656,11283,1627578178819592952,gps_frame,$GPGGA,170258.15,4616.72357376,N,11940.86652157,W,4,6,1.5,322.093,M,-17.561,M,1.1,0000*48
1627578178870286530,11284,1627578178870093107,gps_frame,$GPGGA,170258.20,4616.72361253,N,11940.86660301,W,4,6,1.5,322.060,M,-17.561,M,0.2,0000*43
1627578178919837416,11285,1627578178919595956,gps_frame,$GPGGA,170258.25,4616.72365182,N,11940.86647886,W,4,6,1.5,322.047,M,-17.561,M,0.2,0000*49
1627578178968635894,11286,1627578178968492031,gps_frame,$GPGGA,170258.30,4616.72369076,N,11940.86658762,W,4,6,1.5,322.071,M,-17.561,M,0.3,0000*44
1627578179019842540,11287,1627578179019629001,gps_frame,$GPGGA,170258.35,4616.72372982,N,11940.86650179,W,4,6,1.5,322.081,M,-17.561,M,0.3,0000*42
1627578179069303858,11288,1627578179069067001,gps_frame,$GPGGA,170258.40,4616.72376720,N,11940.86646792,W,4,6,1.5,322.055,M,-17.561,M,0.4,0000*48
1627578179119843703,11289,1627578179119599103,gps_frame,$GPGGA,170258.45,4616.72380520,N,11940.86630672,W,4,6,1.5,322.042,M,-17.561,M,0.4,0000*4E
1627578179168133229,11290,1627578179167879104,gps_frame,$GPGGA,170258.50,4616.72386633,N,11940.86644991,W,4,6,1.5,322.013,M,-17.561,M,0.5,0000*49
1627578179219800339,11291,1627578179219562053,gps_frame,$GPGGA,170258.55,4616.72391899,N,11940.86637581,W,4,6,1.5,321.989,M,-17.561,M,0.5,0000*44
1627578179270123185,11292,1627578179270014047,gps_frame,$GPGGA,170258.60,4616.72392554,N,11940.86633182,W,4,6,1.5,322.014,M,-17.561,M,0.6,0000*43
1627578179319712553,11293,1627578179319514989,gps_frame,$GPGGA,170258.65,4616.72394897,N,11940.86613956,W,4,6,1.5,322.022,M,-17.561,M,0.6,0000*44
1627578179368206068,11294,1627578179368058919,gps_frame,$GPGGA,170258.70,4616.72400964,N,11940.86627916,W,4,6,1.5,322.060,M,-17.561,M,0.7,0000*43
1627578179419891384,11295,1627578179419616937,gps_frame,$GPGGA,170258.75,4616.72405668,N,11940.86621529,W,4,6,1.5,322.086,M,-17.561,M,0.7,0000*4E
1627578179469427462,11296,1627578179469232082,gps_frame,$GPGGA,170258.80,4616.72408938,N,11940.86622435,W,4,6,1.5,322.006,M,-17.561,M,0.8,0000*4B
1627578179519772142,11297,1627578179519573926,gps_frame,$GPGGA,170258.85,4616.72412733,N,11940.86609026,W,4,6,1.5,321.965,M,-17.561,M,0.8,0000*40
1627578179568113213,11298,1627578179567936897,gps_frame,$GPGGA,170258.90,4616.72416633,N,11940.86613188,W,4,6,1.5,322.062,M,-17.561,M,0.9,0000*43
1627578179619715074,11299,1627578179619522094,gps_frame,$GPGGA,170258.95,4616.72420495,N,11940.86599877,W,4,6,1.5,322.108,M,-17.561,M,0.9,0000*48
1627578179676158095,11300,1627578179676024913,gps_frame,$GPGGA,170259.00,4616.72425091,N,11940.86608050,W,4,6,1.5,322.024,M,-17.561,M,1.0,0000*41
1627578179719801509,11301,1627578179719568014,gps_frame,$GPGGA,170259.05,4616.72429417,N,11940.86597703,W,4,6,1.5,321.988,M,-17.561,M,1.0,0000*4A
1627578179768241193,11302,1627578179768071889,gps_frame,$GPGGA,170259.10,4616.72431307,N,11940.86602399,W,4,6,1.5,321.970,M,-17.561,M,1.1,0000*4F
1627578179819792458,11303,1627578179819566011,gps_frame,$GPGGA,170259.15,4616.72434089,N,11940.86589879,W,4,6,1.5,321.946,M,-17.561,M,1.1,0000*4A
1627578179870291199,11304,1627578179870070934,gps_frame,$GPGGA,170259.20,4616.72439751,N,11940.86596515,W,4,6,1.5,322.020,M,-17.561,M,0.2,0000*42
1627578179919713875,11305,1627578179919540882,gps_frame,$GPGGA,170259.25,4616.72444359,N,11940.86587530,W,4,6,1.5,322.058,M,-17.561,M,0.2,0000*49
1627578179968198333,11306,1627578179967998027,gps_frame,$GPGGA,170259.30,4616.72448488,N,11940.86587179,W,4,6,1.5,322.043,M,-17.561,M,0.3,0000*48
1627578180019770509,11307,1627578180019575119,gps_frame,$GPGGA,170259.35,4616.72452792,N,11940.86571975,W,4,6,1.5,322.047,M,-17.561,M,0.3,0000*47
1627578180069539883,11308,1627578180069309949,gps_frame,$GPGGA,170259.40,4616.72454395,N,11940.86586615,W,4,6,1.5,322.003,M,-17.561,M,0.4,0000*46
1627578180119732956,11309,1627578180119616985,gps_frame,$GPGGA,170259.45,4616.72456987,N,11940.86578233,W,4,6,1.5,321.976,M,-17.561,M,0.4,0000*41
1627578180168230156,11310,1627578180168030977,gps_frame,$GPGGA,170259.50,4616.72463480,N,11940.86574326,W,4,6,1.5,322.003,M,-17.561,M,0.5,0000*49
1627578180219696585,11311,1627578180219515085,gps_frame,$GPGGA,170259.55,4616.72468545,N,11940.86560603,W,4,6,1.5,322.011,M,-17.561,M,0.5,0000*4B
1627578180269390088,11312,1627578180269153118,gps_frame,$GPGGA,170259.60,4616.72470391,N,11940.86571811,W,4,6,1.5,321.987,M,-17.561,M,0.6,0000*40
1627578180319729597,11313,1627578180319534063,gps_frame,$GPGGA,170259.65,4616.72473416,N,11940.86561313,W,4,6,1.5,321.975,M,-17.561,M,0.6,0000*4B
1627578180368158040,11314,1627578180368002891,gps_frame,$GPGGA,170259.70,4616.72477951,N,11940.86568519,W,4,6,1.5,322.024,M,-17.561,M,0.7,0000*4F
1627578180419783924,11315,1627578180419574022,gps_frame,$GPGGA,170259.75,4616.72481933,N,11940.86559674,W,4,6,1.5,322.050,M,-17.561,M,0.7,0000*4E
1627578180469567062,11316,1627578180469357967,gps_frame,$GPGGA,170259.80,4616.72485897,N,11940.86557500,W,4,6,1.5,321.958,M,-17.561,M,0.8,0000*4C
1627578180519804238,11317,1627578180519604921,gps_frame,$GPGGA,170259.85,4616.72489867,N,11940.86542416,W,4,6,1.5,321.908,M,-17.561,M,0.8,0000*4D
1627578180567932769,11318,1627578180567799091,gps_frame,$GPGGA,170259.90,4616.72494000,N,11940.86553154,W,4,6,1.5,321.969,M,-17.561,M,0.9,0000*49
1627578180620124743,11319,1627578180619877099,gps_frame,$GPGGA,170259.95,4616.72498074,N,11940.86543438,W,4,6,1.5,321.990,M,-17.561,M,0.9,0000*4B
1627578180675948230,11320,1627578180675772905,gps_frame,$GPGGA,170300.00,4616.72499629,N,11940.86546678,W,4,6,1.5,321.994,M,-17.561,M,1.0,0000*4A
1627578180719784285,11321,1627578180719580888,gps_frame,$GPGGA,170300.05,4616.72502106,N,11940.86533955,W,4,6,1.5,322.005,M,-17.561,M,1.0,0000*46
1627578180768175868,11322,1627578180768004894,gps_frame,$GPGGA,170300.10,4616.72508601,N,11940.86536902,W,4,6,1.5,321.926,M,-17.561,M,1.1,0000*45
1627578180819674787,11323,1627578180819499969,gps_frame,$GPGGA,170300.15,4616.72513626,N,11940.86526320,W,4,6,1.5,321.880,M,-17.561,M,1.1,0000*49
1627578180870383084,11324,1627578180870146036,gps_frame,$GPGGA,170300.20,4616.72514979,N,11940.86538312,W,4,6,1.5,321.966,M,-17.561,M,0.2,0000*48
1627578180919899569,11325,1627578180919625997,gps_frame,$GPGGA,170300.25,4616.72517676,N,11940.86529617,W,4,6,1.5,322.003,M,-17.561,M,0.2,0000*47
1627578180968191985,11326,1627578180967981100,gps_frame,$GPGGA,170300.30,4616.72524304,N,11940.86527055,W,4,6,1.5,321.962,M,-17.561,M,0.3,0000*41
1627578181019720642,11327,1627578181019546985,gps_frame,$GPGGA,170300.35,4616.72529494,N,11940.86513418,W,4,6,1.5,321.949,M,-17.561,M,0.3,0000*44
1627578181078130613,11328,1627578181077902078,gps_frame,$GPGGA,170300.40,4616.72530445,N,11940.86523131,W,4,6,1.5,321.970,M,-17.561,M,0.4,0000*42
1627578181119610909,11329,1627578181119496107,gps_frame,$GPGGA,170300.45,4616.72532947,N,11940.86511383,W,4,6,1.5,321.978,M,-17.561,M,0.4,0000*48
1627578181168061118,11330,1627578181167876005,gps_frame,$GPGGA,170300.50,4616.72536068,N,11940.86517033,W,4,6,1.5,321.985,M,-17.561,M,0.5,0000*41
1627578181219971085,11331,1627578181219696044,gps_frame,$GPGGA,170300.55,4616.72538963,N,11940.86507813,W,4,6,1.5,321.993,M,-17.561,M,0.5,0000*44
1627578181282410060,11332,1627578181282124996,gps_frame,$GPGGA,170300.60,4616.72546346,N,11940.86510124,W,4,6,1.5,321.964,M,-17.561,M,0.6,0000*46
1627578181319868831,11333,1627578181319626092,gps_frame,$GPGGA,170300.65,4616.72552085,N,11940.86500427,W,4,6,1.5,321.949,M,-17.561,M,0.6,0000*42
1627578181368583971,11334,1627578181368376016,gps_frame,$GPGGA,170300.70,4616.72548997,N,11940.86505523,W,4,6,1.5,321.928,M,-17.561,M,0.7,0000*41
1627578181419923845,11335,1627578181419708013,gps_frame,$GPGGA,170300.75,4616.72549140,N,11940.86490973,W,4,6,1.5,321.909,M,-17.561,M,0.7,0000*40
1627578181469248960,11336,1627578181469122886,gps_frame,$GPGGA,170300.80,4616.72561202,N,11940.86499497,W,4,6,1.5,321.937,M,-17.561,M,0.8,0000*49
1627578181519860145,11337,1627578181519632101,gps_frame,$GPGGA,170300.85,4616.72568901,N,11940.86495903,W,4,6,1.5,321.949,M,-17.561,M,0.8,0000*48
1627578181568209858,11338,1627578181567950963,gps_frame,$GPGGA,170300.90,4616.72566725,N,11940.86493477,W,4,6,1.5,321.964,M,-17.561,M,0.9,0000*4C
1627578181619786265,11339,1627578181619555950,gps_frame,$GPGGA,170300.95,4616.72568164,N,11940.86473723,W,4,6,1.5,321.978,M,-17.561,M,0.9,0000*45
1627578181676074572,11340,1627578181675947904,gps_frame,$GPGGA,170301.00,4616.72572703,N,11940.86490012,W,4,6,1.5,321.915,M,-17.561,M,1.0,0000*4F
1627578181719756542,11341,1627578181719553947,gps_frame,$GPGGA,170301.05,4616.72576106,N,11940.86485460,W,4,6,1.5,321.880,M,-17.561,M,1.0,0000*45
1627578181779194306,11342,1627578181779052019,gps_frame,$GPGGA,170301.10,4616.72584054,N,11940.86481881,W,4,6,1.5,321.882,M,-17.561,M,1.1,0000*4E
1627578181819929566,11343,1627578181819574117,gps_frame,$GPGGA,170301.15,4616.72590338,N,11940.86469668,W,4,6,1.5,321.871,M,-17.561,M,1.1,0000*44
1627578181870606497,11344,1627578181870304107,gps_frame,$GPGGA,170301.20,4616.72588966,N,11940.86476898,W,4,6,1.5,321.914,M,-17.561,M,0.2,0000*45
1627578181920011304,11345,1627578181919715881,gps_frame,$GPGGA,170301.25,4616.72590398,N,11940.86461294,W,4,6,1.5,321.937,M,-17.561,M,0.2,0000*43
1627578181968320145,11346,1627578181968147993,gps_frame,$GPGGA,170301.30,4616.72596372,N,11940.86472945,W,4,6,1.5,321.910,M,-17.561,M,0.3,0000*44
1627578182019826223,11347,1627578182019643068,gps_frame,$GPGGA,170301.35,4616.72600682,N,11940.86467816,W,4,6,1.5,321.901,M,-17.561,M,0.3,0000*44
1627578182069879683,11348,1627578182069667100,gps_frame,$GPGGA,170301.40,4616.72604672,N,11940.86462644,W,4,6,1.5,321.927,M,-17.561,M,0.4,0000*42
1627578182120085732,11349,1627578182119824886,gps_frame,$GPGGA,170301.45,4616.72608780,N,11940.86447234,W,4,6,1.5,321.940,M,-17.561,M,0.4,0000*42
1627578182168099595,11350,1627578182167917966,gps_frame,$GPGGA,170301.50,4616.72611003,N,11940.86459790,W,4,6,1.5,321.861,M,-17.561,M,0.5,0000*45
1627578182219757238,11351,1627578182219547986,gps_frame,$GPGGA,170301.55,4616.72613915,N,11940.86450615,W,4,6,1.5,321.815,M,-17.561,M,0.5,0000*4A
1627578182269541991,11352,1627578182269346952,gps_frame,$GPGGA,170301.60,4616.72617728,N,11940.86453639,W,4,6,1.5,321.919,M,-17.561,M,0.6,0000*4B
1627578182319922738,11353,1627578182319622039,gps_frame,$GPGGA,170301.65,4616.72621212,N,11940.86443432,W,4,6,1.5,321.968,M,-17.561,M,0.6,0000*49
1627578182368263883,11354,1627578182368100881,gps_frame,$GPGGA,170301.70,4616.72626982,N,11940.86444577,W,4,6,1.5,321.882,M,-17.561,M,0.7,0000*4B
1627578182419766672,11355,1627578182419569969,gps_frame,$GPGGA,170301.75,4616.72631915,N,11940.86432254,W,4,6,1.5,321.845,M,-17.561,M,0.7,0000*4A
1627578182469336312,11356,1627578182469100952,gps_frame,$GPGGA,170301.80,4616.72634432,N,11940.86442305,W,4,6,1.5,321.888,M,-17.561,M,0.8,0000*41
1627578182519803583,11357,1627578182519576072,gps_frame,$GPGGA,170301.85,4616.72637834,N,11940.86431353,W,4,6,1.5,321.901,M,-17.561,M,0.8,0000*4A
1627578182568104129,11358,1627578182567934989,gps_frame,$GPGGA,170301.90,4616.72640570,N,11940.86433578,W,4,6,1.5,321.885,M,-17.561,M,0.9,0000*42
1627578182619721280,11359,1627578182619508028,gps_frame,$GPGGA,170301.95,4616.72643550,N,11940.86420664,W,4,6,1.5,321.879,M,-17.561,M,0.9,0000*49
1627578182676018721,11360,1627578182675848007,gps_frame,$GPGGA,170302.00,4616.72649392,N,11940.86426563,W,4,6,1.5,321.875,M,-17.561,M,1.0,0000*42
1627578182719694029,11361,1627578182719505071,gps_frame,$GPGGA,170302.05,4616.72654185,N,11940.86417076,W,4,6,1.5,321.870,M,-17.561,M,1.0,0000*49
1627578182779191344,11362,1627578182779005050,gps_frame,$GPGGA,170302.10,4616.72655270,N,11940.86423099,W,4,6,1.5,321.884,M,-17.561,M,1.1,0000*49
1627578182819697322,11363,1627578182819510936,gps_frame,$GPGGA,170302.15,4616.72657712,N,11940.86411230,W,4,6,1.5,321.891,M,-17.561,M,1.1,0000*4B
1627578182870251499,11364,1627578182870078086,gps_frame,$GPGGA,170302.20,4616.72664391,N,11940.86415641,W,4,6,1.5,321.882,M,-17.561,M,0.2,0000*44
1627578182919738040,11365,1627578182919528961,gps_frame,$GPGGA,170302.25,4616.72669518,N,11940.86405952,W,4,6,1.5,321.879,M,-17.561,M,0.2,0000*43
1627578182968413602,11366,1627578182968259096,gps_frame,$GPGGA,170302.30,4616.72671706,N,11940.86409811,W,4,6,1.5,321.913,M,-17.561,M,0.3,0000*45
1627578183019701615,11367,1627578183019548892,gps_frame,$GPGGA,170302.35,4616.72674971,N,11940.86396081,W,4,6,1.5,321.934,M,-17.561,M,0.3,0000*4E
1627578183069233726,11368,1627578183069051980,gps_frame,$GPGGA,170302.40,4616.72679282,N,11940.86400907,W,4,6,1.5,321.842,M,-17.561,M,0.4,0000*4E
1627578183119639480,11369,1627578183119499921,gps_frame,$GPGGA,170302.45,4616.72683210,N,11940.86388810,W,4,6,1.5,321.792,M,-17.561,M,0.4,0000*47
1627578183168038046,11370,1627578183167870044,gps_frame,$GPGGA,170302.50,4616.72686277,N,11940.86397540,W,4,6,1.5,321.873,M,-17.561,M,0.5,0000*40
1627578183219855362,11371,1627578183219636917,gps_frame,$GPGGA,170302.55,4616.72689659,N,11940.86388156,W,4,6,1.5,321.906,M,-17.561,M,0.5,0000*4C
1627578183270471866,11372,1627578183270179033,gps_frame,$GPGGA,170302.60,4616.72693230,N,11940.86392360,W,4,6,1.5,321.843,M,-17.561,M,0.6,0000*45
1627578183319806686,11373,1627578183319545030,gps_frame,$GPGGA,170302.65,4616.72696732,N,11940.86381905,W,4,6,1.5,321.815,M,-17.561,M,0.6,0000*4A
1627578183368179142,11374,1627578183368012905,gps_frame,$GPGGA,170302.70,4616.72703094,N,11940.86383396,W,4,6,1.5,321.814,M,-17.561,M,0.7,0000*4A
1627578183419900823,11375,1627578183419661045,gps_frame,$GPGGA,170302.75,4616.72708408,N,11940.86370887,W,4,6,1.5,321.804,M,-17.561,M,0.7,0000*43
1627578183469117748,11376,1627578183468981027,gps_frame,$GPGGA,170302.80,4616.72708034,N,11940.86378429,W,4,6,1.5,321.803,M,-17.561,M,0.8,0000*4A
1627578183519700163,11377,1627578183519512891,gps_frame,$GPGGA,170302.85,4616.72709743,N,11940.86364974,W,4,6,1.5,321.799,M,-17.561,M,0.8,0000*4D
1627578183568285637,11378,1627578183568101882,gps_frame,$GPGGA,170302.90,4616.72716403,N,11940.86370739,W,4,6,1.5,321.878,M,-17.561,M,0.9,0000*43
1627578183619649666,11379,1627578183619494915,gps_frame,$GPGGA,170302.95,4616.72721250,N,11940.86362627,W,4,6,1.5,321.927,M,-17.561,M,0.9,0000*44
1627578183675990076,11380,1627578183675828933,gps_frame,$GPGGA,170303.00,4616.72724982,N,11940.86366073,W,4,6,1.5,321.853,M,-17.561,M,1.0,0000*41
1627578183719642811,11381,1627578183719479084,gps_frame,$GPGGA,170303.05,4616.72729122,N,11940.86353700,W,4,6,1.5,321.823,M,-17.561,M,1.0,0000*49
1627578183768197615,11382,1627578183768013000,gps_frame,$GPGGA,170303.10,4616.72731545,N,11940.86358354,W,4,6,1.5,321.836,M,-17.561,M,1.1,0000*4A
1627578183819653111,11383,1627578183819488048,gps_frame,$GPGGA,170303.15,4616.72734597,N,11940.86344896,W,4,6,1.5,321.833,M,-17.561,M,1.1,0000*48
1627578183871151059,11384,1627578183870924949,gps_frame,$GPGGA,170303.20,4616.72739504,N,11940.86352403,W,4,6,1.5,321.858,M,-17.561,M,0.2,0000*41
1627578183919773599,11385,1627578183919554948,gps_frame,$GPGGA,170303.25,4616.72743731,N,11940.86343147,W,4,6,1.5,321.872,M,-17.561,M,0.2,0000*40
1627578183968281071,11386,1627578183968091964,gps_frame,$GPGGA,170303.30,4616.72745988,N,11940.86347675,W,4,6,1.5,321.830,M,-17.561,M,0.3,0000*4B
1627578184019931909,11387,1627578184019721984,gps_frame,$GPGGA,170303.35,4616.72748967,N,11940.86336138,W,4,6,1.5,321.808,M,-17.561,M,0.3,0000*41
1627578184069684115,11388,1627578184069516897,gps_frame,$GPGGA,170303.40,4616.72754652,N,11940.86338586,W,4,6,1.5,321.802,M,-17.561,M,0.4,0000*45
1627578184119786409,11389,1627578184119587898,gps_frame,$GPGGA,170303.45,4616.72759347,N,11940.86326935,W,4,6,1.5,321.791,M,-17.561,M,0.4,0000*42
1627578184168165141,11390,1627578184167957067,gps_frame,$GPGGA,170303.50,4616.72759016,N,11940.86337430,W,4,6,1.5,321.797,M,-17.561,M,0.5,0000*4E
1627578184219812098,11391,1627578184219602108,gps_frame,$GPGGA,170303.55,4616.72760524,N,11940.86327822,W,4,6,1.5,321.796,M,-17.561,M,0.5,0000*4A
1627578184269470229,11392,1627578184269172906,gps_frame,$GPGGA,170303.60,4616.72769065,N,11940.86327188,W,4,6,1.5,321.778,M,-17.561,M,0.6,0000*4F
1627578184319837857,11393,1627578184319593906,gps_frame,$GPGGA,170303.65,4616.72775031,N,11940.86317226,W,4,6,1.5,321.766,M,-17.561,M,0.6,0000*4D
1627578184368236172,11394,1627578184367994070,gps_frame,$GPGGA,170303.70,4616.72778398,N,11940.86320809,W,4,6,1.5,321.834,M,-17.561,M,0.7,0000*4E
1627578184419843803,11395,1627578184419569969,gps_frame,$GPGGA,170303.75,4616.72782717,N,11940.86305519,W,4,6,1.5,321.872,M,-17.561,M,0.7,0000*44
1627578184469324873,11396,1627578184469103097,gps_frame,$GPGGA,170303.80,4616.72782103,N,11940.86317965,W,4,6,1.5,321.793,M,-17.561,M,0.8,0000*46
1627578184519821233,11397,1627578184519602060,gps_frame,$GPGGA,170303.85,4616.72783296,N,11940.86307335,W,4,6,1.5,321.756,M,-17.561,M,0.8,0000*4A
1627578184568107490,11398,1627578184567823886,gps_frame,$GPGGA,170303.90,4616.72792374,N,11940.86309090,W,4,6,1.5,321.853,M,-17.561,M,0.9,0000*4A
1627578184619795468,11399,1627578184619538068,gps_frame,$GPGGA,170303.95,4616.72798565,N,11940.86301180,W,4,6,1.5,321.901,M,-17.561,M,0.9,0000*4D
1627578184676063238,11400,1627578184675895929,gps_frame,$GPGGA,170304.00,4616.72799648,N,11940.86301512,W,4,6,1.5,321.834,M,-17.561,M,1.0,0000*4B
1627578184720050462,11401,1627578184719810962,gps_frame,$GPGGA,170304.05,4616.72802600,N,11940.86284605,W,4,6,1.5,321.809,M,-17.561,M,1.0,0000*48
1627578184768227163,11402,1627578184768049955,gps_frame,$GPGGA,170304.10,4616.72805571,N,11940.86295965,W,4,6,1.5,321.805,M,-17.561,M,1.1,0000*4A
1627578184820152821,11403,1627578184819785118,gps_frame,$GPGGA,170304.15,4616.72808535,N,11940.86286907,W,4,6,1.5,321.793,M,-17.561,M,1.1,0000*44
1627578184870473000,11404,1627578184870165109,gps_frame,$GPGGA,170304.20,4616.72812966,N,11940.86290920,W,4,6,1.5,321.802,M,-17.561,M,0.2,0000*44
1627578184920113144,11405,1627578184919750928,gps_frame,$GPGGA,170304.25,4616.72816859,N,11940.86281947,W,4,6,1.5,321.804,M,-17.561,M,0.2,0000*4F
1627578184969028446,11406,1627578184968770027,gps_frame,$GPGGA,170304.30,4616.72817846,N,11940.86284335,W,4,6,1.5,321.746,M,-17.561,M,0.3,0000*46
1627578185020025523,11407,1627578185019762992,gps_frame,$GPGGA,170304.35,4616.72819897,N,11940.86272326,W,4,6,1.5,321.709,M,-17.561,M,0.3,0000*41
1627578185069486896,11408,1627578185069258928,gps_frame,$GPGGA,170304.40,4616.72828035,N,11940.86275935,W,4,6,1.5,321.756,M,-17.561,M,0.4,0000*43
1627578185119836785,11409,1627578185119601011,gps_frame,$GPGGA,170304.45,4616.72833944,N,11940.86267069,W,4,6,1.5,321.772,M,-17.561,M,0.4,0000*46
1627578185168593409,11410,1627578185168296098,gps_frame,$GPGGA,170304.50,4616.72832928,N,11940.86273212,W,4,6,1.5,321.799,M,-17.561,M,0.5,0000*46
1627578185219942652,11411,1627578185219656944,gps_frame,$GPGGA,170304.55,4616.72834447,N,11940.86259753,W,4,6,1.5,321.822,M,-17.561,M,0.5,0000*46
1627578185270385272,11412,1627578185270127058,gps_frame,$GPGGA,170304.60,4616.72841599,N,11940.86263870,W,4,6,1.5,321.777,M,-17.561,M,0.6,0000*4B
1627578185319740362,11413,1627578185319578886,gps_frame,$GPGGA,170304.65,4616.72846689,N,11940.86254778,W,4,6,1.5,321.757,M,-17.561,M,0.6,0000*4A
1627578185368895258,11414,1627578185368607997,gps_frame,$GPGGA,170304.70,4616.72847869,N,11940.86259816,W,4,6,1.5,321.799,M,-17.561,M,0.7,0000*46
1627578185419722352,11415,1627578185419528007,gps_frame,$GPGGA,170304.75,4616.72850480,N,11940.86247674,W,4,6,1.5,321.818,M,-17.561,M,0.7,0000*4D
1627578185469422410,11416,1627578185469264984,gps_frame,$GPGGA,170304.80,4616.72853391,N,11940.86255032,W,4,6,1.5,321.781,M,-17.561,M,0.8,0000*44
1627578185519773827,11417,1627578185519561052,gps_frame,$GPGGA,170304.85,4616.72856193,N,11940.86246570,W,4,6,1.5,321.765,M,-17.561,M,0.8,0000*4F
1627578185568094665,11418,1627578185567889928,gps_frame,$GPGGA,170304.90,4616.72860202,N,11940.86247541,W,4,6,1.5,321.772,M,-17.561,M,0.9,0000*41
1627578185620235820,11419,1627578185619937896,gps_frame,$GPGGA,170304.95,4616.72863769,N,11940.86237411,W,4,6,1.5,321.771,M,-17.561,M,0.9,0000*4F
1627578185676142462,11420,1627578185675992012,gps_frame,$GPGGA,170305.00,4616.72866514,N,11940.86243781,W,4,6,1.5,321.804,M,-17.561,M,1.0,0000*43
1627578185719879768,11421,1627578185719724893,gps_frame,$GPGGA,170305.05,4616.72869560,N,11940.86234680,W,4,6,1.5,321.824,M,-17.561,M,1.0,0000*48
1627578185768290817,11422,1627578185768193006,gps_frame,$GPGGA,170305.10,4616.72872851,N,11940.86236068,W,4,6,1.5,321.751,M,-17.561,M,1.1,0000*47
1627578185819642162,11423,1627578185819490909,gps_frame,$GPGGA,170305.15,4616.72876051,N,11940.86224877,W,4,6,1.5,321.712,M,-17.561,M,1.1,0000*4C
1627578185870228083,11424,1627578185870048046,gps_frame,$GPGGA,170305.20,4616.72877990,N,11940.86232013,W,4,6,1.5,321.741,M,-17.561,M,0.2,0000*46
1627578185919874976,11425,1627578185919614076,gps_frame,$GPGGA,170305.25,4616.72880391,N,11940.86223666,W,4,6,1.5,321.744,M,-17.561,M,0.2,0000*41
1627578185968056746,11426,1627578185967860937,gps_frame,$GPGGA,170305.30,4616.72885281,N,11940.86225837,W,4,6,1.5,321.701,M,-17.561,M,0.3,0000*4C
1627578186019760982,11427,1627578186019587993,gps_frame,$GPGGA,170305.35,4616.72889259,N,11940.86217041,W,4,6,1.5,321.675,M,-17.561,M,0.3,0000*4A
1627578186069304806,11428,1627578186069062948,gps_frame,$GPGGA,170305.40,4616.72891580,N,11940.86219347,W,4,6,1.5,321.686,M,-17.561,M,0.4,0000*42
1627578186119653876,11429,1627578186119508028,gps_frame,$GPGGA,170305.45,4616.72894507,N,11940.86207494,W,4,6,1.5,321.682,M,-17.561,M,0.4,0000*4F
1627578186168071270,11430,1627578186167856931,gps_frame,$GPGGA,170305.50,4616.72897944,N,11940.86215657,W,4,6,1.5,321.746,M,-17.561,M,0.5,0000*45
1627578186219799431,11431,1627578186219613075,gps_frame,$GPGGA,170305.55,4616.72901194,N,11940.86207772,W,4,6,1.5,321.784,M,-17.561,M,0.5,0000*40
1627578186269325737,11432,1627578186269151926,gps_frame,$GPGGA,170305.60,4616.72903870,N,11940.86207954,W,4,6,1.5,321.705,M,-17.561,M,0.6,0000*47
1627578186320387978,11433,1627578186320015907,gps_frame,$GPGGA,170305.65,4616.72906757,N,11940.86196370,W,4,6,1.5,321.669,M,-17.561,M,0.6,0000*41
1627578186368080650,11434,1627578186367866992,gps_frame,$GPGGA,170305.70,4616.72910591,N,11940.86205533,W,4,6,1.5,321.687,M,-17.561,M,0.7,0000*43
1627578186419818473,11435,1627578186419656038,gps_frame,$GPGGA,170305.75,4616.72914078,N,11940.86198895,W,4,6,1.5,321.685,M,-17.561,M,0.7,0000*44
1627578186469502748,11436,1627578186469271898,gps_frame,$GPGGA,170305.80,4616.72915856,N,11940.86196659,W,4,6,1.5,321.688,M,-17.561,M,0.8,0000*49
1627578186519732710,11437,1627578186519565105,gps_frame,$GPGGA,170305.85,4616.72918260,N,11940.86183505,W,4,6,1.5,321.689,M,-17.561,M,0.8,0000*41
1627578186568043778,11438,1627578186567847013,gps_frame,$GPGGA,170305.90,4616.72923252,N,11940.86191894,W,4,6,1.5,321.758,M,-17.561,M,0.9,0000*46
1627578186619883362,11439,1627578186619647979,gps_frame,$GPGGA,170305.95,4616.72927296,N,11940.86185106,W,4,6,1.5,321.802,M,-17.561,M,0.9,0000*48
1627578186675862793,11440,1627578186675744056,gps_frame,$GPGGA,170306.00,4616.72928117,N,11940.86186030,W,4,6,1.5,321.723,M,-17.561,M,1.0,0000*41
1627578186719816705,11441,1627578186719557046,gps_frame,$GPGGA,170306.05,4616.72930118,N,11940.86173892,W,4,6,1.5,321.688,M,-17.561,M,1.0,0000*48
1627578186768306009,11442,1627578186768121004,gps_frame,$GPGGA,170306.10,4616.72933795,N,11940.86181392,W,4,6,1.5,321.778,M,-17.561,M,1.1,0000*45
1627578186819914115,11443,1627578186819710969,gps_frame,$GPGGA,170306.15,4616.72936859,N,11940.86174967,W,4,6,1.5,321.823,M,-17.561,M,1.1,0000*41
1627578186870360753,11444,1627578186870187044,gps_frame,$GPGGA,170306.20,4616.72941957,N,11940.86175007,W,4,5,1.8,321.756,M,-17.561,M,0.2,0000*47
1627578186920107728,11445,1627578186919795036,gps_frame,$GPGGA,170306.25,4616.72946310,N,11940.86164817,W,4,5,1.8,321.731,M,-17.561,M,0.2,0000*44
1627578186968385619,11446,1627578186968127965,gps_frame,$GPGGA,170306.30,4616.72945176,N,11940.86171096,W,4,5,1.8,321.739,M,-17.561,M,0.3,0000*4D
1627578187019777121,11447,1627578187019543886,gps_frame,$GPGGA,170306.35,4616.72946051,N,11940.86160046,W,4,5,1.8,321.735,M,-17.561,M,0.3,0000*4E
1627578187069643166,11448,1627578187069365024,gps_frame,$GPGGA,170306.40,4616.72953271,N,11940.86166311,W,4,5,1.8,321.794,M,-17.561,M,0.4,0000*43
1627578187119889783,11449,1627578187119616031,gps_frame,$GPGGA,170306.45,4616.72958167,N,11940.86161780,W,4,5,1.8,321.830,M,-17.561,M,0.4,0000*43
1627578187168024365,11450,1627578187167855024,gps_frame,$GPGGA,170306.50,4616.72958587,N,11940.86160173,W,4,5,1.8,321.795,M,-17.561,M,0.5,0000*47
1627578187219787854,11451,1627578187219625949,gps_frame,$GPGGA,170306.55,4616.72960647,N,11940.86146287,W,4,5,1.8,321.786,M,-17.561,M,0.5,0000*48
1627578187270715090,11452,1627578187270486116,gps_frame,$GPGGA,170306.60,4616.72963167,N,11940.86156178,W,4,5,1.8,321.778,M,-17.561,M,0.6,0000*48
1627578187320735153,11453,1627578187320487976,gps_frame,$GPGGA,170306.65,4616.72965519,N,11940.86150004,W,4,5,1.8,321.770,M,-17.561,M,0.6,0000*42
1627578187368956288,11454,1627578187368860006,gps_frame,$GPGGA,170306.70,4616.72969112,N,11940.86150538,W,4,5,1.8,321.761,M,-17.561,M,0.7,0000*4E
1627578187419698785,11455,1627578187419518947,gps_frame,$GPGGA,170306.75,4616.72972251,N,11940.86142275,W,4,5,1.8,321.752,M,-17.561,M,0.7,0000*48
1627578187469434463,11456,1627578187469239950,gps_frame,$GPGGA,170306.80,4616.72975205,N,11940.86146616,W,4,5,1.8,321.766,M,-17.561,M,0.8,0000*49
1627578187519709122,11457,1627578187519546031,gps_frame,$GPGGA,170306.85,4616.72978226,N,11940.86138112,W,4,5,1.8,321.771,M,-17.561,M,0.8,0000*4C
1627578187568797904,11458,1627578187568582057,gps_frame,$GPGGA,170306.90,4616.72980339,N,11940.86142446,W,4,5,1.8,321.756,M,-17.561,M,0.9,0000*4D
1627578187619751291,11459,1627578187619519948,gps_frame,$GPGGA,170306.95,4616.72982785,N,11940.86133643,W,4,5,1.8,321.749,M,-17.561,M,0.9,0000*46
1627578187676136791,11460,1627578187675944089,gps_frame,$GPGGA,170307.00,4616.72986774,N,11940.86137118,W,4,5,1.8,321.771,M,-17.561,M,1.0,0000*4F
1627578187719778384,11461,1627578187719486951,gps_frame,$GPGGA,170307.05,4616.72990198,N,11940.86128989,W,4,5,1.8,321.783,M,-17.561,M,1.0,0000*4A
1627578187768418615,11462,1627578187768171072,gps_frame,$GPGGA,170307.10,4616.72993052,N,11940.86130325,W,4,5,1.8,321.757,M,-17.561,M,1.1,0000*47
1627578187819707220,11463,1627578187819497108,gps_frame,$GPGGA,170307.15,4616.72996115,N,11940.86119285,W,4,5,1.8,321.744,M,-17.561,M,1.1,0000*47
1627578187870496340,11464,1627578187870254039,gps_frame,$GPGGA,170307.20,4616.72998919,N,11940.86126800,W,4,5,1.8,321.751,M,-17.561,M,0.2,0000*46
1627578187919731869,11465,1627578187919555902,gps_frame,$GPGGA,170307.25,4616.73001819,N,11940.86118831,W,4,5,1.8,321.750,M,-17.561,M,0.2,0000*44
1627578187968699125,11466,1627578187968446969,gps_frame,$GPGGA,170307.30,4616.73004506,N,11940.86120430,W,4,5,1.8,321.747,M,-17.561,M,0.3,0000*47
1627578188020047531,11467,1627578188019618988,gps_frame,$GPGGA,170307.35,4616.73007272,N,11940.86110402,W,4,5,1.8,321.745,M,-17.561,M,0.3,0000*45
1627578188069693520,11468,1627578188069420099,gps_frame,$GPGGA,170307.40,4616.73011729,N,11940.86115224,W,4,5,1.8,321.713,M,-17.561,M,0.4,0000*48
1627578188119878342,11469,1627578188119568109,gps_frame,$GPGGA,170307.45,4616.73015567,N,11940.86106874,W,4,5,1.8,321.693,M,-17.561,M,0.4,0000*45
1627578188168013271,11470,1627578188167912960,gps_frame,$GPGGA,170307.50,4616.73017600,N,11940.86109380,W,4,5,1.8,321.745,M,-17.561,M,0.5,0000*45
1627578188219674186,11471,1627578188219511032,gps_frame,$GPGGA,170307.55,4616.73020293,N,11940.86097911,W,4,5,1.8,321.770,M,-17.561,M,0.5,0000*48
1627578188269870741,11472,1627578188269335031,gps_frame,$GPGGA,170307.60,4616.73023550,N,11940.86103291,W,4,5,1.8,321.741,M,-17.561,M,0.6,0000*4B
1627578188320599955,11473,1627578188320046901,gps_frame,$GPGGA,170307.65,4616.73026601,N,11940.86094375,W,4,5,1.8,321.733,M,-17.561,M,0.6,0000*4D
1627578188368532820,11474,1627578188368302106,gps_frame,$GPGGA,170307.70,4616.73028345,N,11940.86100833,W,4,5,1.8,321.744,M,-17.561,M,0.7,0000*46
1627578188419947213,11475,1627578188419742107,gps_frame,$GPGGA,170307.75,4616.73030567,N,11940.86093424,W,4,5,1.8,321.749,M,-17.561,M,0.7,0000*40
1627578188469484241,11476,1627578188469310998,gps_frame,$GPGGA,170307.80,4616.73035294,N,11940.86093878,W,4,5,1.8,321.808,M,-17.561,M,0.8,0000*44
1627578188519831012,11477,1627578188519555091,gps_frame,$GPGGA,170307.85,4616.73039103,N,11940.86084815,W,4,5,1.8,321.847,M,-17.561,M,0.8,0000*46
1627578188568226662,11478,1627578188568059921,gps_frame,$GPGGA,170307.90,4616.73042737,N,11940.86088481,W,4,5,1.8,321.819,M,-17.561,M,0.9,0000*48
1627578188619711025,11479,1627578188619497060,gps_frame,$GPGGA,170307.95,4616.73046435,N,11940.86077866,W,4,5,1.8,321.816,M,-17.561,M,0.9,0000*42
1627578188676227575,11480,1627578188676074028,gps_frame,$GPGGA,170308.00,4616.73048336,N,11940.86084842,W,4,5,1.8,321.792,M,-17.561,M,1.0,0000*4A
1627578188719700760,11481,1627578188719511032,gps_frame,$GPGGA,170308.05,4616.73050894,N,11940.86075072,W,4,5,1.8,321.776,M,-17.561,M,1.0,0000*4A
1627578188779944301,11482,1627578188779654979,gps_frame,$GPGGA,170308.10,4616.73054112,N,11940.86077270,W,4,5,1.8,321.779,M,-17.561,M,1.1,0000*41
1627578188819734994,11483,1627578188819561004,gps_frame,$GPGGA,170308.15,4616.73057088,N,11940.86067335,W,4,5,1.8,321.776,M,-17.561,M,1.1,0000*4B
1627578188870699739,11484,1627578188870511054,gps_frame,$GPGGA,170308.20,4616.73061752,N,11940.86071753,W,4,6,1.8,321.767,M,-17.561,M,0.2,0000*4A
1627578188919897780,11485,1627578188919668912,gps_frame,$GPGGA,170308.25,4616.73065799,N,11940.86062919,W,4,6,1.8,321.761,M,-17.561,M,0.2,0000*48
1627578188968448633,11486,1627578188968265056,gps_frame,$GPGGA,170308.30,4616.73066720,N,11940.86068402,W,4,6,1.8,321.779,M,-17.561,M,0.3,0000*48
1627578189019932989,11487,1627578189019670963,gps_frame,$GPGGA,170308.35,4616.73068786,N,11940.86058064,W,4,6,1.8,321.788,M,-17.561,M,0.3,0000*46
1627578189069937587,11488,1627578189069662094,gps_frame,$GPGGA,170308.40,4616.73074103,N,11940.86061392,W,4,6,1.8,321.726,M,-17.561,M,0.4,0000*41
1627578189119713581,11489,1627578189119549989,gps_frame,$GPGGA,170308.45,4616.73078229,N,11940.86052838,W,4,6,1.8,321.691,M,-17.561,M,0.4,0000*45
1627578189168347844,11490,1627578189168178081,gps_frame,$GPGGA,170308.50,4616.73079226,N,11940.86057429,W,4,6,1.8,321.728,M,-17.561,M,0.5,0000*44
1627578189219940424,11491,1627578189219703912,gps_frame,$GPGGA,170308.55,4616.73081368,N,11940.86046987,W,4,6,1.8,321.738,M,-17.561,M,0.5,0000*45
1627578189270436557,11492,1627578189270144939,gps_frame,$GPGGA,170308.60,4616.73087720,N,11940.86051507,W,4,6,1.8,321.779,M,-17.561,M,0.6,0000*49
1627578189320208766,11493,1627578189319837093,gps_frame,$GPGGA,170308.65,4616.73092530,N,11940.86043456,W,4,6,1.8,321.808,M,-17.561,M,0.6,0000*44
1627578189368297430,11494,1627578189368072986,gps_frame,$GPGGA,170308.70,4616.73095482,N,11940.86046374,W,4,6,1.8,321.755,M,-17.561,M,0.7,0000*4B
1627578189419735006,11495,1627578189419513940,gps_frame,$GPGGA,170308.75,4616.73099114,N,11940.86033515,W,4,6,1.8,321.731,M,-17.561,M,0.7,0000*49
1627578189469510572,11496,1627578189469321012,gps_frame,$GPGGA,170308.80,4616.73101063,N,11940.86041263,W,4,6,1.8,321.788,M,-17.561,M,0.8,0000*4C
1627578189519778052,11497,1627578189519598007,gps_frame,$GPGGA,170308.85,4616.73103628,N,11940.86030720,W,4,6,1.8,321.815,M,-17.561,M,0.8,0000*4D
1627578189568048498,11498,1627578189567863941,gps_frame,$GPGGA,170308.90,4616.73111043,N,11940.86032639,W,4,6,1.8,321.744,M,-17.561,M,0.9,0000*40
1627578189619728791,11499,1627578189619553089,gps_frame,$GPGGA,170308.95,4616.73116681,N,11940.86022267,W,4,6,1.8,321.708,M,-17.561,M,0.9,0000*4C
1627578189675934613,11500,1627578189675793886,gps_frame,$GPGGA,170309.00,4616.73117481,N,11940.86030194,W,4,6,1.8,321.732,M,-17.561,M,1.0,0000*4F
1627578189719774421,11501,1627578189719510078,gps_frame,$GPGGA,170309.05,4616.73120053,N,11940.86017605,W,4,6,1.8,321.735,M,-17.561,M,1.0,0000*48
1627578189768277594,11502,1627578189768076896,gps_frame,$GPGGA,170309.10,4616.73124498,N,11940.86022019,W,4,6,1.8,321.774,M,-17.561,M,1.1,0000*42
1627578189819769178,11503,1627578189819607019,gps_frame,$GPGGA,170309.15,4616.73128257,N,11940.86011292,W,4,6,1.8,321.800,M,-17.561,M,1.1,0000*43
1627578189871084993,11504,1627578189870920896,gps_frame,$GPGGA,170309.20,4616.73133124,N,11940.86015641,W,4,6,1.8,321.731,M,-17.561,M,0.2,0000*49
1627578189919806788,11505,1627578189919584989,gps_frame,$GPGGA,170309.25,4616.73137586,N,11940.86004756,W,4,6,1.8,321.696,M,-17.561,M,0.2,0000*4F
1627578189968167288,11506,1627578189967911005,gps_frame,$GPGGA,170309.30,4616.73139232,N,11940.86011932,W,4,6,1.8,321.749,M,-17.561,M,0.3,0000*47
1627578190019915083,11507,1627578190019700050,gps_frame,$GPGGA,170309.35,4616.73141909,N,11940.86000552,W,4,6,1.8,321.769,M,-17.561,M,0.3,0000*46
1627578190069591215,11508,1627578190069462060,gps_frame,$GPGGA,170309.40,4616.73149931,N,11940.86002081,W,4,6,1.8,321.665,M,-17.561,M,0.4,0000*44
1627578190119806176,11509,1627578190119606971,gps_frame,$GPGGA,170309.45,4616.73155997,N,11940.85990427,W,4,6,1.8,321.607,M,-17.561,M,0.4,0000*4D
1627578190167899227,11510,1627578190167735099,gps_frame,$GPGGA,170309.50,4616.73156846,N,11940.86000087,W,4,6,1.8,321.718,M,-17.561,M,0.5,0000*44
1627578190219848554,11511,1627578190219645977,gps_frame,$GPGGA,170309.55,4616.73159604,N,11940.85987130,W,4,6,1.8,321.767,M,-17.561,M,0.5,0000*46
1627578190269653362,11512,1627578190269299030,gps_frame,$GPGGA,170309.60,4616.73164311,N,11940.85992114,W,4,6,1.8,321.719,M,-17.561,M,0.6,0000*47
1627578190319970077,11513,1627578190319747924,gps_frame,$GPGGA,170309.65,4616.73168304,N,11940.85980957,W,4,6,1.8,321.707,M,-17.561,M,0.6,0000*49
1627578190368252919,11514,1627578190367950916,gps_frame,$GPGGA,170309.70,4616.73171609,N,11940.85982714,W,4,6,1.8,321.659,M,-17.561,M,0.7,0000*4D
1627578190420023526,11515,1627578190419718027,gps_frame,$GPGGA,170309.75,4616.73175166,N,11940.85969407,W,4,6,1.8,321.624,M,-17.561,M,0.7,0000*4C
1627578190469209989,11516,1627578190469031095,gps_frame,$GPGGA,170309.80,4616.73180039,N,11940.85978424,W,4,6,1.8,321.688,M,-17.561,M,0.8,0000*4F
1627578190520028231,11517,1627578190519685029,gps_frame,$GPGGA,170309.85,4616.73184430,N,11940.85969164,W,4,6,1.8,321.716,M,-17.561,M,0.8,0000*44
1627578190568236905,11518,1627578190568008899,gps_frame,$GPGGA,170309.90,4616.73190502,N,11940.85972506,W,4,6,1.8,321.759,M,-17.561,M,0.9,0000*45
1627578190619956383,11519,1627578190619610071,gps_frame,$GPGGA,170309.95,4616.73195959,N,11940.85959563,W,4,6,1.8,321.796,M,-17.561,M,0.9,0000*4E
1627578190675878688,11520,1627578190675707101,gps_frame,$GPGGA,170310.00,4616.73197650,N,11940.85965852,W,4,6,1.8,321.710,M,-17.561,M,1.0,0000*48
1627578190719697835,11521,1627578190719515085,gps_frame,$GPGGA,170310.05,4616.73200720,N,11940.85950612,W,4,6,1.8,321.670,M,-17.561,M,1.0,0000*4D
1627578190768450331,11522,1627578190768225908,gps_frame,$GPGGA,170310.10,4616.73206851,N,11940.85956676,W,4,6,1.8,321.645,M,-17.561,M,1.1,0000*45
1627578190819866066,11523,1627578190819679975,gps_frame,$GPGGA,170310.15,4616.73211861,N,11940.85945045,W,4,6,1.8,321.614,M,-17.561,M,1.1,0000*45
1627578190870166617,11524,1627578190870028018,gps_frame,$GPGGA,170310.20,4616.73214855,N,11940.85949232,W,4,5,1.8,321.712,M,-17.561,M,0.2,0000*49
1627578190919777255,11525,1627578190919581890,gps_frame,$GPGGA,170310.25,4616.73218586,N,11940.85934889,W,4,5,1.8,321.764,M,-17.561,M,0.2,0000*42
1627578190968424719,11526,1627578190968173027,gps_frame,$GPGGA,170310.30,4616.73223460,N,11940.85941028,W,4,5,1.8,321.637,M,-17.561,M,0.3,0000*40
1627578191020117798,11527,1627578191019788980,gps_frame,$GPGGA,170310.35,4616.73227917,N,11940.85928587,W,4,5,1.8,321.575,M,-17.561,M,0.3,0000*46
1627578191069405207,11528,1627578191069237947,gps_frame,$GPGGA,170310.40,4616.73232595,N,11940.85935872,W,4,5,1.8,321.646,M,-17.561,M,0.4,0000*49
1627578191119904205,11529,1627578191119683027,gps_frame,$GPGGA,170310.45,4616.73237191,N,11940.85924020,W,4,5,1.8,321.668,M,-17.561,M,0.4,0000*4A
1627578191168035809,11530,1627578191167835950,gps_frame,$GPGGA,170310.50,4616.73241643,N,11940.85929093,W,4,5,1.8,321.649,M,-17.561,M,0.5,0000*40
1627578191219694970,11531,1627578191219569921,gps_frame,$GPGGA,170310.55,4616.73246147,N,11940.85915323,W,4,5,1.8,321.646,M,-17.561,M,0.5,0000*49
1627578191270654159,11532,1627578191270499944,gps_frame,$GPGGA,170310.60,4616.73252351,N,11940.85921105,W,4,5,1.8,321.637,M,-17.561,M,0.6,0000*4B
1627578191319669062,11533,1627578191319530010,gps_frame,$GPGGA,170310.65,4616.73257933,N,11940.85907202,W,4,5,1.8,321.630,M,-17.561,M,0.6,0000*42
1627578191368416641,11534,1627578191368241071,gps_frame,$GPGGA,170310.70,4616.73260328,N,11940.85916212,W,4,5,1.8,321.675,M,-17.561,M,0.7,0000*43
1627578191419990737,11535,1627578191419672012,gps_frame,$GPGGA,170310.75,4616.73263891,N,11940.85902007,W,4,5,1.8,321.700,M,-17.561,M,0.7,0000*4C
1627578191469391562,11536,1627578191469227075,gps_frame,$GPGGA,170310.80,4616.73270883,N,11940.85907473,W,4,5,1.8,321.695,M,-17.561,M,0.8,0000*47
1627578191519838379,11537,1627578191519587993,gps_frame,$GPGGA,170310.85,4616.73276619,N,11940.85894691,W,4,5,1.8,321.700,M,-17.561,M,0.8,0000*41
1627578191568042440,11538,1627578191567881107,gps_frame,$GPGGA,170310.90,4616.73279773,N,11940.85901495,W,4,5,1.8,321.634,M,-17.561,M,0.9,0000*4B
1627578191620008028,11539,1627578191619757890,gps_frame,$GPGGA,170310.95,4616.73283872,N,11940.85886516,W,4,5,1.8,321.595,M,-17.561,M,0.9,0000*49
1627578191676106084,11540,1627578191675970077,gps_frame,$GPGGA,170311.00,4616.73288824,N,11940.85892764,W,4,5,1.8,321.591,M,-17.561,M,1.0,0000*42
1627578191719922562,11541,1627578191719765901,gps_frame,$GPGGA,170311.05,4616.73293463,N,11940.85878931,W,4,5,1.8,321.574,M,-17.561,M,1.0,0000*43
1627578191768256875,11542,1627578191768069028,gps_frame,$GPGGA,170311.10,4616.73299303,N,11940.85885916,W,4,5,1.8,321.614,M,-17.561,M,1.1,0000*4F
1627578191820194517,11543,1627578191819993972,gps_frame,$GPGGA,170311.15,4616.73304702,N,11940.85872747,W,4,5,1.8,321.634,M,-17.561,M,1.1,0000*4A
1627578191870390381,11544,1627578191870158910,gps_frame,$GPGGA,170311.20,4616.73309123,N,11940.85874632,W,4,5,1.8,321.635,M,-17.561,M,0.2,0000*42
1627578191919665093,11545,1627578191919478893,gps_frame,$GPGGA,170311.25,4616.73313902,N,11940.85856498,W,4,5,1.8,321.643,M,-17.561,M,0.2,0000*44
