%time,field.header.seq,field.header.stamp,field.header.frame_id,field.sentence
1627577931469930481,6336,1627577931469748020,gps_frame,$GPGGA,165850.80,4616.76481825,N,11940.88201661,W,4,8,1.1,323.302,M,-17.561,M,0.8,0000*41
1627577931520171317,6337,1627577931519886970,gps_frame,$GPGGA,165850.85,4616.76478308,N,11940.88212752,W,4,8,1.1,323.274,M,-17.561,M,0.8,0000*45
1627577931568728770,6338,1627577931568608045,gps_frame,$GPGGA,165850.90,4616.76458528,N,11940.88202639,W,4,8,1.1,323.369,M,-17.561,M,0.9,0000*46
1627577931620065025,6339,1627577931619853019,gps_frame,$GPGGA,165850.95,4616.76444701,N,11940.88209546,W,4,8,1.1,323.420,M,-17.561,M,0.9,0000*4D
1627577931677031184,6340,1627577931676831960,gps_frame,$GPGGA,165851.00,4616.76449250,N,11940.88210520,W,4,8,1.1,323.372,M,-17.561,M,1.0,0000*4C
1627577931719978572,6341,1627577931719800949,gps_frame,$GPGGA,165851.05,4616.76447073,N,11940.88245926,W,4,8,1.1,323.360,M,-17.561,M,1.0,0000*4D
1627577931780162431,6342,1627577931779987096,gps_frame,$GPGGA,165851.10,4616.76443121,N,11940.88211465,W,4,8,1.1,323.324,M,-17.561,M,1.1,0000*41
1627577931820123032,6343,1627577931819895029,gps_frame,$GPGGA,165851.15,4616.76439819,N,11940.88215426,W,4,8,1.1,323.298,M,-17.561,M,1.1,0000*4E
1627577931871010175,6344,1627577931870858907,gps_frame,$GPGGA,165851.20,4616.76424936,N,11940.88217794,W,4,8,1.1,323.380,M,-17.561,M,0.2,0000*4A
1627577931920065549,6345,1627577931919908046,gps_frame,$GPGGA,165851.25,4616.76414293,N,11940.88229232,W,4,8,1.1,323.422,M,-17.561,M,0.2,0000*43
1627577931969044887,6346,1627577931968836069,gps_frame,$GPGGA,165851.30,4616.76411198,N,11940.88225003,W,4,8,1.1,323.372,M,-17.561,M,0.3,0000*45
1627577932020016107,6347,1627577932019813060,gps_frame,$GPGGA,165851.35,4616.76405340,N,11940.88251690,W,4,8,1.1,323.355,M,-17.561,M,0.3,0000*48
1627577932070145791,6348,1627577932069988965,gps_frame,$GPGGA,165851.40,4616.76403740,N,11940.88220947,W,4,8,1.1,323.370,M,-17.561,M,0.4,0000*4B
1627577932119976656,6349,1627577932119810104,gps_frame,$GPGGA,165851.45,4616.76400582,N,11940.88230250,W,4,8,1.1,323.373,M,-17.561,M,0.4,0000*4E
1627577932168808873,6350,1627577932168641090,gps_frame,$GPGGA,165851.50,4616.76386719,N,11940.88229458,W,4,8,1.1,323.375,M,-17.561,M,0.5,0000*42
1627577932220104208,6351,1627577932219814062,gps_frame,$GPGGA,165851.55,4616.76376775,N,11940.88242687,W,4,8,1.1,323.377,M,-17.561,M,0.5,0000*4D
1627577932270028511,6352,1627577932269866943,gps_frame,$GPGGA,165851.60,4616.76375499,N,11940.88233072,W,4,8,1.1,323.383,M,-17.561,M,0.6,0000*4B
1627577932320103638,6353,1627577932319936037,gps_frame,$GPGGA,165851.65,4616.76371050,N,11940.88255388,W,4,8,1.1,323.388,M,-17.561,M,0.6,0000*46
1627577932368926624,6354,1627577932368805885,gps_frame,$GPGGA,165851.70,4616.76364693,N,11940.88230429,W,4,8,1.1,323.403,M,-17.561,M,0.7,0000*45
1627577932420020488,6355,1627577932419821023,gps_frame,$GPGGA,165851.75,4616.76359034,N,11940.88238311,W,4,8,1.1,323.415,M,-17.561,M,0.7,0000*46
1627577932469949304,6356,1627577932469769954,gps_frame,$GPGGA,165851.80,4616.76349654,N,11940.88240020,W,4,8,1.1,323.383,M,-17.561,M,0.8,0000*44
1627577932520033815,6357,1627577932519877910,gps_frame,$GPGGA,165851.85,4616.76341636,N,11940.88258953,W,4,8,1.1,323.368,M,-17.561,M,0.8,0000*4C
1627577932568750595,6358,1627577932568564891,gps_frame,$GPGGA,165851.90,4616.76336699,N,11940.88238916,W,4,8,1.1,323.401,M,-17.561,M,0.9,0000*43
1627577932620019569,6359,1627577932619824886,gps_frame,$GPGGA,165851.95,4616.76330634,N,11940.88253969,W,4,8,1.1,323.416,M,-17.561,M,0.9,0000*44
1627577932676931691,6360,1627577932676820039,gps_frame,$GPGGA,165852.00,4616.76324206,N,11940.88244915,W,4,8,1.1,323.393,M,-17.561,M,1.0,0000*44
1627577932720060494,6361,1627577932719886064,gps_frame,$GPGGA,165852.05,4616.76317911,N,11940.88262625,W,4,8,1.1,323.384,M,-17.561,M,1.0,0000*42
1627577932780233476,6362,1627577932780070066,gps_frame,$GPGGA,165852.10,4616.76311159,N,11940.88247507,W,4,8,1.1,323.390,M,-17.561,M,1.1,0000*44
1627577932819947436,6363,1627577932819816112,gps_frame,$GPGGA,165852.15,4616.76304574,N,11940.88261705,W,4,8,1.1,323.390,M,-17.561,M,1.1,0000*4A
1627577932871222704,6364,1627577932870969057,gps_frame,$GPGGA,165852.20,4616.76297405,N,11940.88250070,W,4,8,1.1,323.409,M,-17.561,M,0.2,0000*42
1627577932919909703,6365,1627577932919778108,gps_frame,$GPGGA,165852.25,4616.76290449,N,11940.88265957,W,4,8,1.1,323.421,M,-17.561,M,0.2,0000*48
1627577932968948901,6366,1627577932968818902,gps_frame,$GPGGA,165852.30,4616.76286204,N,11940.88258248,W,4,8,1.1,323.407,M,-17.561,M,0.3,0000*4A
1627577933020091629,6367,1627577933019891977,gps_frame,$GPGGA,165852.35,4616.76280967,N,11940.88278223,W,4,8,1.1,323.403,M,-17.561,M,0.3,0000*4C
1627577933070053858,6368,1627577933069900035,gps_frame,$GPGGA,165852.40,4616.76271608,N,11940.88255322,W,4,8,1.1,323.434,M,-17.561,M,0.4,0000*4A
1627577933120179310,6369,1627577933119944095,gps_frame,$GPGGA,165852.45,4616.76263758,N,11940.88263626,W,4,8,1.1,323.451,M,-17.561,M,0.4,0000*4F
1627577933168734204,6370,1627577933168587923,gps_frame,$GPGGA,165852.50,4616.76260133,N,11940.88265246,W,4,8,1.1,323.412,M,-17.561,M,0.5,0000*41
1627577933220048779,6371,1627577933219854116,gps_frame,$GPGGA,165852.55,4616.76254962,N,11940.88289524,W,4,8,1.1,323.393,M,-17.561,M,0.5,0000*40
1627577933270938712,6372,1627577933270811080,gps_frame,$GPGGA,165852.60,4616.76246466,N,11940.88263196,W,4,8,1.1,323.426,M,-17.561,M,0.6,0000*4F
1627577933320063843,6373,1627577933319894075,gps_frame,$GPGGA,165852.65,4616.76239188,N,11940.88271281,W,4,8,1.1,323.439,M,-17.561,M,0.6,0000*4F
1627577933369002913,6374,1627577933368850946,gps_frame,$GPGGA,165852.70,4616.76236117,N,11940.88267099,W,4,8,1.1,323.425,M,-17.561,M,0.7,0000*42
1627577933420069968,6375,1627577933419923067,gps_frame,$GPGGA,165852.75,4616.76231505,N,11940.88286332,W,4,8,1.1,323.422,M,-17.561,M,0.7,0000*4D
1627577933470120011,6376,1627577933469887971,gps_frame,$GPGGA,165852.80,4616.76220375,N,11940.88275581,W,4,8,1.1,323.443,M,-17.561,M,0.8,0000*4C
1627577933520267065,6377,1627577933520086050,gps_frame,$GPGGA,165852.85,4616.76211632,N,11940.88290138,W,4,8,1.1,323.456,M,-17.561,M,0.8,0000*44
1627577933569044511,6378,1627577933568917989,gps_frame,$GPGGA,165852.90,4616.76210865,N,11940.88272846,W,4,8,1.1,323.425,M,-17.561,M,0.9,0000*44
1627577933620072814,6379,1627577933619859933,gps_frame,$GPGGA,165852.95,4616.76207179,N,11940.88289010,W,4,8,1.1,323.411,M,-17.561,M,0.9,0000*4B
1627577933677040695,6380,1627577933676896095,gps_frame,$GPGGA,165853.00,4616.76199287,N,11940.88281542,W,4,8,1.1,323.412,M,-17.561,M,1.0,0000*41
1627577933720056746,6381,1627577933719846963,gps_frame,$GPGGA,165853.05,4616.76192935,N,11940.88295894,W,4,8,1.1,323.407,M,-17.561,M,1.0,0000*4A
1627577933780112936,6382,1627577933779997110,gps_frame,$GPGGA,165853.10,4616.76181881,N,11940.88287437,W,4,8,1.1,323.483,M,-17.561,M,1.1,0000*49
1627577933819971285,6383,1627577933819796085,gps_frame,$GPGGA,165853.15,4616.76172548,N,11940.88303362,W,4,8,1.1,323.529,M,-17.561,M,1.1,0000*43
1627577933871271035,6384,1627577933871016025,gps_frame,$GPGGA,165853.20,4616.76175603,N,11940.88286386,W,4,8,1.1,323.432,M,-17.561,M,0.2,0000*41
1627577933920036043,6385,1627577933919814109,gps_frame,$GPGGA,165853.25,4616.76174123,N,11940.88305555,W,4,8,1.1,323.387,M,-17.561,M,0.2,0000*4B
1627577933968897671,6386,1627577933968717098,gps_frame,$GPGGA,165853.30,4616.76162478,N,11940.88295737,W,4,8,1.1,323.428,M,-17.561,M,0.3,0000*4E
1627577934020068111,6387,1627577934019857883,gps_frame,$GPGGA,165853.35,4616.76154555,N,11940.88305222,W,4,8,1.1,323.438,M,-17.561,M,0.3,0000*48
1627577934070198059,6388,1627577934070044040,gps_frame,$GPGGA,165853.40,4616.76147134,N,11940.88299331,W,4,8,1.1,323.470,M,-17.561,M,0.4,0000*47
1627577934120129430,6389,1627577934119947910,gps_frame,$GPGGA,165853.45,4616.76139529,N,11940.88317243,W,4,8,1.1,323.494,M,-17.561,M,0.4,0000*4A
1627577934168683271,6390,1627577934168569087,gps_frame,$GPGGA,165853.50,4616.76140512,N,11940.88302098,W,4,8,1.1,323.448,M,-17.561,M,0.5,0000*48
1627577934220017445,6391,1627577934219846963,gps_frame,$GPGGA,165853.55,4616.76138351,N,11940.88320300,W,4,8,1.1,323.427,M,-17.561,M,0.5,0000*48
1627577934270213369,6392,1627577934269999027,gps_frame,$GPGGA,165853.60,4616.76126631,N,11940.88309836,W,4,8,1.1,323.473,M,-17.561,M,0.6,0000*45
1627577934320123868,6393,1627577934319854974,gps_frame,$GPGGA,165853.65,4616.76118410,N,11940.88319036,W,4,8,1.1,323.495,M,-17.561,M,0.6,0000*4D
1627577934369057476,6394,1627577934368870019,gps_frame,$GPGGA,165853.70,4616.76113876,N,11940.88311003,W,4,8,1.1,323.468,M,-17.561,M,0.7,0000*43
1627577934420065428,6395,1627577934419848918,gps_frame,$GPGGA,165853.75,4616.76107993,N,11940.88328499,W,4,8,1.1,323.459,M,-17.561,M,0.7,0000*46
1627577934470130224,6396,1627577934469876050,gps_frame,$GPGGA,165853.80,4616.76104612,N,11940.88316454,W,4,8,1.1,323.460,M,-17.561,M,0.8,0000*40
1627577934520131093,6397,1627577934519929885,gps_frame,$GPGGA,165853.85,4616.76100314,N,11940.88332883,W,4,8,1.1,323.457,M,-17.561,M,0.8,0000*46
1627577934568795810,6398,1627577934568593978,gps_frame,$GPGGA,165853.90,4616.76091525,N,11940.88320576,W,4,8,1.1,323.459,M,-17.561,M,0.9,0000*44
1627577934619922446,6399,1627577934619824886,gps_frame,$GPGGA,165853.95,4616.76084379,N,11940.88331618,W,4,8,1.1,323.460,M,-17.561,M,0.9,0000*4B
1627577934676975376,6400,1627577934676798105,gps_frame,$GPGGA,165854.00,4616.76079438,N,11940.88324043,W,4,8,1.1,323.496,M,-17.561,M,1.0,0000*4D
1627577934720081767,6401,1627577934719865083,gps_frame,$GPGGA,165854.05,4616.76073689,N,11940.88341404,W,4,8,1.1,323.519,M,-17.561,M,1.0,0000*48
1627577934780207647,6402,1627577934780077934,gps_frame,$GPGGA,165854.10,4616.76067922,N,11940.88328660,W,4,8,1.1,323.468,M,-17.561,M,1.1,0000*4E
1627577934820204287,6403,1627577934819960117,gps_frame,$GPGGA,165854.15,4616.76062162,N,11940.88343674,W,4,8,1.1,323.444,M,-17.561,M,1.1,0000*44
1627577934871022992,6404,1627577934870874881,gps_frame,$GPGGA,165854.20,4616.76056030,N,11940.88334075,W,4,8,1.1,323.466,M,-17.561,M,0.2,0000*46
1627577934920015359,6405,1627577934919842004,gps_frame,$GPGGA,165854.25,4616.76050034,N,11940.88349432,W,4,8,1.1,323.472,M,-17.561,M,0.2,0000*49
1627577934968915270,6406,1627577934968776941,gps_frame,$GPGGA,165854.30,4616.76043920,N,11940.88338306,W,4,8,1.1,323.476,M,-17.561,M,0.3,0000*40
1627577935019998349,6407,1627577935019887924,gps_frame,$GPGGA,165854.35,4616.76037849,N,11940.88353342,W,4,8,1.1,323.481,M,-17.561,M,0.3,0000*4D
1627577935070427870,6408,1627577935070033073,gps_frame,$GPGGA,165854.40,4616.76033669,N,11940.88342707,W,4,8,1.1,323.489,M,-17.561,M,0.4,0000*4D
1627577935119992397,6409,1627577935119812965,gps_frame,$GPGGA,165854.45,4616.76028797,N,11940.88358238,W,4,8,1.1,323.497,M,-17.561,M,0.4,0000*4F
1627577935168796355,6410,1627577935168576955,gps_frame,$GPGGA,165854.50,4616.76019750,N,11940.88345146,W,4,8,1.1,323.498,M,-17.561,M,0.5,0000*4A
1627577935220213481,6411,1627577935219969987,gps_frame,$GPGGA,165854.55,4616.76012231,N,11940.88356727,W,4,8,1.1,323.502,M,-17.561,M,0.5,0000*47
1627577935270980113,6412,1627577935270829916,gps_frame,$GPGGA,165854.60,4616.76009645,N,11940.88349822,W,4,8,1.1,323.478,M,-17.561,M,0.6,0000*47
1627577935320016722,6413,1627577935319881916,gps_frame,$GPGGA,165854.65,4616.76005253,N,11940.88368958,W,4,8,1.1,323.465,M,-17.561,M,0.6,0000*4E
1627577935369662040,6414,1627577935369369029,gps_frame,$GPGGA,165854.70,4616.75996446,N,11940.88354034,W,4,8,1.1,323.502,M,-17.561,M,0.7,0000*45
1627577935420121486,6415,1627577935419902086,gps_frame,$GPGGA,165854.75,4616.75989256,N,11940.88365570,W,4,8,1.1,323.520,M,-17.561,M,0.7,0000*4E
1627577935470055566,6416,1627577935469836950,gps_frame,$GPGGA,165854.80,4616.75985895,N,11940.88360623,W,4,8,1.1,323.518,M,-17.561,M,0.8,0000*49
1627577935520192673,6417,1627577935519999027,gps_frame,$GPGGA,165854.85,4616.75981133,N,11940.88379985,W,4,8,1.1,323.523,M,-17.561,M,0.8,0000*4E
1627577935568731380,6418,1627577935568543910,gps_frame,$GPGGA,165854.90,4616.75973258,N,11940.88363367,W,4,8,1.1,323.510,M,-17.561,M,0.9,0000*45
1627577935620131194,6419,1627577935619935989,gps_frame,$GPGGA,165854.95,4616.75966523,N,11940.88374529,W,4,8,1.1,323.504,M,-17.561,M,0.9,0000*40
1627577935677115760,6420,1627577935676930904,gps_frame,$GPGGA,165855.00,4616.75961590,N,11940.88367447,W,4,8,1.1,323.514,M,-17.561,M,1.0,0000*40
1627577935720143297,6421,1627577935719921112,gps_frame,$GPGGA,165855.05,4616.75955997,N,11940.88384541,W,4,8,1.1,323.519,M,-17.561,M,1.0,0000*4E
1627577935780448325,6422,1627577935780318975,gps_frame,$GPGGA,165855.10,4616.75948766,N,11940.88371533,W,4,8,1.1,323.521,M,-17.561,M,1.1,0000*43
1627577935819989733,6423,1627577935819833993,gps_frame,$GPGGA,165855.15,4616.75942134,N,11940.88385701,W,4,8,1.1,323.524,M,-17.561,M,1.1,0000*40
1627577935871055622,6424,1627577935870938062,gps_frame,$GPGGA,165855.20,4616.75937513,N,11940.88377381,W,4,8,1.1,323.531,M,-17.561,M,0.2,0000*42
1627577935920126204,6425,1627577935919915914,gps_frame,$GPGGA,165855.25,4616.75932155,N,11940.88395050,W,4,8,1.1,323.537,M,-17.561,M,0.2,0000*41
1627577935968899178,6426,1627577935968728065,gps_frame,$GPGGA,165855.30,4616.75925985,N,11940.88380862,W,4,8,1.1,323.521,M,-17.561,M,0.3,0000*4D
1627577936019976501,6427,1627577936019814968,gps_frame,$GPGGA,165855.35,4616.75920112,N,11940.88393919,W,4,8,1.1,323.513,M,-17.561,M,0.3,0000*45
1627577936070183461,6428,1627577936070008993,gps_frame,$GPGGA,165855.40,4616.75910888,N,11940.88384927,W,4,8,1.1,323.537,M,-17.561,M,0.4,0000*44
1627577936120201737,6429,1627577936119960069,gps_frame,$GPGGA,165855.45,4616.75902891,N,11940.88399968,W,4,8,1.1,323.549,M,-17.561,M,0.4,0000*44
1627577936168687926,6430,1627577936168556928,gps_frame,$GPGGA,165855.50,4616.75901825,N,11940.88389942,W,4,8,1.1,323.529,M,-17.561,M,0.5,0000*42
1627577936220030883,6431,1627577936219840049,gps_frame,$GPGGA,165855.55,4616.75898221,N,11940.88409996,W,4,8,1.1,323.521,M,-17.561,M,0.5,0000*46
1627577936270217845,6432,1627577936270035028,gps_frame,$GPGGA,165855.60,4616.75886966,N,11940.88392379,W,4,8,1.1,323.547,M,-17.561,M,0.6,0000*4A
1627577936319997758,6433,1627577936319858074,gps_frame,$GPGGA,165855.65,4616.75878511,N,11940.88401102,W,4,8,1.1,323.561,M,-17.561,M,0.6,0000*45
1627577936369126811,6434,1627577936368807077,gps_frame,$GPGGA,165855.70,4616.75876316,N,11940.88398280,W,4,8,1.1,323.564,M,-17.561,M,0.7,0000*44
1627577936419951975,6435,1627577936419842958,gps_frame,$GPGGA,165855.75,4616.75871830,N,11940.88420260,W,4,8,1.1,323.571,M,-17.561,M,0.7,0000*47
1627577936470086433,6436,1627577936469933986,gps_frame,$GPGGA,165855.80,4616.75863441,N,11940.88401747,W,4,8,1.1,323.547,M,-17.561,M,0.8,0000*4D
1627577936520019989,6437,1627577936519839048,gps_frame,$GPGGA,165855.85,4616.75856481,N,11940.88412803,W,4,8,1.1,323.534,M,-17.561,M,0.8,0000*4B
1627577936569203933,6438,1627577936568962097,gps_frame,$GPGGA,165855.90,4616.75848909,N,11940.88407367,W,4,8,1.1,323.570,M,-17.561,M,0.9,0000*41
1627577936620042162,6439,1627577936619847059,gps_frame,$GPGGA,165855.95,4616.75841560,N,11940.88425797,W,4,8,1.1,323.588,M,-17.561,M,0.9,0000*42
1627577936676941426,6440,1627577936676810026,gps_frame,$GPGGA,165856.00,4616.75839815,N,11940.88411876,W,4,8,1.1,323.549,M,-17.561,M,1.0,0000*4F
1627577936719977291,6441,1627577936719819068,gps_frame,$GPGGA,165856.05,4616.75836018,N,11940.88429920,W,4,8,1.1,323.531,M,-17.561,M,1.0,0000*46
1627577936780348411,6442,1627577936780148983,gps_frame,$GPGGA,165856.10,4616.75824495,N,11940.88414557,W,4,8,1.1,323.569,M,-17.561,M,1.1,0000*4E
1627577936820068592,6443,1627577936819833040,gps_frame,$GPGGA,165856.15,4616.75815801,N,11940.88424015,W,4,8,1.1,323.586,M,-17.561,M,1.1,0000*49
1627577936871138502,6444,1627577936870903015,gps_frame,$GPGGA,165856.20,4616.75813135,N,11940.88420402,W,4,8,1.1,323.564,M,-17.561,M,0.2,0000*4F
1627577936919996339,6445,1627577936919814109,gps_frame,$GPGGA,165856.25,4616.75808262,N,11940.88442786,W,4,8,1.1,323.556,M,-17.561,M,0.2,0000*4B
1627577936968902866,6446,1627577936968732118,gps_frame,$GPGGA,165856.30,4616.75799984,N,11940.88419716,W,4,8,1.1,323.558,M,-17.561,M,0.3,0000*43
1627577937020012687,6447,1627577937019834995,gps_frame,$GPGGA,165856.35,4616.75792952,N,11940.88429016,W,4,8,1.1,323.557,M,-17.561,M,0.3,0000*4D
1627577937069960630,6448,1627577937069781064,gps_frame,$GPGGA,165856.40,4616.75785760,N,11940.88425795,W,4,8,1.1,323.582,M,-17.561,M,0.4,0000*49
1627577937119961170,6449,1627577937119779109,gps_frame,$GPGGA,165856.45,4616.75778626,N,11940.88445367,W,4,8,1.1,323.598,M,-17.561,M,0.4,0000*49
1627577937168853289,6450,1627577937168703079,gps_frame,$GPGGA,165856.50,4616.75773676,N,11940.88428394,W,4,8,1.1,323.593,M,-17.561,M,0.5,0000*4E
1627577937219986478,6451,1627577937219834089,gps_frame,$GPGGA,165856.55,4616.75767927,N,11940.88444495,W,4,8,1.1,323.596,M,-17.561,M,0.5,0000*4C
1627577937271197105,6452,1627577937270968914,gps_frame,$GPGGA,165856.60,4616.75760786,N,11940.88430217,W,4,8,1.1,323.598,M,-17.561,M,0.6,0000*4A
1627577937320060395,6453,1627577937319895029,gps_frame,$GPGGA,165856.65,4616.75754155,N,11940.88443791,W,4,8,1.1,323.601,M,-17.561,M,0.6,0000*4C
1627577937368938335,6454,1627577937368796110,gps_frame,$GPGGA,165856.70,4616.75750203,N,11940.88437718,W,4,8,1.1,323.583,M,-17.561,M,0.7,0000*46
1627577937420051502,6455,1627577937419842958,gps_frame,$GPGGA,165856.75,4616.75745269,N,11940.88456686,W,4,8,1.1,323.572,M,-17.561,M,0.7,0000*44
1627577937470064488,6456,1627577937469837903,gps_frame,$GPGGA,165856.80,4616.75732220,N,11940.88437785,W,4,8,1.1,323.612,M,-17.561,M,0.8,0000*4C
1627577937520174526,6457,1627577937519906044,gps_frame,$GPGGA,165856.85,4616.75722142,N,11940.88447402,W,4,8,1.1,323.634,M,-17.561,M,0.8,0000*40
1627577937568856661,6458,1627577937568732976,gps_frame,$GPGGA,165856.90,4616.75722471,N,11940.88442864,W,4,8,1.1,323.595,M,-17.561,M,0.9,0000*41
1627577937620164650,6459,1627577937619934082,gps_frame,$GPGGA,165856.95,4616.75718990,N,11940.88468408,W,4,8,1.1,323.579,M,-17.561,M,0.9,0000*43
1627577937676972207,6460,1627577937676815032,gps_frame,$GPGGA,165857.00,4616.75710549,N,11940.88445932,W,4,8,1.1,323.586,M,-17.561,M,1.0,0000*4D
1627577937720004189,6461,1627577937719861030,gps_frame,$GPGGA,165857.05,4616.75703924,N,11940.88454535,W,4,8,1.1,323.584,M,-17.561,M,1.0,0000*44
1627577937780111455,6462,1627577937779956102,gps_frame,$GPGGA,165857.10,4616.75694499,N,11940.88450525,W,4,8,1.1,323.609,M,-17.561,M,1.1,0000*46
1627577937819977737,6463,1627577937819853067,gps_frame,$GPGGA,165857.15,4616.75686100,N,11940.88467640,W,4,8,1.1,323.623,M,-17.561,M,1.1,0000*49
1627577937871594155,6464,1627577937870917081,gps_frame,$GPGGA,165857.20,4616.75681046,N,11940.88454926,W,4,8,1.1,323.599,M,-17.561,M,0.2,0000*44
1627577937920003512,6465,1627577937919871091,gps_frame,$GPGGA,165857.25,4616.75674768,N,11940.88475355,W,4,8,1.1,323.589,M,-17.561,M,0.2,0000*4C
1627577937969049700,6466,1627577937968830108,gps_frame,$GPGGA,165857.30,4616.75668111,N,11940.88454708,W,4,8,1.1,323.618,M,-17.561,M,0.3,0000*48
1627577938020080219,6467,1627577938019949913,gps_frame,$GPGGA,165857.35,4616.75661593,N,11940.88467726,W,4,8,1.1,323.632,M,-17.561,M,0.3,0000*4E
1627577938070201706,6468,1627577938070077896,gps_frame,$GPGGA,165857.40,4616.75653771,N,11940.88456703,W,4,8,1.1,323.608,M,-17.561,M,0.4,0000*48
1627577938120013152,6469,1627577938119779109,gps_frame,$GPGGA,165857.45,4616.75646426,N,11940.88472390,W,4,8,1.1,323.598,M,-17.561,M,0.4,0000*4A
1627577938168771140,6470,1627577938168567895,gps_frame,$GPGGA,165857.50,4616.75639758,N,11940.88460696,W,4,8,1.1,323.622,M,-17.561,M,0.5,0000*4F
1627577938220183249,6471,1627577938219870090,gps_frame,$GPGGA,165857.55,4616.75632842,N,11940.88478883,W,4,8,1.1,323.633,M,-17.561,M,0.5,0000*46
1627577938270099496,6472,1627577938269944906,gps_frame,$GPGGA,165857.60,4616.75628865,N,11940.88461807,W,4,8,1.1,323.620,M,-17.561,M,0.6,0000*4B
1627577938320062753,6473,1627577938319811105,gps_frame,$GPGGA,165857.65,4616.75623812,N,11940.88477043,W,4,8,1.1,323.615,M,-17.561,M,0.6,0000*4C
1627577938369039211,6474,1627577938368829011,gps_frame,$GPGGA,165857.70,4616.75610718,N,11940.88463349,W,4,8,1.1,323.639,M,-17.561,M,0.7,0000*4E
1627577938420134581,6475,1627577938419883012,gps_frame,$GPGGA,165857.75,4616.75600567,N,11940.88475329,W,4,8,1.1,323.652,M,-17.561,M,0.7,0000*4C
1627577938470048771,6476,1627577938469866037,gps_frame,$GPGGA,165857.80,4616.75599615,N,11940.88464513,W,4,8,1.1,323.628,M,-17.561,M,0.8,0000*4E
1627577938520467249,6477,1627577938520059108,gps_frame,$GPGGA,165857.85,4616.75595296,N,11940.88487169,W,4,8,1.1,323.617,M,-17.561,M,0.8,0000*40
1627577938568984669,6478,1627577938568783044,gps_frame,$GPGGA,165857.90,4616.75587510,N,11940.88467923,W,4,8,1.1,323.619,M,-17.561,M,0.9,0000*49
1627577938620074859,6479,1627577938619864940,gps_frame,$GPGGA,165857.95,4616.75580993,N,11940.88479389,W,4,8,1.1,323.616,M,-17.561,M,0.9,0000*46
1627577938676904875,6480,1627577938676775932,gps_frame,$GPGGA,165858.00,4616.75570109,N,11940.88468552,W,4,8,1.1,323.650,M,-17.561,M,1.0,0000*4B
1627577938720048261,6481,1627577938719894886,gps_frame,$GPGGA,165858.05,4616.75560824,N,11940.88482641,W,4,8,1.1,323.670,M,-17.561,M,1.0,0000*4E
1627577938780275050,6482,1627577938780096054,gps_frame,$GPGGA,165858.10,4616.75560296,N,11940.88473056,W,4,8,1.1,323.652,M,-17.561,M,1.1,0000*46
1627577938819992304,6483,1627577938819828033,gps_frame,$GPGGA,165858.15,4616.75556562,N,11940.88496232,W,4,8,1.1,323.648,M,-17.561,M,1.1,0000*4A
1627577938871133305,6484,1627577938870906114,gps_frame,$GPGGA,165858.20,4616.75545060,N,11940.88476238,W,4,8,1.1,323.620,M,-17.561,M,0.2,0000*41
1627577938920024173,6485,1627577938919869899,gps_frame,$GPGGA,165858.25,4616.75536403,N,11940.88485636,W,4,8,1.1,323.602,M,-17.561,M,0.2,0000*47
1627577938969108860,6486,1627577938968875885,gps_frame,$GPGGA,165858.30,4616.75529279,N,11940.88479201,W,4,8,1.1,323.649,M,-17.561,M,0.3,0000*4B
1627577939020122573,6487,1627577939019896984,gps_frame,$GPGGA,165858.35,4616.75521593,N,11940.88499658,W,4,8,1.1,323.672,M,-17.561,M,0.3,0000*4B
1627577939069997661,6488,1627577939069787025,gps_frame,$GPGGA,165858.40,4616.75516493,N,11940.88478843,W,4,8,1.1,323.653,M,-17.561,M,0.4,0000*43
1627577939120015413,6489,1627577939119827032,gps_frame,$GPGGA,165858.45,4616.75510446,N,11940.88494989,W,4,8,1.1,323.650,M,-17.561,M,0.4,0000*4E
1627577939168735686,6490,1627577939168550014,gps_frame,$GPGGA,165858.50,4616.75502144,N,11940.88480717,W,4,8,1.1,323.662,M,-17.561,M,0.5,0000*42
1627577939219997815,6491,1627577939219822883,gps_frame,$GPGGA,165858.55,4616.75494668,N,11940.88495284,W,4,8,1.1,323.668,M,-17.561,M,0.5,0000*41
1627577939270977731,6492,1627577939270788908,gps_frame,$GPGGA,165858.60,4616.75490857,N,11940.88482154,W,4,8,1.1,323.640,M,-17.561,M,0.6,0000*40
1627577939319990109,6493,1627577939319794893,gps_frame,$GPGGA,165858.65,4616.75485703,N,11940.88499032,W,4,8,1.1,323.624,M,-17.561,M,0.6,0000*46
1627577939368965702,6494,1627577939368788003,gps_frame,$GPGGA,165858.70,4616.75472165,N,11940.88484853,W,4,8,1.1,323.678,M,-17.561,M,0.7,0000*47
1627577939420084200,6495,1627577939419899940,gps_frame,$GPGGA,165858.75,4616.75461696,N,11940.88497672,W,4,8,1.1,323.707,M,-17.561,M,0.7,0000*4D
1627577939469983332,6496,1627577939469846963,gps_frame,$GPGGA,165858.80,4616.75461543,N,11940.88486539,W,4,8,1.1,323.669,M,-17.561,M,0.8,0000*46
1627577939520158303,6497,1627577939519987106,gps_frame,$GPGGA,165858.85,4616.75457613,N,11940.88510056,W,4,8,1.1,323.655,M,-17.561,M,0.8,0000*4D
1627577939569206622,6498,1627577939568924903,gps_frame,$GPGGA,165858.90,4616.75444646,N,11940.88484117,W,4,8,1.1,323.671,M,-17.561,M,0.9,0000*44
1627577939620116705,6499,1627577939619839906,gps_frame,$GPGGA,165858.95,4616.75434987,N,11940.88490991,W,4,8,1.1,323.676,M,-17.561,M,0.9,0000*40
1627577939677011247,6500,1627577939676839113,gps_frame,$GPGGA,165859.00,4616.75433093,N,11940.88491633,W,4,8,1.1,323.647,M,-17.561,M,1.0,0000*4A
1627577939720037217,6501,1627577939719805002,gps_frame,$GPGGA,165859.05,4616.75428356,N,11940.88517953,W,4,8,1.1,323.630,M,-17.561,M,1.0,0000*49
1627577939780129758,6502,1627577939779979944,gps_frame,$GPGGA,165859.10,4616.75415960,N,11940.88490103,W,4,8,1.1,323.664,M,-17.561,M,1.1,0000*4F
1627577939820090192,6503,1627577939819853067,gps_frame,$GPGGA,165859.15,4616.75406368,N,11940.88498080,W,4,8,1.1,323.679,M,-17.561,M,1.1,0000*44
1627577939871019365,6504,1627577939870846986,gps_frame,$GPGGA,165859.20,4616.75401681,N,11940.88495774,W,4,8,1.1,323.667,M,-17.561,M,0.2,0000*4B
1627577939920015431,6505,1627577939919802904,gps_frame,$GPGGA,165859.25,4616.75395198,N,11940.88520956,W,4,8,1.1,323.665,M,-17.561,M,0.2,0000*48
1627577939969001873,6506,1627577939968811988,gps_frame,$GPGGA,165859.30,4616.75388630,N,11940.88494787,W,4,8,1.1,323.633,M,-17.561,M,0.3,0000*4B
1627577940020084675,6507,1627577940019831895,gps_frame,$GPGGA,165859.35,4616.75382094,N,11940.88507187,W,4,8,1.1,323.613,M,-17.561,M,0.3,0000*43
1627577940070168309,6508,1627577940069967985,gps_frame,$GPGGA,165859.40,4616.75372665,N,11940.88494978,W,4,8,1.1,323.684,M,-17.561,M,0.4,0000*4C
1627577940120114125,6509,1627577940119925975,gps_frame,$GPGGA,165859.45,4616.75364296,N,11940.88509848,W,4,8,1.1,323.721,M,-17.561,M,0.4,0000*4F
1627577940169062107,6510,1627577940168818950,gps_frame,$GPGGA,165859.50,4616.75359482,N,11940.88495901,W,4,8,1.1,323.666,M,-17.561,M,0.5,0000*4D
1627577940219960144,6511,1627577940219799995,gps_frame,$GPGGA,165859.55,4616.75353366,N,11940.88514609,W,4,8,1.1,323.644,M,-17.561,M,0.5,0000*40
1627577940270150023,6512,1627577940269958972,gps_frame,$GPGGA,165859.60,4616.75342453,N,11940.88495463,W,4,8,1.1,323.676,M,-17.561,M,0.6,0000*43
1627577940320041579,6513,1627577940319875001,gps_frame,$GPGGA,165859.65,4616.75333296,N,11940.88508429,W,4,8,1.1,323.688,M,-17.561,M,0.6,0000*45
1627577940369057078,6514,1627577940368824005,gps_frame,$GPGGA,165859.70,4616.75330744,N,11940.88501177,W,4,8,1.1,323.649,M,-17.561,M,0.7,0000*43
1627577940419999998,6515,1627577940419894933,gps_frame,$GPGGA,165859.75,4616.75325774,N,11940.88524906,W,4,8,1.1,323.629,M,-17.561,M,0.7,0000*4E
1627577940470085519,6516,1627577940469954967,gps_frame,$GPGGA,165859.80,4616.75315026,N,11940.88502210,W,4,8,1.1,323.644,M,-17.561,M,0.8,0000*4B
1627577940520059686,6517,1627577940519895076,gps_frame,$GPGGA,165859.85,4616.75306393,N,11940.88512722,W,4,8,1.1,323.646,M,-17.561,M,0.8,0000*46
1627577940568916074,6518,1627577940568739891,gps_frame,$GPGGA,165859.90,4616.75297371,N,11940.88504451,W,4,8,1.1,323.669,M,-17.561,M,0.9,0000*4B
1627577940620105241,6519,1627577940619858980,gps_frame,$GPGGA,165859.95,4616.75288491,N,11940.88524821,W,4,8,1.1,323.685,M,-17.561,M,0.9,0000*42
1627577940677284927,6520,1627577940677139043,gps_frame,$GPGGA,165900.00,4616.75284847,N,11940.88506233,W,4,8,1.1,323.661,M,-17.561,M,1.0,0000*43
1627577940720040007,6521,1627577940719872951,gps_frame,$GPGGA,165900.05,4616.75279287,N,11940.88526353,W,4,8,1.1,323.651,M,-17.561,M,1.0,0000*44
1627577940780321298,6522,1627577940780179023,gps_frame,$GPGGA,165900.10,4616.75269381,N,11940.88506847,W,4,8,1.1,323.646,M,-17.561,M,1.1,0000*4D
1627577940820103491,6523,1627577940819905042,gps_frame,$GPGGA,165900.15,4616.75261066,N,11940.88519187,W,4,8,1.1,323.639,M,-17.561,M,1.1,0000*49
1627577940871006457,6524,1627577940870826959,gps_frame,$GPGGA,165900.20,4616.75249305,N,11940.88505598,W,4,8,1.1,323.673,M,-17.561,M,0.2,0000*48
1627577940920146511,6525,1627577940919965028,gps_frame,$GPGGA,165900.25,4616.75238806,N,11940.88522916,W,4,8,1.1,323.692,M,-17.561,M,0.2,0000*43
1627577940968931088,6526,1627577940968759059,gps_frame,$GPGGA,165900.30,4616.75240080,N,11940.88508885,W,4,8,1.1,323.652,M,-17.561,M,0.3,0000*40
1627577941020145451,6527,1627577941019907951,gps_frame,$GPGGA,165900.35,4616.75237044,N,11940.88534129,W,4,8,1.1,323.633,M,-17.561,M,0.3,0000*4A
1627577941069898197,6528,1627577941069741964,gps_frame,$GPGGA,165900.40,4616.75222221,N,11940.88508548,W,4,8,1.1,323.674,M,-17.561,M,0.4,0000*45
1627577941120206692,6529,1627577941119990110,gps_frame,$GPGGA,165900.45,4616.75211712,N,11940.88514347,W,4,8,1.1,323.694,M,-17.561,M,0.4,0000*4F
1627577941168998907,6530,1627577941168848991,gps_frame,$GPGGA,165900.50,4616.75206033,N,11940.88511051,W,4,8,1.1,323.672,M,-17.561,M,0.5,0000*41
1627577941220007752,6531,1627577941219835042,gps_frame,$GPGGA,165900.55,4616.75198585,N,11940.88535813,W,4,8,1.1,323.665,M,-17.561,M,0.5,0000*46
1627577941271119708,6532,1627577941270845890,gps_frame,$GPGGA,165900.60,4616.75194899,N,11940.88512063,W,4,8,1.1,323.649,M,-17.561,M,0.6,0000*4B
1627577941320015404,6533,1627577941319797992,gps_frame,$GPGGA,165900.65,4616.75189835,N,11940.88528487,W,4,8,1.1,323.636,M,-17.561,M,0.6,0000*4B
1627577941369659429,6534,1627577941369374036,gps_frame,$GPGGA,165900.70,4616.75176450,N,11940.88511668,W,4,8,1.1,323.674,M,-17.561,M,0.7,0000*4E
1627577941419961943,6535,1627577941419790029,gps_frame,$GPGGA,165900.75,4616.75166110,N,11940.88522435,W,4,8,1.1,323.693,M,-17.561,M,0.7,0000*48
1627577941469981340,6536,1627577941469774961,gps_frame,$GPGGA,165900.80,4616.75162541,N,11940.88514861,W,4,8,1.1,323.666,M,-17.561,M,0.8,0000*4B
1627577941520004746,6537,1627577941519835948,gps_frame,$GPGGA,165900.85,4616.75156493,N,11940.88539547,W,4,8,1.1,323.657,M,-17.561,M,0.8,0000*43
1627577941568889951,6538,1627577941568666934,gps_frame,$GPGGA,165900.90,4616.75149222,N,11940.88517272,W,4,8,1.1,323.656,M,-17.561,M,0.9,0000*48
1627577941620086266,6539,1627577941619921922,gps_frame,$GPGGA,165900.95,4616.75142399,N,11940.88531447,W,4,8,1.1,323.652,M,-17.561,M,0.9,0000*47
1627577941677037636,6540,1627577941676841020,gps_frame,$GPGGA,165901.00,4616.75133467,N,11940.88517457,W,4,8,1.1,323.665,M,-17.561,M,1.0,0000*43
1627577941720018707,6541,1627577941719821929,gps_frame,$GPGGA,165901.05,4616.75125308,N,11940.88532220,W,4,8,1.1,323.671,M,-17.561,M,1.0,0000*4B
1627577941780083994,6542,1627577941779961109,gps_frame,$GPGGA,165901.10,4616.75116499,N,11940.88520217,W,4,8,1.1,323.678,M,-17.561,M,1.1,0000*4F
1627577941819955103,6543,1627577941819796085,gps_frame,$GPGGA,165901.15,4616.75107928,N,11940.88539827,W,4,8,1.1,323.685,M,-17.561,M,1.1,0000*4E
1627577941871175048,6544,1627577941870991945,gps_frame,$GPGGA,165901.20,4616.75104709,N,11940.88519752,W,4,8,1.1,323.660,M,-17.561,M,0.2,0000*40
1627577941919953465,6545,1627577941919836997,gps_frame,$GPGGA,165901.25,4616.75099531,N,11940.88537700,W,4,8,1.1,323.647,M,-17.561,M,0.2,0000*47
1627577941969066935,6546,1627577941968816041,gps_frame,$GPGGA,165901.30,4616.75086603,N,11940.88522135,W,4,8,1.1,323.662,M,-17.561,M,0.3,0000*4D
1627577942020078354,6547,1627577942019922018,gps_frame,$GPGGA,165901.35,4616.75076512,N,11940.88535163,W,4,8,1.1,323.667,M,-17.561,M,0.3,0000*44
1627577942070209119,6548,1627577942070043087,gps_frame,$GPGGA,165901.40,4616.75074724,N,11940.88523981,W,4,8,1.1,323.674,M,-17.561,M,0.4,0000*45
1627577942120087334,6549,1627577942119893074,gps_frame,$GPGGA,165901.45,4616.75069896,N,11940.88546733,W,4,8,1.1,323.680,M,-17.561,M,0.4,0000*45
1627577942168998773,6550,1627577942168689012,gps_frame,$GPGGA,165901.50,4616.75058929,N,11940.88526070,W,4,8,1.1,323.676,M,-17.561,M,0.5,0000*48
1627577942220031704,6551,1627577942219834089,gps_frame,$GPGGA,165901.55,4616.75050209,N,11940.88537748,W,4,8,1.1,323.675,M,-17.561,M,0.5,0000*43
1627577942270325763,6552,1627577942270090103,gps_frame,$GPGGA,165901.60,4616.75044690,N,11940.88527171,W,4,8,1.1,323.674,M,-17.561,M,0.6,0000*4B
1627577942320061636,6553,1627577942319823026,gps_frame,$GPGGA,165901.65,4616.75037999,N,11940.88546612,W,4,8,1.1,323.672,M,-17.561,M,0.6,0000*4F
1627577942368930056,6554,1627577942368786096,gps_frame,$GPGGA,165901.70,4616.75030195,N,11940.88529414,W,4,8,1.1,323.663,M,-17.561,M,0.7,0000*44
1627577942419990490,6555,1627577942419842004,gps_frame,$GPGGA,165901.75,4616.75022798,N,11940.88545345,W,4,8,1.1,323.656,M,-17.561,M,0.7,0000*46
1627577942469879719,6556,1627577942469742059,gps_frame,$GPGGA,165901.80,4616.75013104,N,11940.88531915,W,4,8,1.1,323.680,M,-17.561,M,0.8,0000*45
1627577942520024529,6557,1627577942519840955,gps_frame,$GPGGA,165901.85,4616.75004251,N,11940.88549305,W,4,8,1.1,323.693,M,-17.561,M,0.8,0000*43
1627577942568801228,6558,1627577942568608999,gps_frame,$GPGGA,165901.90,4616.75001131,N,11940.88532774,W,4,8,1.1,323.663,M,-17.561,M,0.9,0000*47
1627577942619967401,6559,1627577942619811058,gps_frame,$GPGGA,165901.95,4616.74995912,N,11940.88552326,W,4,8,1.1,323.649,M,-17.561,M,0.9,0000*43
1627577942677040448,6560,1627577942676862001,gps_frame,$GPGGA,165902.00,4616.74985169,N,11940.88536519,W,4,8,1.1,323.684,M,-17.561,M,1.0,0000*48
1627577942719880029,6561,1627577942719759941,gps_frame,$GPGGA,165902.05,4616.74976448,N,11940.88550235,W,4,8,1.1,323.701,M,-17.561,M,1.0,0000*42
1627577942780361548,6562,1627577942780236959,gps_frame,$GPGGA,165902.10,4616.74971313,N,11940.88536880,W,4,8,1.1,323.661,M,-17.561,M,1.1,0000*4A
1627577942819992614,6563,1627577942819844007,gps_frame,$GPGGA,165902.15,4616.74964865,N,11940.88555537,W,4,8,1.1,323.641,M,-17.561,M,1.1,0000*47
1627577942871061912,6564,1627577942870913982,gps_frame,$GPGGA,165902.20,4616.74953930,N,11940.88541464,W,4,8,1.1,323.687,M,-17.561,M,0.2,0000*4E
1627577942919972884,6565,1627577942919831991,gps_frame,$GPGGA,165902.25,4616.74944637,N,11940.88558558,W,4,8,1.1,323.710,M,-17.561,M,0.2,0000*4C
1627577942968860494,6566,1627577942968710899,gps_frame,$GPGGA,165902.30,4616.74940797,N,11940.88536854,W,4,8,1.1,323.680,M,-17.561,M,0.3,0000*47
1627577943020020068,6567,1627577943019866943,gps_frame,$GPGGA,165902.35,4616.74934961,N,11940.88553422,W,4,8,1.1,323.670,M,-17.561,M,0.3,0000*47
1627577943069884841,6568,1627577943069747924,gps_frame,$GPGGA,165902.40,4616.74926894,N,11940.88541691,W,4,8,1.1,323.684,M,-17.561,M,0.4,0000*48
1627577943120042175,6569,1627577943119827985,gps_frame,$GPGGA,165902.45,4616.74919644,N,11940.88558504,W,4,8,1.1,323.690,M,-17.561,M,0.4,0000*40
1627577943169187579,6570,1627577943168941974,gps_frame,$GPGGA,165902.50,4616.74912028,N,11940.88544314,W,4,8,1.1,323.662,M,-17.561,M,0.5,0000*45
1627577943220070994,6571,1627577943219825983,gps_frame,$GPGGA,165902.55,4616.74904546,N,11940.88560724,W,4,8,1.1,323.646,M,-17.561,M,0.5,0000*4D
1627577943271000961,6572,1627577943270754098,gps_frame,$GPGGA,165902.60,4616.74897628,N,11940.88544296,W,4,8,1.1,323.683,M,-17.561,M,0.6,0000*4B
1627577943320053076,6573,1627577943319799900,gps_frame,$GPGGA,165902.65,4616.74890504,N,11940.88560474,W,4,8,1.1,323.701,M,-17.561,M,0.6,0000*43
1627577943369186864,6574,1627577943368966102,gps_frame,$GPGGA,165902.70,4616.74882674,N,11940.88547481,W,4,8,1.1,323.696,M,-17.561,M,0.7,0000*41
1627577943420103898,6575,1627577943419893026,gps_frame,$GPGGA,165902.75,4616.74875103,N,11940.88565106,W,4,8,1.1,323.700,M,-17.561,M,0.7,0000*4F
1627577943470157586,6576,1627577943469860076,gps_frame,$GPGGA,165902.80,4616.74870129,N,11940.88545556,W,4,8,1.1,323.683,M,-17.561,M,0.8,0000*4E
1627577943520115844,6577,1627577943519845962,gps_frame,$GPGGA,165902.85,4616.74864204,N,11940.88560321,W,4,8,1.1,323.673,M,-17.561,M,0.8,0000*4C
1627577943568828240,6578,1627577943568708896,gps_frame,$GPGGA,165902.90,4616.74855440,N,11940.88547504,W,4,8,1.1,323.677,M,-17.561,M,0.9,0000*4D
1627577943620034919,6579,1627577943619797945,gps_frame,$GPGGA,165902.95,4616.74847716,N,11940.88562155,W,4,8,1.1,323.675,M,-17.561,M,0.9,0000*4E
1627577943677051306,6580,1627577943676901102,gps_frame,$GPGGA,165903.00,4616.74840165,N,11940.88548060,W,4,8,1.1,323.695,M,-17.561,M,1.0,0000*4F
1627577943720263545,6581,1627577943719978094,gps_frame,$GPGGA,165903.05,4616.74832551,N,11940.88564827,W,4,8,1.1,323.707,M,-17.561,M,1.0,0000*43
1627577943780301015,6582,1627577943780164003,gps_frame,$GPGGA,165903.10,4616.74827574,N,11940.88549358,W,4,8,1.1,323.699,M,-17.561,M,1.1,0000*4F
1627577943819950606,6583,1627577943819792032,gps_frame,$GPGGA,165903.15,4616.74821632,N,11940.88566840,W,4,8,1.1,323.699,M,-17.561,M,1.1,0000*42
1627577943871063530,6584,1627577943870949029,gps_frame,$GPGGA,165903.20,4616.74811171,N,11940.88552454,W,4,8,1.1,323.671,M,-17.561,M,0.2,0000*4D
1627577943919930021,6585,1627577943919778108,gps_frame,$GPGGA,165903.25,4616.74802365,N,11940.88567168,W,4,8,1.1,323.654,M,-17.561,M,0.2,0000*46
1627577943968916885,6586,1627577943968780040,gps_frame,$GPGGA,165903.30,4616.74796529,N,11940.88547234,W,4,8,1.1,323.714,M,-17.561,M,0.3,0000*42
1627577944020094683,6587,1627577944019797086,gps_frame,$GPGGA,165903.35,4616.74789606,N,11940.88562697,W,4,8,1.1,323.745,M,-17.561,M,0.3,0000*49
1627577944070186261,6588,1627577944069987058,gps_frame,$GPGGA,165903.40,4616.74785506,N,11940.88550884,W,4,8,1.1,323.689,M,-17.561,M,0.4,0000*4F
1627577944119998578,6589,1627577944119803905,gps_frame,$GPGGA,165903.45,4616.74780372,N,11940.88569330,W,4,8,1.1,323.665,M,-17.561,M,0.4,0000*46
1627577944168781895,6590,1627577944168581962,gps_frame,$GPGGA,165903.50,4616.74769861,N,11940.88549634,W,4,8,1.1,323.714,M,-17.561,M,0.5,0000*49
1627577944219951648,6591,1627577944219808101,gps_frame,$GPGGA,165903.55,4616.74761319,N,11940.88559164,W,4,8,1.1,323.736,M,-17.561,M,0.5,0000*43
1627577944270166791,6592,1627577944269973993,gps_frame,$GPGGA,165903.60,4616.74754210,N,11940.88549165,W,4,8,1.1,323.729,M,-17.561,M,0.6,0000*46
1627577944320019970,6593,1627577944319827079,gps_frame,$GPGGA,165903.65,4616.74746577,N,11940.88567977,W,4,8,1.1,323.733,M,-17.561,M,0.6,0000*4A
1627577944369033740,6594,1627577944368830919,gps_frame,$GPGGA,165903.70,4616.74742739,N,11940.88549817,W,4,8,1.1,323.722,M,-17.561,M,0.7,0000*48
1627577944420044947,6595,1627577944419822931,gps_frame,$GPGGA,165903.75,4616.74737512,N,11940.88566864,W,4,8,1.1,323.717,M,-17.561,M,0.7,0000*4B
1627577944469932568,6596,1627577944469814062,gps_frame,$GPGGA,165903.80,4616.74728267,N,11940.88551123,W,4,8,1.1,323.729,M,-17.561,M,0.8,0000*46
1627577944520123914,6597,1627577944519872903,gps_frame,$GPGGA,165903.85,4616.74720493,N,11940.88563269,W,4,8,1.1,323.734,M,-17.561,M,0.8,0000*46
1627577944569126408,6598,1627577944568829059,gps_frame,$GPGGA,165903.90,4616.74714380,N,11940.88552788,W,4,8,1.1,323.728,M,-17.561,M,0.9,0000*44
1627577944620057675,6599,1627577944619864940,gps_frame,$GPGGA,165903.95,4616.74707659,N,11940.88570628,W,4,8,1.1,323.726,M,-17.561,M,0.9,0000*47
1627577944677057268,6600,1627577944676863908,gps_frame,$GPGGA,165904.00,4616.74700450,N,11940.88553570,W,4,8,1.1,323.729,M,-17.561,M,1.0,0000*48
1627577944719986627,6601,1627577944719805002,gps_frame,$GPGGA,165904.05,4616.74693419,N,11940.88568517,W,4,8,1.1,323.730,M,-17.561,M,1.0,0000*4A
1627577944780250065,6602,1627577944780066013,gps_frame,$GPGGA,165904.10,4616.74687309,N,11940.88553712,W,4,8,1.1,323.727,M,-17.561,M,1.1,0000*45
1627577944820156604,6603,1627577944819866895,gps_frame,$GPGGA,165904.15,4616.74680862,N,11940.88569086,W,4,8,1.1,323.725,M,-17.561,M,1.1,0000*40
1627577944871071382,6604,1627577944870867013,gps_frame,$GPGGA,165904.20,4616.74671642,N,11940.88555437,W,4,8,1.1,323.756,M,-17.561,M,0.2,0000*43
1627577944920036023,6605,1627577944919872999,gps_frame,$GPGGA,165904.25,4616.74663437,N,11940.88570608,W,4,8,1.1,323.776,M,-17.561,M,0.2,0000*4E
1627577944968942302,6606,1627577944968713045,gps_frame,$GPGGA,165904.30,4616.74660936,N,11940.88556944,W,4,8,1.1,323.731,M,-17.561,M,0.3,0000*44
1627577945019983859,6607,1627577945019815921,gps_frame,$GPGGA,165904.35,4616.74656347,N,11940.88575529,W,4,8,1.1,323.709,M,-17.561,M,0.3,0000*45
1627577945069890665,6608,1627577945069745063,gps_frame,$GPGGA,165904.40,4616.74643753,N,11940.88555384,W,4,8,1.1,323.748,M,-17.561,M,0.4,0000*43
1627577945119935720,6609,1627577945119786977,gps_frame,$GPGGA,165904.45,4616.74634090,N,11940.88564241,W,4,8,1.1,323.764,M,-17.561,M,0.4,0000*4A
1627577945168949016,6610,1627577945168740987,gps_frame,$GPGGA,165904.50,4616.74632315,N,11940.88559278,W,4,8,1.1,323.736,M,-17.561,M,0.5,0000*44
1627577945219912515,6611,1627577945219773054,gps_frame,$GPGGA,165904.55,4616.74627652,N,11940.88583167,W,4,8,1.1,323.724,M,-17.561,M,0.5,0000*4A
1627577945270996591,6612,1627577945270793914,gps_frame,$GPGGA,165904.60,4616.74617513,N,11940.88557446,W,4,8,1.1,323.740,M,-17.561,M,0.6,0000*47
1627577945320143412,6613,1627577945319917917,gps_frame,$GPGGA,165904.65,4616.74609378,N,11940.88565724,W,4,8,1.1,323.746,M,-17.561,M,0.6,0000*46
1627577945368994419,6614,1627577945368827104,gps_frame,$GPGGA,165904.70,4616.74603108,N,11940.88560032,W,4,8,1.1,323.746,M,-17.561,M,0.7,0000*49
1627577945419965695,6615,1627577945419852018,gps_frame,$GPGGA,165904.75,4616.74596155,N,11940.88579949,W,4,8,1.1,323.748,M,-17.561,M,0.7,0000*48
1627577945470004914,6616,1627577945469860076,gps_frame,$GPGGA,165904.80,4616.74589303,N,11940.88558693,W,4,8,1.1,323.759,M,-17.561,M,0.8,0000*49
1627577945520085218,6617,1627577945519922971,gps_frame,$GPGGA,165904.85,4616.74582414,N,11940.88572455,W,4,8,1.1,323.767,M,-17.561,M,0.8,0000*4B
1627577945568867485,6618,1627577945568689107,gps_frame,$GPGGA,165904.90,4616.74575638,N,11940.88560152,W,4,8,1.1,323.753,M,-17.561,M,0.9,0000*4C
1627577945620044227,6619,1627577945619884014,gps_frame,$GPGGA,165904.95,4616.74568820,N,11940.88576505,W,4,8,1.1,323.746,M,-17.561,M,0.9,0000*47
1627577945677196278,6620,1627577945676980018,gps_frame,$GPGGA,165905.00,4616.74561626,N,11940.88560726,W,4,8,1.1,323.746,M,-17.561,M,1.0,0000*47
1627577945720091493,6621,1627577945719912052,gps_frame,$GPGGA,165905.05,4616.74554569,N,11940.88575631,W,4,8,1.1,323.744,M,-17.561,M,1.0,0000*4D
1627577945780157683,6622,1627577945780021905,gps_frame,$GPGGA,165905.10,4616.74544975,N,11940.88560947,W,4,8,1.1,323.771,M,-17.561,M,1.1,0000*44
1627577945819924162,6623,1627577945819788932,gps_frame,$GPGGA,165905.15,4616.74536310,N,11940.88576496,W,4,8,1.1,323.787,M,-17.561,M,1.1,0000*42
1627577945871012893,6624,1627577945870840072,gps_frame,$GPGGA,165905.20,4616.74534060,N,11940.88562170,W,4,8,1.1,323.750,M,-17.561,M,0.2,0000*42
1627577945919953895,6625,1627577945919775962,gps_frame,$GPGGA,165905.25,4616.74529461,N,11940.88581835,W,4,8,1.1,323.732,M,-17.561,M,0.2,0000*4F
1627577945969263557,6626,1627577945968952894,gps_frame,$GPGGA,165905.30,4616.74516132,N,11940.88561771,W,4,8,1.1,323.762,M,-17.561,M,0.3,0000*41
1627577946020120800,6627,1627577946019881963,gps_frame,$GPGGA,165905.35,4616.74505998,N,11940.88571365,W,4,8,1.1,323.774,M,-17.561,M,0.3,0000*49
1627577946070311152,6628,1627577946070048093,gps_frame,$GPGGA,165905.40,4616.74505761,N,11940.88564147,W,4,8,1.1,323.750,M,-17.561,M,0.4,0000*44
1627577946120112914,6629,1627577946119880914,gps_frame,$GPGGA,165905.45,4616.74501901,N,11940.88587907,W,4,8,1.1,323.740,M,-17.561,M,0.4,0000*4D
1627577946169069257,6630,1627577946168788909,gps_frame,$GPGGA,165905.50,4616.74489011,N,11940.88563172,W,4,8,1.1,323.767,M,-17.561,M,0.5,0000*44
1627577946219977346,6631,1627577946219783067,gps_frame,$GPGGA,165905.55,4616.74479427,N,11940.88570549,W,4,8,1.1,323.781,M,-17.561,M,0.5,0000*49
1627577946270169102,6632,1627577946269989967,gps_frame,$GPGGA,165905.60,4616.74474732,N,11940.88566000,W,4,8,1.1,323.758,M,-17.561,M,0.6,0000*4D
1627577946320177940,6633,1627577946319927930,gps_frame,$GPGGA,165905.65,4616.74468247,N,11940.88589011,W,4,8,1.1,323.749,M,-17.561,M,0.6,0000*43
1627577946369241724,6634,1627577946369034051,gps_frame,$GPGGA,165905.70,4616.74461070,N,11940.88564538,W,4,8,1.1,323.763,M,-17.561,M,0.7,0000*4C
1627577946420076158,6635,1627577946419812917,gps_frame,$GPGGA,165905.75,4616.74454146,N,11940.88577219,W,4,8,1.1,323.768,M,-17.561,M,0.7,0000*46
1627577946469962624,6636,1627577946469822883,gps_frame,$GPGGA,165905.80,4616.74446515,N,11940.88566296,W,4,8,1.1,323.770,M,-17.561,M,0.8,0000*4C
1627577946520071014,6637,1627577946519861936,gps_frame,$GPGGA,165905.85,4616.74439143,N,11940.88582931,W,4,8,1.1,323.773,M,-17.561,M,0.8,0000*49
1627577946569230464,6638,1627577946569094896,gps_frame,$GPGGA,165905.90,4616.74431539,N,11940.88566530,W,4,8,1.1,323.784,M,-17.561,M,0.9,0000*42
1627577946619950455,6639,1627577946619792938,gps_frame,$GPGGA,165905.95,4616.74424020,N,11940.88582375,W,4,8,1.1,323.793,M,-17.561,M,0.9,0000*45
1627577946676964891,6640,1627577946676794052,gps_frame,$GPGGA,165906.00,4616.74418531,N,11940.88568062,W,4,8,1.1,323.758,M,-17.561,M,1.0,0000*4E
1627577946720127132,6641,1627577946719876050,gps_frame,$GPGGA,165906.05,4616.74412299,N,11940.88585526,W,4,8,1.1,323.739,M,-17.561,M,1.0,0000*45
1627577946780372616,6642,1627577946780133008,gps_frame,$GPGGA,165906.10,4616.74401921,N,11940.88568969,W,4,8,1.1,323.774,M,-17.561,M,1.1,0000*47
1627577946820095416,6643,1627577946819905996,gps_frame,$GPGGA,165906.15,4616.74393061,N,11940.88582878,W,4,8,1.1,323.789,M,-17.561,M,1.1,0000*44
1627577946871603698,6644,1627577946871355056,gps_frame,$GPGGA,165906.20,4616.74387662,N,11940.88570237,W,4,8,1.1,323.787,M,-17.561,M,0.2,0000*42
1627577946920145513,6645,1627577946919929027,gps_frame,$GPGGA,165906.25,4616.74380996,N,11940.88590314,W,4,8,1.1,323.792,M,-17.561,M,0.2,0000*4E
1627577946969642403,6646,1627577946969398975,gps_frame,$GPGGA,165906.30,4616.74375044,N,11940.88570869,W,4,8,1.1,323.749,M,-17.561,M,0.3,0000*4E
1627577947020115405,6647,1627577947019908905,gps_frame,$GPGGA,165906.35,4616.74368830,N,11940.88585636,W,4,8,1.1,323.724,M,-17.561,M,0.3,0000*49
1627577947070143623,6648,1627577947069987058,gps_frame,$GPGGA,165906.40,4616.74356597,N,11940.88571094,W,4,8,1.1,323.783,M,-17.561,M,0.4,0000*49
1627577947119924640,6649,1627577947119823932,gps_frame,$GPGGA,165906.45,4616.74346567,N,11940.88584754,W,4,8,1.1,323.811,M,-17.561,M,0.4,0000*47
1627577947168753838,6650,1627577947168559074,gps_frame,$GPGGA,165906.50,4616.74344502,N,11940.88570985,W,4,8,1.1,323.778,M,-17.561,M,0.5,0000*4A
1627577947220031654,6651,1627577947219800949,gps_frame,$GPGGA,165906.55,4616.74339521,N,11940.88592800,W,4,8,1.1,323.768,M,-17.561,M,0.5,0000*45
1627577947271364780,6652,1627577947271122932,gps_frame,$GPGGA,165906.60,4616.74328110,N,11940.88572974,W,4,8,1.1,323.788,M,-17.561,M,0.6,0000*44
1627577947320086750,6653,1627577947319880008,gps_frame,$GPGGA,165906.65,4616.74319052,N,11940.88585139,W,4,8,1.1,323.797,M,-17.561,M,0.6,0000*43
1627577947369842729,6654,1627577947369568109,gps_frame,$GPGGA,165906.70,4616.74312363,N,11940.88570591,W,4,8,1.1,323.806,M,-17.561,M,0.7,0000*47
1627577947420071671,6655,1627577947419883012,gps_frame,$GPGGA,165906.75,4616.74304807,N,11940.88588520,W,4,8,1.1,323.815,M,-17.561,M,0.7,0000*43
1627577947470059182,6656,1627577947469860076,gps_frame,$GPGGA,165906.80,4616.74299743,N,11940.88575248,W,4,8,1.1,323.774,M,-17.561,M,0.8,0000*4F
1627577947520028223,6657,1627577947519793033,gps_frame,$GPGGA,165906.85,4616.74293767,N,11940.88595201,W,4,8,1.1,323.751,M,-17.561,M,0.8,0000*42
1627577947568922879,6658,1627577947568739891,gps_frame,$GPGGA,165906.90,4616.74282459,N,11940.88573217,W,4,8,1.1,323.795,M,-17.561,M,0.9,0000*4E
1627577947620130433,6659,1627577947619929075,gps_frame,$GPGGA,165906.95,4616.74273103,N,11940.88584059,W,4,8,1.1,323.814,M,-17.561,M,0.9,0000*49
1627577947676995536,6660,1627577947676820039,gps_frame,$GPGGA,165907.00,4616.74268000,N,11940.88576202,W,4,8,1.1,323.795,M,-17.561,M,1.0,0000*43
1627577947720246461,6661,1627577947720014095,gps_frame,$GPGGA,165907.05,4616.74261340,N,11940.88599122,W,4,8,1.1,323.790,M,-17.561,M,1.0,0000*4D
1627577947780117124,6662,1627577947779987096,gps_frame,$GPGGA,165907.10,4616.74254064,N,11940.88574580,W,4,8,1.1,323.792,M,-17.561,M,1.1,0000*46
1627577947819988024,6663,1627577947819793939,gps_frame,$GPGGA,165907.15,4616.74247013,N,11940.88587434,W,4,8,1.1,323.791,M,-17.561,M,1.1,0000*40
1627577947870985444,6664,1627577947870836019,gps_frame,$GPGGA,165907.20,4616.74236632,N,11940.88574881,W,4,8,1.1,323.801,M,-17.561,M,0.2,0000*4F
1627577947920123753,6665,1627577947920008897,gps_frame,$GPGGA,165907.25,4616.74227470,N,11940.88590926,W,4,8,1.1,323.807,M,-17.561,M,0.2,0000*4E
1627577947969469595,6666,1627577947969196081,gps_frame,$GPGGA,165907.30,4616.74224523,N,11940.88580054,W,4,8,1.1,323.774,M,-17.561,M,0.3,0000*49
1627577948020170524,6667,1627577948019967079,gps_frame,$GPGGA,165907.35,4616.74219301,N,11940.88603173,W,4,8,1.1,323.755,M,-17.561,M,0.3,0000*4B
1627577948070706199,6668,1627577948069983959,gps_frame,$GPGGA,165907.40,4616.74207660,N,11940.88577167,W,4,8,1.1,323.788,M,-17.561,M,0.4,0000*46
1627577948120116998,6669,1627577948119905948,gps_frame,$GPGGA,165907.45,4616.74198368,N,11940.88585910,W,4,8,1.1,323.802,M,-17.561,M,0.4,0000*43
1627577948169158643,6670,1627577948168807029,gps_frame,$GPGGA,165907.50,4616.74190826,N,11940.88581387,W,4,8,1.1,323.807,M,-17.561,M,0.5,0000*4A
1627577948220044755,6671,1627577948219796895,gps_frame,$GPGGA,165907.55,4616.74182644,N,11940.88605070,W,4,8,1.1,323.815,M,-17.561,M,0.5,0000*41
1627577948270249528,6672,1627577948270004034,gps_frame,$GPGGA,165907.60,4616.74180792,N,11940.88581169,W,4,8,1.1,323.756,M,-17.561,M,0.6,0000*42
1627577948320087339,6673,1627577948319881916,gps_frame,$GPGGA,165907.65,4616.74176623,N,11940.88597996,W,4,8,1.1,323.722,M,-17.561,M,0.6,0000*49
1627577948369142511,6674,1627577948368834018,gps_frame,$GPGGA,165907.70,4616.74161767,N,11940.88580571,W,4,8,1.1,323.799,M,-17.561,M,0.7,0000*48
1627577948420021877,6675,1627577948419872999,gps_frame,$GPGGA,165907.75,4616.74150824,N,11940.88589578,W,4,8,1.1,323.834,M,-17.561,M,0.7,0000*4F
1627577948470039981,6676,1627577948469826936,gps_frame,$GPGGA,165907.80,4616.74146660,N,11940.88583164,W,4,8,1.1,323.815,M,-17.561,M,0.8,0000*43
1627577948520180376,6677,1627577948519910097,gps_frame,$GPGGA,165907.85,4616.74140014,N,11940.88608739,W,4,8,1.1,323.815,M,-17.561,M,0.8,0000*4B
1627577948569054787,6678,1627577948568787097,gps_frame,$GPGGA,165907.90,4616.74134656,N,11940.88581601,W,4,8,1.1,323.786,M,-17.561,M,0.9,0000*40
1627577948620300481,6679,1627577948620069980,gps_frame,$GPGGA,165907.95,4616.74128827,N,11940.88594678,W,4,8,1.1,323.768,M,-17.561,M,0.9,0000*4A
1627577948676953225,6680,1627577948676768064,gps_frame,$GPGGA,165908.00,4616.74118328,N,11940.88586291,W,4,8,1.1,323.784,M,-17.561,M,1.0,0000*44
1627577948720186905,6681,1627577948719903945,gps_frame,$GPGGA,165908.05,4616.74109538,N,11940.88602383,W,4,8,1.1,323.788,M,-17.561,M,1.0,0000*47
1627577948780313491,6682,1627577948780085086,gps_frame,$GPGGA,165908.10,4616.74099628,N,11940.88585180,W,4,8,1.1,323.814,M,-17.561,M,1.1,0000*4F
1627577948819972068,6683,1627577948819804906,gps_frame,$GPGGA,165908.15,4616.74090128,N,11940.88602774,W,4,8,1.1,323.832,M,-17.561,M,1.1,0000*41
1627577948871096415,6684,1627577948870929002,gps_frame,$GPGGA,165908.20,4616.74089228,N,11940.88587923,W,4,8,1.1,323.783,M,-17.561,M,0.2,0000*49
1627577948920107418,6685,1627577948919883012,gps_frame,$GPGGA,165908.25,4616.74085179,N,11940.88610842,W,4,8,1.1,323.759,M,-17.561,M,0.2,0000*4B
1627577948969161889,6686,1627577948968852043,gps_frame,$GPGGA,165908.30,4616.74073216,N,11940.88587377,W,4,8,1.1,323.789,M,-17.561,M,0.3,0000*40
1627577949020030243,6687,1627577949019828081,gps_frame,$GPGGA,165908.35,4616.74064150,N,11940.88595292,W,4,8,1.1,323.800,M,-17.561,M,0.3,0000*45
1627577949070012196,6688,1627577949069823026,gps_frame,$GPGGA,165908.40,4616.74055458,N,11940.88586704,W,4,8,1.1,323.813,M,-17.561,M,0.4,0000*45
1627577949120049350,6689,1627577949119863033,gps_frame,$GPGGA,165908.45,4616.74046629,N,11940.88606328,W,4,8,1.1,323.825,M,-17.561,M,0.4,0000*42
1627577949168785441,6690,1627577949168616056,gps_frame,$GPGGA,165908.50,4616.74044217,N,11940.88588032,W,4,8,1.1,323.805,M,-17.561,M,0.5,0000*43
1627577949220029615,6691,1627577949219837903,gps_frame,$GPGGA,165908.55,4616.74039455,N,11940.88608207,W,4,8,1.1,323.797,M,-17.561,M,0.5,0000*47
1627577949270980442,6692,1627577949270806074,gps_frame,$GPGGA,165908.60,4616.74027334,N,11940.88587805,W,4,8,1.1,323.816,M,-17.561,M,0.6,0000*47
1627577949320136211,6693,1627577949319895029,gps_frame,$GPGGA,165908.65,4616.74017907,N,11940.88597821,W,4,8,1.1,323.825,M,-17.561,M,0.6,0000*4C
1627577949369032443,6694,1627577949368824958,gps_frame,$GPGGA,165908.70,4616.74014574,N,11940.88587901,W,4,8,1.1,323.826,M,-17.561,M,0.7,0000*43
1627577949420035573,6695,1627577949419892072,gps_frame,$GPGGA,165908.75,4616.74009010,N,11940.88608656,W,4,8,1.1,323.830,M,-17.561,M,0.7,0000*43
1627577949470052690,6696,1627577949469804048,gps_frame,$GPGGA,165908.80,4616.73998321,N,11940.88589746,W,4,8,1.1,323.814,M,-17.561,M,0.8,0000*4D
1627577949520090727,6697,1627577949519855022,gps_frame,$GPGGA,165908.85,4616.73989508,N,11940.88603023,W,4,8,1.1,323.805,M,-17.561,M,0.8,0000*40
1627577949568847134,6698,1627577949568634986,gps_frame,$GPGGA,165908.90,4616.73984295,N,11940.88591568,W,4,8,1.1,323.829,M,-17.561,M,0.9,0000*47
1627577949619987638,6699,1627577949619822978,gps_frame,$GPGGA,165908.95,4616.73977764,N,11940.88611673,W,4,8,1.1,323.840,M,-17.561,M,0.9,0000*48
1627577949676988235,6700,1627577949676852941,gps_frame,$GPGGA,165909.00,4616.73971110,N,11940.88590773,W,4,8,1.1,323.824,M,-17.561,M,1.0,0000*47
1627577949719930704,6701,1627577949719794988,gps_frame,$GPGGA,165909.05,4616.73964501,N,11940.88604304,W,4,8,1.1,323.818,M,-17.561,M,1.0,0000*47
1627577949780125420,6702,1627577949779978990,gps_frame,$GPGGA,165909.10,4616.73954559,N,11940.88592278,W,4,8,1.1,323.847,M,-17.561,M,1.1,0000*40
1627577949820024680,6703,1627577949819865942,gps_frame,$GPGGA,165909.15,4616.73945837,N,11940.88607865,W,4,8,1.1,323.864,M,-17.561,M,1.1,0000*48
1627577949871029231,6704,1627577949870857000,gps_frame,$GPGGA,165909.20,4616.73942266,N,11940.88592626,W,4,8,1.1,323.833,M,-17.561,M,0.2,0000*41
1627577949919967660,6705,1627577949919806003,gps_frame,$GPGGA,165909.25,4616.73936809,N,11940.88611589,W,4,8,1.1,323.820,M,-17.561,M,0.2,0000*48
1627577949969038938,6706,1627577949968856096,gps_frame,$GPGGA,165909.30,4616.73925419,N,11940.88592875,W,4,8,1.1,323.831,M,-17.561,M,0.3,0000*44
1627577950020235002,6707,1627577950019977092,gps_frame,$GPGGA,165909.35,4616.73916201,N,11940.88604975,W,4,8,1.1,323.833,M,-17.561,M,0.3,0000*41
1627577950070148759,6708,1627577950069967985,gps_frame,$GPGGA,165909.40,4616.73912130,N,11940.88594285,W,4,8,1.1,323.841,M,-17.561,M,0.4,0000*4A
1627577950119996733,6709,1627577950119863033,gps_frame,$GPGGA,165909.45,4616.73906176,N,11940.88615264,W,4,8,1.1,323.847,M,-17.561,M,0.4,0000*4B
1627577950168853603,6710,1627577950168651103,gps_frame,$GPGGA,165909.50,4616.73898135,N,11940.88593489,W,4,8,1.1,323.834,M,-17.561,M,0.5,0000*43
1627577950220016464,6711,1627577950219829082,gps_frame,$GPGGA,165909.55,4616.73890858,N,11940.88605764,W,4,8,1.1,323.828,M,-17.561,M,0.5,0000*4D
1627577950270068038,6712,1627577950269891977,gps_frame,$GPGGA,165909.60,4616.73883441,N,11940.88596172,W,4,8,1.1,323.842,M,-17.561,M,0.6,0000*4A
1627577950319933447,6713,1627577950319786071,gps_frame,$GPGGA,165909.65,4616.73876075,N,11940.88613963,W,4,8,1.1,323.849,M,-17.561,M,0.6,0000*4B
1627577950369559981,6714,1627577950369357109,gps_frame,$GPGGA,165909.70,4616.73869140,N,11940.88596984,W,4,8,1.1,323.861,M,-17.561,M,0.7,0000*4A
1627577950420080463,6715,1627577950419866085,gps_frame,$GPGGA,165909.75,4616.73862047,N,11940.88613079,W,4,8,1.1,323.871,M,-17.561,M,0.7,0000*46
1627577950470205509,6716,1627577950469957113,gps_frame,$GPGGA,165909.80,4616.73855372,N,11940.88597457,W,4,8,1.1,323.844,M,-17.561,M,0.8,0000*43
1627577950520444209,6717,1627577950520128965,gps_frame,$GPGGA,165909.85,4616.73848544,N,11940.88613247,W,4,8,1.1,323.830,M,-17.561,M,0.8,0000*42
1627577950568926436,6718,1627577950568569898,gps_frame,$GPGGA,165909.90,4616.73842031,N,11940.88599295,W,4,8,1.1,323.841,M,-17.561,M,0.9,0000*42
1627577950620218474,6719,1627577950619965076,gps_frame,$GPGGA,165909.95,4616.73835402,N,11940.88615295,W,4,8,1.1,323.842,M,-17.561,M,0.9,0000*47
1627577950676917140,6720,1627577950676755905,gps_frame,$GPGGA,165910.00,4616.73824537,N,11940.88597649,W,4,8,1.1,323.858,M,-17.561,M,1.0,0000*4B
1627577950720208685,6721,1627577950719933986,gps_frame,$GPGGA,165910.05,4616.73815223,N,11940.88610793,W,4,8,1.1,323.868,M,-17.561,M,1.0,0000*47
1627577950780650013,6722,1627577950780524015,gps_frame,$GPGGA,165910.10,4616.73815369,N,11940.88600370,W,4,8,1.1,323.844,M,-17.561,M,1.1,0000*4B
1627577950819987844,6723,1627577950819796085,gps_frame,$GPGGA,165910.15,4616.73812052,N,11940.88622797,W,4,8,1.1,323.833,M,-17.561,M,1.1,0000*4F
1627577950871386200,6724,1627577950871063947,gps_frame,$GPGGA,165910.20,4616.73797533,N,11940.88600054,W,4,8,1.1,323.852,M,-17.561,M,0.2,0000*44
1627577950920010092,6725,1627577950919804096,gps_frame,$GPGGA,165910.25,4616.73787115,N,11940.88606542,W,4,8,1.1,323.859,M,-17.561,M,0.2,0000*4F
1627577950968976090,6726,1627577950968761920,gps_frame,$GPGGA,165910.30,4616.73784340,N,11940.88601956,W,4,8,1.1,323.867,M,-17.561,M,0.3,0000*48
1627577951020136469,6727,1627577951019973993,gps_frame,$GPGGA,165910.35,4616.73778767,N,11940.88626121,W,4,8,1.1,323.874,M,-17.561,M,0.3,0000*40
1627577951069980851,6728,1627577951069787025,gps_frame,$GPGGA,165910.40,4616.73771661,N,11940.88605354,W,4,8,1.1,323.835,M,-17.561,M,0.4,0000*4F
1627577951120120118,6729,1627577951119853973,gps_frame,$GPGGA,165910.45,4616.73765116,N,11940.88619303,W,4,8,1.1,323.813,M,-17.561,M,0.4,0000*43
1627577951168851725,6730,1627577951168574094,gps_frame,$GPGGA,165910.50,4616.73754993,N,11940.88604667,W,4,8,1.1,323.871,M,-17.561,M,0.5,0000*4E
1627577951220112265,6731,1627577951219913959,gps_frame,$GPGGA,165910.55,4616.73746179,N,11940.88618051,W,4,8,1.1,323.899,M,-17.561,M,0.5,0000*4C
1627577951270911940,6732,1627577951270773887,gps_frame,$GPGGA,165910.60,4616.73741865,N,11940.88606350,W,4,8,1.1,323.855,M,-17.561,M,0.6,0000*47
1627577951320199752,6733,1627577951319957971,gps_frame,$GPGGA,165910.65,4616.73735904,N,11940.88626912,W,4,8,1.1,323.837,M,-17.561,M,0.6,0000*4D
1627577951369721352,6734,1627577951369219064,gps_frame,$GPGGA,165910.70,4616.73727739,N,11940.88606847,W,4,8,1.1,323.871,M,-17.561,M,0.7,0000*4A
1627577951419971923,6735,1627577951419816017,gps_frame,$GPGGA,165910.75,4616.73720380,N,11940.88619830,W,4,8,1.1,323.887,M,-17.561,M,0.7,0000*49
1627577951470112960,6736,1627577951469871044,gps_frame,$GPGGA,165910.80,4616.73713720,N,11940.88608849,W,4,8,1.1,323.847,M,-17.561,M,0.8,0000*40
1627577951520277137,6737,1627577951519982099,gps_frame,$GPGGA,165910.85,4616.73706804,N,11940.88626201,W,4,8,1.1,323.828,M,-17.561,M,0.8,0000*4B
1627577951569111800,6738,1627577951568800926,gps_frame,$GPGGA,165910.90,4616.73697531,N,11940.88611299,W,4,8,1.1,323.871,M,-17.561,M,0.9,0000*45
1627577951620087527,6739,1627577951619853019,gps_frame,$GPGGA,165910.95,4616.73689121,N,11940.88627615,W,4,8,1.1,323.891,M,-17.561,M,0.9,0000*41
1627577951676891021,6740,1627577951676770925,gps_frame,$GPGGA,165911.00,4616.73686260,N,11940.88612220,W,4,8,1.1,323.857,M,-17.561,M,1.0,0000*43
1627577951720060659,6741,1627577951719876050,gps_frame,$GPGGA,165911.05,4616.73681367,N,11940.88630849,W,4,8,1.1,323.843,M,-17.561,M,1.0,0000*47
1627577951780070779,6742,1627577951779951095,gps_frame,$GPGGA,165911.10,4616.73669180,N,11940.88613147,W,4,8,1.1,323.864,M,-17.561,M,1.1,0000*4C
1627577951820134614,6743,1627577951819948911,gps_frame,$GPGGA,165911.15,4616.73659663,N,11940.88624351,W,4,8,1.1,323.873,M,-17.561,M,1.1,0000*47
1627577951871126337,6744,1627577951870915889,gps_frame,$GPGGA,165911.20,4616.73656913,N,11940.88615605,W,4,8,1.1,323.857,M,-17.561,M,0.2,0000*44
1627577951919963894,6745,1627577951919775009,gps_frame,$GPGGA,165911.25,4616.73651685,N,11940.88637812,W,4,8,1.1,323.850,M,-17.561,M,0.2,0000*49
1627577951968961459,6746,1627577951968741893,gps_frame,$GPGGA,165911.30,4616.73641740,N,11940.88615232,W,4,8,1.1,323.859,M,-17.561,M,0.3,0000*44
1627577952020048059,6747,1627577952019890069,gps_frame,$GPGGA,165911.35,4616.73633521,N,11940.88626033,W,4,8,1.1,323.862,M,-17.561,M,0.3,0000*4A
1627577952070218940,6748,1627577952069992065,gps_frame,$GPGGA,165911.40,4616.73624962,N,11940.88618077,W,4,8,1.1,323.875,M,-17.561,M,0.4,0000*49
