%time,field.header.seq,field.header.stamp,field.header.frame_id,field.sentence
1627578231469735178,12336,1627578231469511032,gps_frame,$GPGGA,170350.80,4616.76393936,N,11940.86607156,W,4,8,1.1,321.811,M,-17.561,M,0.8,0000*4D
1627578231519938976,12337,1627578231519643068,gps_frame,$GPGGA,170350.85,4616.76399388,N,11940.86603709,W,4,8,1.1,321.824,M,-17.561,M,0.8,0000*43
1627578231568697022,12338,1627578231568411111,gps_frame,$GPGGA,170350.90,4616.76400181,N,11940.86614939,W,4,8,1.1,321.802,M,-17.561,M,0.9,0000*45
1627578231619662371,12339,1627578231619472026,gps_frame,$GPGGA,170350.95,4616.76402679,N,11940.86607108,W,4,8,1.1,321.793,M,-17.561,M,0.9,0000*4D
1627578231676382615,12340,1627578231676285982,gps_frame,$GPGGA,170351.00,4616.76410056,N,11940.86621838,W,4,8,1.1,321.814,M,-17.561,M,1.0,0000*4E
1627578231719637706,12341,1627578231719485044,gps_frame,$GPGGA,170351.05,4616.76415647,N,11940.86619663,W,4,8,1.1,321.824,M,-17.561,M,1.0,0000*40
1627578231779761139,12342,1627578231779639959,gps_frame,$GPGGA,170351.10,4616.76417903,N,11940.86630232,W,4,8,1.1,321.815,M,-17.561,M,1.1,0000*41
1627578231819845157,12343,1627578231819570064,gps_frame,$GPGGA,170351.15,4616.76421379,N,11940.86622461,W,4,8,1.1,321.813,M,-17.561,M,1.1,0000*43
1627578231870821880,12344,1627578231870605945,gps_frame,$GPGGA,170351.20,4616.76425706,N,11940.86638265,W,4,8,1.1,321.813,M,-17.561,M,0.2,0000*46
1627578231919651909,12345,1627578231919537067,gps_frame,$GPGGA,170351.25,4616.76429721,N,11940.86634574,W,4,8,1.1,321.813,M,-17.561,M,0.2,0000*41
1627578231968634945,12346,1627578231968441963,gps_frame,$GPGGA,170351.30,4616.76432800,N,11940.86646730,W,4,8,1.1,321.842,M,-17.561,M,0.3,0000*41
1627578232019799837,12347,1627578232019562959,gps_frame,$GPGGA,170351.35,4616.76436221,N,11940.86642280,W,4,8,1.1,321.860,M,-17.561,M,0.3,0000*43
1627578232069942866,12348,1627578232069751024,gps_frame,$GPGGA,170351.40,4616.76441436,N,11940.86655632,W,4,8,1.1,321.845,M,-17.561,M,0.4,0000*4A
1627578232120285991,12349,1627578232119707107,gps_frame,$GPGGA,170351.45,4616.76445994,N,11940.86652646,W,4,8,1.1,321.843,M,-17.561,M,0.4,0000*4C
1627578232168710177,12350,1627578232168411970,gps_frame,$GPGGA,170351.50,4616.76449356,N,11940.86663801,W,4,8,1.1,321.841,M,-17.561,M,0.5,0000*4C
1627578232219729912,12351,1627578232219551086,gps_frame,$GPGGA,170351.55,4616.76453157,N,11940.86657822,W,4,8,1.1,321.840,M,-17.561,M,0.5,0000*46
1627578232269748178,12352,1627578232269570112,gps_frame,$GPGGA,170351.60,4616.76457234,N,11940.86672183,W,4,8,1.1,321.848,M,-17.561,M,0.6,0000*4C
1627578232319684758,12353,1627578232319441080,gps_frame,$GPGGA,170351.65,4616.76461211,N,11940.86668131,W,4,8,1.1,321.852,M,-17.561,M,0.6,0000*42
1627578232368681801,12354,1627578232368499040,gps_frame,$GPGGA,170351.70,4616.76464724,N,11940.86679323,W,4,8,1.1,321.848,M,-17.561,M,0.7,0000*4B
1627578232420453047,12355,1627578232420053958,gps_frame,$GPGGA,170351.75,4616.76468406,N,11940.86674026,W,4,8,1.1,321.847,M,-17.561,M,0.7,0000*45
1627578232469570735,12356,1627578232469439983,gps_frame,$GPGGA,170351.80,4616.76473366,N,11940.86687097,W,4,8,1.1,321.853,M,-17.561,M,0.8,0000*48
1627578232519848302,12357,1627578232519608020,gps_frame,$GPGGA,170351.85,4616.76477858,N,11940.86683074,W,4,8,1.1,321.857,M,-17.561,M,0.8,0000*42
1627578232568571425,12358,1627578232568346977,gps_frame,$GPGGA,170351.90,4616.76482109,N,11940.86694893,W,4,8,1.1,321.875,M,-17.561,M,0.9,0000*47
1627578232619679092,12359,1627578232619487047,gps_frame,$GPGGA,170351.95,4616.76486448,N,11940.86688946,W,4,8,1.1,321.888,M,-17.561,M,0.9,0000*40
1627578232676481010,12360,1627578232676316976,gps_frame,$GPGGA,170352.00,4616.76489442,N,11940.86703316,W,4,8,1.1,321.870,M,-17.561,M,1.0,0000*48
1627578232719636228,12361,1627578232719465970,gps_frame,$GPGGA,170352.05,4616.76492929,N,11940.86698142,W,4,8,1.1,321.862,M,-17.561,M,1.0,0000*44
1627578232779905953,12362,1627578232779784917,gps_frame,$GPGGA,170352.10,4616.76497447,N,11940.86710697,W,4,8,1.1,321.878,M,-17.561,M,1.1,0000*44
1627578232819676148,12363,1627578232819520950,gps_frame,$GPGGA,170352.15,4616.76501587,N,11940.86706607,W,4,8,1.1,321.885,M,-17.561,M,1.1,0000*4E
1627578232870727262,12364,1627578232870482921,gps_frame,$GPGGA,170352.20,4616.76505393,N,11940.86719183,W,4,8,1.1,321.894,M,-17.561,M,0.2,0000*48
1627578232919845552,12365,1627578232919543981,gps_frame,$GPGGA,170352.25,4616.76509322,N,11940.86714574,W,4,8,1.1,321.903,M,-17.561,M,0.2,0000*45
1627578232968654912,12366,1627578232968480110,gps_frame,$GPGGA,170352.30,4616.76514013,N,11940.86726633,W,4,8,1.1,321.902,M,-17.561,M,0.3,0000*4D
1627578233019843547,12367,1627578233019593954,gps_frame,$GPGGA,170352.35,4616.76518425,N,11940.86721586,W,4,8,1.1,321.904,M,-17.561,M,0.3,0000*49
1627578233069542533,12368,1627578233069379091,gps_frame,$GPGGA,170352.40,4616.76521018,N,11940.86735433,W,4,8,1.1,321.915,M,-17.561,M,0.4,0000*46
1627578233119722822,12369,1627578233119484901,gps_frame,$GPGGA,170352.45,4616.76524276,N,11940.86730428,W,4,8,1.1,321.922,M,-17.561,M,0.4,0000*47
1627578233168280775,12370,1627578233168149948,gps_frame,$GPGGA,170352.50,4616.76529043,N,11940.86741923,W,4,8,1.1,321.907,M,-17.561,M,0.5,0000*4C
1627578233219661373,12371,1627578233219451904,gps_frame,$GPGGA,170352.55,4616.76533258,N,11940.86737679,W,4,8,1.1,321.900,M,-17.561,M,0.5,0000*4C
1627578233270708543,12372,1627578233270488977,gps_frame,$GPGGA,170352.60,4616.76537204,N,11940.86751072,W,4,8,1.1,321.922,M,-17.561,M,0.6,0000*49
1627578233319775905,12373,1627578233319524049,gps_frame,$GPGGA,170352.65,4616.76541249,N,11940.86746896,W,4,8,1.1,321.934,M,-17.561,M,0.6,0000*47
1627578233368716998,12374,1627578233368486881,gps_frame,$GPGGA,170352.70,4616.76544985,N,11940.86757527,W,4,8,1.1,321.917,M,-17.561,M,0.7,0000*4A
1627578233419558680,12375,1627578233419394016,gps_frame,$GPGGA,170352.75,4616.76548834,N,11940.86751438,W,4,8,1.1,321.910,M,-17.561,M,0.7,0000*46
1627578233469548144,12376,1627578233469371080,gps_frame,$GPGGA,170352.80,4616.76553825,N,11940.86766213,W,4,8,1.1,321.951,M,-17.561,M,0.8,0000*47
1627578233519676067,12377,1627578233519489049,gps_frame,$GPGGA,170352.85,4616.76558398,N,11940.86762577,W,4,8,1.1,321.975,M,-17.561,M,0.8,0000*43
1627578233568528769,12378,1627578233568300962,gps_frame,$GPGGA,170352.90,4616.76561437,N,11940.86775726,W,4,8,1.1,321.926,M,-17.561,M,0.9,0000*48
1627578233619629587,12379,1627578233619427919,gps_frame,$GPGGA,170352.95,4616.76565037,N,11940.86770489,W,4,8,1.1,321.903,M,-17.561,M,0.9,0000*49
1627578233676572516,12380,1627578233676376104,gps_frame,$GPGGA,170353.00,4616.76568799,N,11940.86781166,W,4,8,1.1,321.945,M,-17.561,M,1.0,0000*4A
1627578233719918280,12381,1627578233719563007,gps_frame,$GPGGA,170353.05,4616.76572502,N,11940.86775477,W,4,8,1.1,321.963,M,-17.561,M,1.0,0000*4E
1627578233779764596,12382,1627578233779638051,gps_frame,$GPGGA,170353.10,4616.76577129,N,11940.86791012,W,4,8,1.1,321.952,M,-17.561,M,1.1,0000*4C
1627578233819680239,12383,1627578233819506883,gps_frame,$GPGGA,170353.15,4616.76581418,N,11940.86788584,W,4,8,1.1,321.951,M,-17.561,M,1.1,0000*46
1627578233870750588,12384,1627578233870511054,gps_frame,$GPGGA,170353.20,4616.76585345,N,11940.86796572,W,4,8,1.1,321.953,M,-17.561,M,0.2,0000*4D
1627578233919621359,12385,1627578233919452905,gps_frame,$GPGGA,170353.25,4616.76589404,N,11940.86789212,W,4,8,1.1,321.953,M,-17.561,M,0.2,0000*49
1627578233968659907,12386,1627578233968492984,gps_frame,$GPGGA,170353.30,4616.76592834,N,11940.86805840,W,4,8,1.1,321.976,M,-17.561,M,0.3,0000*48
1627578234019647069,12387,1627578234019478082,gps_frame,$GPGGA,170353.35,4616.76596494,N,11940.86802311,W,4,8,1.1,321.990,M,-17.561,M,0.3,0000*4F
1627578234069771354,12388,1627578234069626092,gps_frame,$GPGGA,170353.40,4616.76600973,N,11940.86814088,W,4,8,1.1,321.971,M,-17.561,M,0.4,0000*49
1627578234119538364,12389,1627578234119424104,gps_frame,$GPGGA,170353.45,4616.76605153,N,11940.86809891,W,4,8,1.1,321.964,M,-17.561,M,0.4,0000*4B
1627578234168750244,12390,1627578234168477058,gps_frame,$GPGGA,170353.50,4616.76607594,N,11940.86821121,W,4,8,1.1,321.979,M,-17.561,M,0.5,0000*47
1627578234219847391,12391,1627578234219618082,gps_frame,$GPGGA,170353.55,4616.76610671,N,11940.86815433,W,4,8,1.1,321.986,M,-17.561,M,0.5,0000*4D
1627578234269779509,12392,1627578234269612073,gps_frame,$GPGGA,170353.60,4616.76616732,N,11940.86830105,W,4,8,1.1,321.985,M,-17.561,M,0.6,0000*4C
1627578234319508248,12393,1627578234319417953,gps_frame,$GPGGA,170353.65,4616.76621701,N,11940.86828157,W,4,8,1.1,321.986,M,-17.561,M,0.6,0000*40
1627578234368757235,12394,1627578234368525028,gps_frame,$GPGGA,170353.70,4616.76624175,N,11940.86837295,W,4,8,1.1,322.009,M,-17.561,M,0.7,0000*4B
1627578234419734949,12395,1627578234419591903,gps_frame,$GPGGA,170353.75,4616.76627562,N,11940.86829721,W,4,8,1.1,322.025,M,-17.561,M,0.7,0000*44
1627578234469505158,12396,1627578234469362974,gps_frame,$GPGGA,170353.80,4616.76632017,N,11940.86846299,W,4,8,1.1,321.997,M,-17.561,M,0.8,0000*4E
1627578234519665096,12397,1627578234519514083,gps_frame,$GPGGA,170353.85,4616.76636081,N,11940.86843731,W,4,8,1.1,321.985,M,-17.561,M,0.8,0000*41
1627578234568596359,12398,1627578234568341016,gps_frame,$GPGGA,170353.90,4616.76640508,N,11940.86854187,W,4,8,1.1,322.016,M,-17.561,M,0.9,0000*4C
1627578234619737348,12399,1627578234619497060,gps_frame,$GPGGA,170353.95,4616.76644801,N,11940.86849016,W,4,8,1.1,322.030,M,-17.561,M,0.9,0000*48
1627578234676475471,12400,1627578234676305055,gps_frame,$GPGGA,170354.00,4616.76648384,N,11940.86861995,W,4,8,1.1,322.018,M,-17.561,M,1.0,0000*43
1627578234719619647,12401,1627578234719441890,gps_frame,$GPGGA,170354.05,4616.76652228,N,11940.86856573,W,4,8,1.1,322.016,M,-17.561,M,1.0,0000*44
1627578234779947655,12402,1627578234779769897,gps_frame,$GPGGA,170354.10,4616.76655481,N,11940.86870377,W,4,8,1.1,322.030,M,-17.561,M,1.1,0000*41
1627578234819639150,12403,1627578234819439888,gps_frame,$GPGGA,170354.15,4616.76658950,N,11940.86866235,W,4,8,1.1,322.038,M,-17.561,M,1.1,0000*40
1627578234870671509,12404,1627578234870486974,gps_frame,$GPGGA,170354.20,4616.76663325,N,11940.86878722,W,4,8,1.1,322.049,M,-17.561,M,0.2,0000*4E
1627578234919565010,12405,1627578234919404029,gps_frame,$GPGGA,170354.25,4616.76667369,N,11940.86875296,W,4,8,1.1,322.059,M,-17.561,M,0.2,0000*41
1627578234969503526,12406,1627578234969114065,gps_frame,$GPGGA,170354.30,4616.76672747,N,11940.86888695,W,4,8,1.1,322.041,M,-17.561,M,0.3,0000*44
1627578235019900246,12407,1627578235019733905,gps_frame,$GPGGA,170354.35,4616.76677637,N,11940.86885072,W,4,8,1.1,322.032,M,-17.561,M,0.3,0000*44
1627578235069531846,12408,1627578235069364070,gps_frame,$GPGGA,170354.40,4616.76679491,N,11940.86894609,W,4,8,1.1,322.050,M,-17.561,M,0.4,0000*4F
1627578235119564531,12409,1627578235119435071,gps_frame,$GPGGA,170354.45,4616.76682456,N,11940.86886283,W,4,8,1.1,322.058,M,-17.561,M,0.4,0000*48
1627578235168312170,12410,1627578235168113946,gps_frame,$GPGGA,170354.50,4616.76688310,N,11940.86904264,W,4,8,1.1,322.057,M,-17.561,M,0.5,0000*4F
1627578235219554581,12411,1627578235219417095,gps_frame,$GPGGA,170354.55,4616.76693106,N,11940.86903276,W,4,8,1.1,322.060,M,-17.561,M,0.5,0000*45
1627578235270573195,12412,1627578235270364046,gps_frame,$GPGGA,170354.60,4616.76695666,N,11940.86912395,W,4,8,1.1,322.074,M,-17.561,M,0.6,0000*4E
1627578235319629966,12413,1627578235319452047,gps_frame,$GPGGA,170354.65,4616.76699045,N,11940.86905603,W,4,8,1.1,322.083,M,-17.561,M,0.6,0000*44
1627578235369023542,12414,1627578235368834018,gps_frame,$GPGGA,170354.70,4616.76704376,N,11940.86921626,W,4,8,1.1,322.059,M,-17.561,M,0.7,0000*41
1627578235419629519,12415,1627578235419426918,gps_frame,$GPGGA,170354.75,4616.76708992,N,11940.86919110,W,4,8,1.1,322.046,M,-17.561,M,0.7,0000*4F
1627578235469564398,12416,1627578235469362974,gps_frame,$GPGGA,170354.80,4616.76711025,N,11940.86930938,W,4,8,1.1,322.102,M,-17.561,M,0.8,0000*4F
1627578235519677677,12417,1627578235519476890,gps_frame,$GPGGA,170354.85,4616.76714004,N,11940.86925456,W,4,8,1.1,322.133,M,-17.561,M,0.8,0000*4F
1627578235568533643,12418,1627578235568296909,gps_frame,$GPGGA,170354.90,4616.76718521,N,11940.86938345,W,4,8,1.1,322.102,M,-17.561,M,0.9,0000*4F
1627578235619824443,12419,1627578235619605064,gps_frame,$GPGGA,170354.95,4616.76722475,N,11940.86935301,W,4,8,1.1,322.093,M,-17.561,M,0.9,0000*47
1627578235676498733,12420,1627578235676345109,gps_frame,$GPGGA,170355.00,4616.76727915,N,11940.86948107,W,4,8,1.1,322.099,M,-17.561,M,1.0,0000*48
1627578235719593531,12421,1627578235719430923,gps_frame,$GPGGA,170355.05,4616.76732811,N,11940.86944731,W,4,8,1.1,322.099,M,-17.561,M,1.0,0000*43
1627578235780144967,12422,1627578235779987096,gps_frame,$GPGGA,170355.10,4616.76735221,N,11940.86957073,W,4,8,1.1,322.103,M,-17.561,M,1.1,0000*49
1627578235819694457,12423,1627578235819531917,gps_frame,$GPGGA,170355.15,4616.76738542,N,11940.86950654,W,4,8,1.1,322.106,M,-17.561,M,1.1,0000*42
1627578235870710904,12424,1627578235870456933,gps_frame,$GPGGA,170355.20,4616.76742880,N,11940.86967103,W,4,8,1.1,322.127,M,-17.561,M,0.2,0000*4A
1627578235919777199,12425,1627578235919580936,gps_frame,$GPGGA,170355.25,4616.76746845,N,11940.86965064,W,4,8,1.1,322.141,M,-17.561,M,0.2,0000*40
1627578235968810986,12426,1627578235968564987,gps_frame,$GPGGA,170355.30,4616.76751088,N,11940.86975641,W,4,8,1.1,322.133,M,-17.561,M,0.3,0000*4F
1627578236019678483,12427,1627578236019504070,gps_frame,$GPGGA,170355.35,4616.76755229,N,11940.86970995,W,4,8,1.1,322.134,M,-17.561,M,0.3,0000*43
1627578236069970497,12428,1627578236069648027,gps_frame,$GPGGA,170355.40,4616.76758531,N,11940.86986705,W,4,8,1.1,322.134,M,-17.561,M,0.4,0000*4B
1627578236119669133,12429,1627578236119446992,gps_frame,$GPGGA,170355.45,4616.76762140,N,11940.86983598,W,4,8,1.1,322.133,M,-17.561,M,0.4,0000*41
1627578236168554948,12430,1627578236168286085,gps_frame,$GPGGA,170355.50,4616.76766999,N,11940.86997565,W,4,8,1.1,322.149,M,-17.561,M,0.5,0000*46
1627578236219967738,12431,1627578236219598054,gps_frame,$GPGGA,170355.55,4616.76771399,N,11940.86994976,W,4,8,1.1,322.159,M,-17.561,M,0.5,0000*43
1627578236270159470,12432,1627578236269946098,gps_frame,$GPGGA,170355.60,4616.76773703,N,11940.87006002,W,4,8,1.1,322.152,M,-17.561,M,0.6,0000*41
1627578236319834635,12433,1627578236319717884,gps_frame,$GPGGA,170355.65,4616.76776774,N,11940.87000320,W,4,8,1.1,322.151,M,-17.561,M,0.6,0000*47
1627578236368674567,12434,1627578236368441104,gps_frame,$GPGGA,170355.70,4616.76782749,N,11940.87017065,W,4,8,1.1,322.161,M,-17.561,M,0.7,0000*40
1627578236419562711,12435,1627578236419420957,gps_frame,$GPGGA,170355.75,4616.76787662,N,11940.87016318,W,4,8,1.1,322.166,M,-17.561,M,0.7,0000*47
1627578236469513101,12436,1627578236469372987,gps_frame,$GPGGA,170355.80,4616.76791685,N,11940.87028577,W,4,8,1.1,322.186,M,-17.561,M,0.8,0000*40
1627578236519620508,12437,1627578236519479036,gps_frame,$GPGGA,170355.85,4616.76796033,N,11940.87023549,W,4,8,1.1,322.201,M,-17.561,M,0.8,0000*43
1627578236568565706,12438,1627578236568310976,gps_frame,$GPGGA,170355.90,4616.76797484,N,11940.87037703,W,4,8,1.1,322.181,M,-17.561,M,0.9,0000*4D
1627578236619851810,12439,1627578236619656085,gps_frame,$GPGGA,170355.95,4616.76799996,N,11940.87032462,W,4,8,1.1,322.174,M,-17.561,M,0.9,0000*43
1627578236676576054,12440,1627578236676403999,gps_frame,$GPGGA,170356.00,4616.76806287,N,11940.87051556,W,4,8,1.1,322.206,M,-17.561,M,1.0,0000*43
1627578236719641262,12441,1627578236719455003,gps_frame,$GPGGA,170356.05,4616.76811195,N,11940.87053711,W,4,8,1.1,322.224,M,-17.561,M,1.0,0000*43
1627578236780052971,12442,1627578236779864072,gps_frame,$GPGGA,170356.10,4616.76813396,N,11940.87060737,W,4,8,1.1,322.211,M,-17.561,M,1.1,0000*47
1627578236819825760,12443,1627578236819642066,gps_frame,$GPGGA,170356.15,4616.76816588,N,11940.87053790,W,4,8,1.1,322.209,M,-17.561,M,1.1,0000*4A
1627578236870534797,12444,1627578236870431900,gps_frame,$GPGGA,170356.20,4616.76819749,N,11940.87073249,W,4,8,1.1,322.208,M,-17.561,M,0.2,0000*4C
1627578236919750064,12445,1627578236919567108,gps_frame,$GPGGA,170356.25,4616.76822921,N,11940.87073198,W,4,8,1.1,322.207,M,-17.561,M,0.2,0000*41
1627578236968657595,12446,1627578236968426942,gps_frame,$GPGGA,170356.30,4616.76829281,N,11940.87085519,W,4,8,1.1,322.218,M,-17.561,M,0.3,0000*44
1627578237019590475,12447,1627578237019494056,gps_frame,$GPGGA,170356.35,4616.76834473,N,11940.87084514,W,4,8,1.1,322.225,M,-17.561,M,0.3,0000*44
1627578237069665511,12448,1627578237069439888,gps_frame,$GPGGA,170356.40,4616.76834574,N,11940.87096678,W,4,8,1.1,322.236,M,-17.561,M,0.4,0000*4F
1627578237119567371,12449,1627578237119430065,gps_frame,$GPGGA,170356.45,4616.76836539,N,11940.87090822,W,4,8,1.1,322.246,M,-17.561,M,0.4,0000*41
1627578237168360073,12450,1627578237168183088,gps_frame,$GPGGA,170356.50,4616.76842763,N,11940.87109720,W,4,8,1.1,322.251,M,-17.561,M,0.5,0000*40
1627578237219689734,12451,1627578237219487905,gps_frame,$GPGGA,170356.55,4616.76847428,N,11940.87112227,W,4,8,1.1,322.258,M,-17.561,M,0.5,0000*4D
1627578237270807279,12452,1627578237270643949,gps_frame,$GPGGA,170356.60,4616.76848826,N,11940.87120374,W,4,8,1.1,322.253,M,-17.561,M,0.6,0000*48
1627578237319621037,12453,1627578237319432973,gps_frame,$GPGGA,170356.65,4616.76851419,N,11940.87115117,W,4,8,1.1,322.252,M,-17.561,M,0.6,0000*45
1627578237368713001,12454,1627578237368510007,gps_frame,$GPGGA,170356.70,4616.76854821,N,11940.87132594,W,4,8,1.1,322.266,M,-17.561,M,0.7,0000*4F
1627578237420375811,12455,1627578237420245885,gps_frame,$GPGGA,170356.75,4616.76857926,N,11940.87133354,W,4,8,1.1,322.274,M,-17.561,M,0.7,0000*47
1627578237469643337,12456,1627578237469521999,gps_frame,$GPGGA,170356.80,4616.76861575,N,11940.87145495,W,4,8,1.1,322.283,M,-17.561,M,0.8,0000*4E
1627578237519643804,12457,1627578237519483089,gps_frame,$GPGGA,170356.85,4616.76865025,N,11940.87145169,W,4,8,1.1,322.292,M,-17.561,M,0.8,0000*49
1627578237568425906,12458,1627578237568238973,gps_frame,$GPGGA,170356.90,4616.76866778,N,11940.87160764,W,4,8,1.1,322.291,M,-17.561,M,0.9,0000*4F
1627578237619672565,12459,1627578237619504928,gps_frame,$GPGGA,170356.95,4616.76869153,N,11940.87161178,W,4,8,1.1,322.293,M,-17.561,M,0.9,0000*42
1627578237676540530,12460,1627578237676362037,gps_frame,$GPGGA,170357.00,4616.76873172,N,11940.87169789,W,4,8,1.1,322.316,M,-17.561,M,1.0,0000*43
1627578237719580745,12461,1627578237719428062,gps_frame,$GPGGA,170357.05,4616.76876590,N,11940.87168195,W,4,8,1.1,322.332,M,-17.561,M,1.0,0000*47
1627578237780108259,12462,1627578237779855966,gps_frame,$GPGGA,170357.10,4616.76877239,N,11940.87187071,W,4,8,1.1,322.315,M,-17.561,M,1.1,0000*48
1627578237819566066,12463,1627578237819421052,gps_frame,$GPGGA,170357.15,4616.76878902,N,11940.87189599,W,4,8,1.1,322.311,M,-17.561,M,1.1,0000*48
1627578237870516027,12464,1627578237870347023,gps_frame,$GPGGA,170357.20,4616.76883787,N,11940.87197844,W,4,8,1.1,322.335,M,-17.561,M,0.2,0000*4F
1627578237919750312,12465,1627578237919527053,gps_frame,$GPGGA,170357.25,4616.76887492,N,11940.87198365,W,4,8,1.1,322.349,M,-17.561,M,0.2,0000*45
1627578237968601451,12466,1627578237968408107,gps_frame,$GPGGA,170357.30,4616.76888108,N,11940.87211408,W,4,8,1.1,322.335,M,-17.561,M,0.3,0000*4C
1627578238019639023,12467,1627578238019448995,gps_frame,$GPGGA,170357.35,4616.76889855,N,11940.87210801,W,4,8,1.1,322.331,M,-17.561,M,0.3,0000*49
1627578238069952096,12468,1627578238069700956,gps_frame,$GPGGA,170357.40,4616.76892819,N,11940.87228711,W,4,8,1.1,322.360,M,-17.561,M,0.4,0000*4F
1627578238119582368,12469,1627578238119467973,gps_frame,$GPGGA,170357.45,4616.76895338,N,11940.87233859,W,4,8,1.1,322.377,M,-17.561,M,0.4,0000*4A
1627578238168409187,12470,1627578238168225049,gps_frame,$GPGGA,170357.50,4616.76898059,N,11940.87236457,W,4,8,1.1,322.353,M,-17.561,M,0.5,0000*47
1627578238219723949,12471,1627578238219552040,gps_frame,$GPGGA,170357.55,4616.76900706,N,11940.87233464,W,4,8,1.1,322.344,M,-17.561,M,0.5,0000*4C
1627578238269924551,12472,1627578238269752025,gps_frame,$GPGGA,170357.60,4616.76901397,N,11940.87256377,W,4,8,1.1,322.379,M,-17.561,M,0.6,0000*4C
1627578238319883128,12473,1627578238319647073,gps_frame,$GPGGA,170357.65,4616.76902804,N,11940.87262551,W,4,8,1.1,322.398,M,-17.561,M,0.6,0000*41
1627578238368630160,12474,1627578238368443965,gps_frame,$GPGGA,170357.70,4616.76905657,N,11940.87264876,W,4,8,1.1,322.374,M,-17.561,M,0.7,0000*47
1627578238419609378,12475,1627578238419446945,gps_frame,$GPGGA,170357.75,4616.76907981,N,11940.87263987,W,4,8,1.1,322.366,M,-17.561,M,0.7,0000*4F
1627578238469672168,12476,1627578238469508886,gps_frame,$GPGGA,170357.80,4616.76908466,N,11940.87285230,W,4,8,1.1,322.402,M,-17.561,M,0.8,0000*4B
1627578238519763987,12477,1627578238519578933,gps_frame,$GPGGA,170357.85,4616.76909624,N,11940.87292471,W,4,8,1.1,322.421,M,-17.561,M,0.8,0000*4F
1627578238568768019,12478,1627578238568479061,gps_frame,$GPGGA,170357.90,4616.76912456,N,11940.87295361,W,4,8,1.1,322.401,M,-17.561,M,0.9,0000*44
1627578238619800644,12479,1627578238619556903,gps_frame,$GPGGA,170357.95,4616.76914676,N,11940.87295954,W,4,8,1.1,322.395,M,-17.561,M,0.9,0000*41
1627578238676510425,12480,1627578238676331996,gps_frame,$GPGGA,170358.00,4616.76916182,N,11940.87310524,W,4,8,1.1,322.424,M,-17.561,M,1.0,0000*4E
1627578238719640558,12481,1627578238719455957,gps_frame,$GPGGA,170358.05,4616.76917950,N,11940.87314452,W,4,8,1.1,322.441,M,-17.561,M,1.0,0000*4A
1627578238779973463,12482,1627578238779819011,gps_frame,$GPGGA,170358.10,4616.76919275,N,11940.87326435,W,4,8,1.1,322.436,M,-17.561,M,1.1,0000*4D
1627578238819554161,12483,1627578238819427013,gps_frame,$GPGGA,170358.15,4616.76920762,N,11940.87330310,W,4,8,1.1,322.440,M,-17.561,M,1.1,0000*47
1627578238870510745,12484,1627578238870390892,gps_frame,$GPGGA,170358.20,4616.76922347,N,11940.87339112,W,4,8,1.1,322.444,M,-17.561,M,0.2,0000*4F
1627578238919615039,12485,1627578238919456005,gps_frame,$GPGGA,170358.25,4616.76923897,N,11940.87341828,W,4,8,1.1,322.448,M,-17.561,M,0.2,0000*4E
1627578238968583106,12486,1627578238968436002,gps_frame,$GPGGA,170358.30,4616.76923375,N,11940.87356148,W,4,8,1.1,322.440,M,-17.561,M,0.3,0000*4D
1627578239019644763,12487,1627578239019485950,gps_frame,$GPGGA,170358.35,4616.76923612,N,11940.87361966,W,4,8,1.1,322.436,M,-17.561,M,0.3,0000*4D
1627578239069512693,12488,1627578239069375991,gps_frame,$GPGGA,170358.40,4616.76926918,N,11940.87368069,W,4,8,1.1,322.464,M,-17.561,M,0.4,0000*40
1627578239119671057,12489,1627578239119457006,gps_frame,$GPGGA,170358.45,4616.76929101,N,11940.87372644,W,4,8,1.1,322.480,M,-17.561,M,0.4,0000*42
1627578239168426401,12490,1627578239168245077,gps_frame,$GPGGA,170358.50,4616.76928341,N,11940.87385424,W,4,8,1.1,322.479,M,-17.561,M,0.5,0000*4A
1627578239219561061,12491,1627578239219407081,gps_frame,$GPGGA,170358.55,4616.76928658,N,11940.87390295,W,4,8,1.1,322.483,M,-17.561,M,0.5,0000*4F
1627578239270583174,12492,1627578239270407915,gps_frame,$GPGGA,170358.60,4616.76931283,N,11940.87399456,W,4,8,1.1,322.498,M,-17.561,M,0.6,0000*4A
1627578239319578910,12493,1627578239319427967,gps_frame,$GPGGA,170358.65,4616.76933064,N,11940.87405077,W,4,8,1.1,322.509,M,-17.561,M,0.6,0000*4A
1627578239368690775,12494,1627578239368489027,gps_frame,$GPGGA,170358.70,4616.76933652,N,11940.87415654,W,4,8,1.1,322.505,M,-17.561,M,0.7,0000*46
1627578239419587869,12495,1627578239419460058,gps_frame,$GPGGA,170358.75,4616.76934676,N,11940.87420342,W,4,8,1.1,322.506,M,-17.561,M,0.7,0000*45
1627578239469516851,12496,1627578239469386100,gps_frame,$GPGGA,170358.80,4616.76935337,N,11940.87426480,W,4,8,1.1,322.502,M,-17.561,M,0.8,0000*4A
1627578239519867770,12497,1627578239519649028,gps_frame,$GPGGA,170358.85,4616.76936131,N,11940.87428808,W,4,8,1.1,322.499,M,-17.561,M,0.8,0000*49
1627578239568345540,12498,1627578239568140983,gps_frame,$GPGGA,170358.90,4616.76937254,N,11940.87444358,W,4,8,1.1,322.533,M,-17.561,M,0.9,0000*48
1627578239619597409,12499,1627578239619441032,gps_frame,$GPGGA,170358.95,4616.76938256,N,11940.87452735,W,4,8,1.1,322.554,M,-17.561,M,0.9,0000*49
1627578239676543903,12500,1627578239676362991,gps_frame,$GPGGA,170359.00,4616.76936065,N,11940.87456744,W,4,8,1.1,322.546,M,-17.561,M,1.0,0000*41
1627578239719593764,12501,1627578239719449996,gps_frame,$GPGGA,170359.05,4616.76935042,N,11940.87459697,W,4,8,1.1,322.548,M,-17.561,M,1.0,0000*4C
1627578239779973367,12502,1627578239779804944,gps_frame,$GPGGA,170359.10,4616.76937367,N,11940.87470527,W,4,8,1.1,322.556,M,-17.561,M,1.1,0000*43
1627578239819640181,12503,1627578239819447040,gps_frame,$GPGGA,170359.15,4616.76938467,N,11940.87480121,W,4,8,1.1,322.563,M,-17.561,M,1.1,0000*45
1627578239870468489,12504,1627578239870345115,gps_frame,$GPGGA,170359.20,4616.76935603,N,11940.87483700,W,4,8,1.1,322.585,M,-17.561,M,0.2,0000*42
1627578239919617458,12505,1627578239919461965,gps_frame,$GPGGA,170359.25,4616.76934190,N,11940.87487677,W,4,8,1.1,322.602,M,-17.561,M,0.2,0000*42
1627578239968773068,12506,1627578239968461990,gps_frame,$GPGGA,170359.30,4616.76935168,N,11940.87497885,W,4,8,1.1,322.579,M,-17.561,M,0.3,0000*4C
1627578240019754859,12507,1627578240019514083,gps_frame,$GPGGA,170359.35,4616.76935270,N,11940.87508256,W,4,8,1.1,322.570,M,-17.561,M,0.3,0000*49
1627578240069910733,12508,1627578240069786071,gps_frame,$GPGGA,170359.40,4616.76934852,N,11940.87511237,W,4,8,1.1,322.601,M,-17.561,M,0.4,0000*4D
1627578240119679876,12509,1627578240119466066,gps_frame,$GPGGA,170359.45,4616.76934624,N,11940.87517525,W,4,8,1.1,322.617,M,-17.561,M,0.4,0000*42
1627578240168520861,12510,1627578240168299913,gps_frame,$GPGGA,170359.50,4616.76932927,N,11940.87523050,W,4,8,1.1,322.634,M,-17.561,M,0.5,0000*4C
1627578240219570412,12511,1627578240219427108,gps_frame,$GPGGA,170359.55,4616.76931767,N,11940.87529291,W,4,8,1.1,322.651,M,-17.561,M,0.5,0000*46
1627578240269761074,12512,1627578240269567966,gps_frame,$GPGGA,170359.60,4616.76933799,N,11940.87537005,W,4,8,1.1,322.621,M,-17.561,M,0.6,0000*47
1627578240319763604,12513,1627578240319533109,gps_frame,$GPGGA,170359.65,4616.76934663,N,11940.87546845,W,4,8,1.1,322.609,M,-17.561,M,0.6,0000*41
1627578240368863310,12514,1627578240368596076,gps_frame,$GPGGA,170359.70,4616.76930343,N,11940.87546367,W,4,8,1.1,322.641,M,-17.561,M,0.7,0000*40
1627578240419594500,12515,1627578240419425010,gps_frame,$GPGGA,170359.75,4616.76927922,N,11940.87548459,W,4,8,1.1,322.657,M,-17.561,M,0.7,0000*4D
1627578240469624393,12516,1627578240469408035,gps_frame,$GPGGA,170359.80,4616.76929451,N,11940.87562905,W,4,8,1.1,322.664,M,-17.561,M,0.8,0000*43
1627578240519741206,12517,1627578240519526958,gps_frame,$GPGGA,170359.85,4616.76929534,N,11940.87577614,W,4,8,1.1,322.674,M,-17.561,M,0.8,0000*4E
1627578240568578800,12518,1627578240568361997,gps_frame,$GPGGA,170359.90,4616.76925734,N,11940.87571048,W,4,8,1.1,322.673,M,-17.561,M,0.9,0000*4B
1627578240619788809,12519,1627578240619546890,gps_frame,$GPGGA,170359.95,4616.76923355,N,11940.87573506,W,4,8,1.1,322.675,M,-17.561,M,0.9,0000*40
1627578240676657875,12520,1627578240676423072,gps_frame,$GPGGA,170400.00,4616.76922788,N,11940.87584178,W,4,8,1.1,322.703,M,-17.561,M,1.0,0000*4F
1627578240720018293,12521,1627578240719759941,gps_frame,$GPGGA,170400.05,4616.76921558,N,11940.87596990,W,4,8,1.1,322.722,M,-17.561,M,1.0,0000*48
1627578240780122726,12522,1627578240779958009,gps_frame,$GPGGA,170400.10,4616.76920248,N,11940.87596147,W,4,8,1.1,322.713,M,-17.561,M,1.1,0000*4A
1627578240819774699,12523,1627578240819572925,gps_frame,$GPGGA,170400.15,4616.76918966,N,11940.87604380,W,4,8,1.1,322.715,M,-17.561,M,1.1,0000*44
1627578240870611242,12524,1627578240870352983,gps_frame,$GPGGA,170400.20,4616.76916735,N,11940.87606558,W,4,8,1.1,322.717,M,-17.561,M,0.2,0000*45
1627578240919784596,12525,1627578240919631958,gps_frame,$GPGGA,170400.25,4616.76914851,N,11940.87614471,W,4,8,1.1,322.719,M,-17.561,M,0.2,0000*48
1627578240968737125,12526,1627578240968534946,gps_frame,$GPGGA,170400.30,4616.76914770,N,11940.87619389,W,4,8,1.1,322.722,M,-17.561,M,0.3,0000*44
1627578241019531754,12527,1627578241019408941,gps_frame,$GPGGA,170400.35,4616.76914029,N,11940.87630267,W,4,8,1.1,322.725,M,-17.561,M,0.3,0000*47
1627578241069749820,12528,1627578241069490909,gps_frame,$GPGGA,170400.40,4616.76910187,N,11940.87630084,W,4,8,1.1,322.751,M,-17.561,M,0.4,0000*4F
1627578241119593779,12529,1627578241119424104,gps_frame,$GPGGA,170400.45,4616.76907480,N,11940.87636671,W,4,8,1.1,322.769,M,-17.561,M,0.4,0000*4F
1627578241168311960,12530,1627578241168144941,gps_frame,$GPGGA,170400.50,4616.76907397,N,11940.87640741,W,4,8,1.1,322.782,M,-17.561,M,0.5,0000*4D
1627578241219643442,12531,1627578241219459056,gps_frame,$GPGGA,170400.55,4616.76906353,N,11940.87652080,W,4,8,1.1,322.796,M,-17.561,M,0.5,0000*4D
1627578241270605771,12532,1627578241270406007,gps_frame,$GPGGA,170400.60,4616.76904258,N,11940.87652729,W,4,8,1.1,322.785,M,-17.561,M,0.6,0000*46
1627578241319778127,12533,1627578241319528102,gps_frame,$GPGGA,170400.65,4616.76902549,N,11940.87661155,W,4,8,1.1,322.782,M,-17.561,M,0.6,0000*48
1627578241369632311,12534,1627578241369199991,gps_frame,$GPGGA,170400.70,4616.76900992,N,11940.87664529,W,4,8,1.1,322.800,M,-17.561,M,0.7,0000*4A
1627578241419581741,12535,1627578241419428110,gps_frame,$GPGGA,170400.75,4616.76899379,N,11940.87674098,W,4,8,1.1,322.810,M,-17.561,M,0.7,0000*4E
1627578241469681337,12536,1627578241469475984,gps_frame,$GPGGA,170400.80,4616.76897552,N,11940.87674875,W,4,8,1.1,322.804,M,-17.561,M,0.8,0000*44
1627578241519612863,12537,1627578241519443035,gps_frame,$GPGGA,170400.85,4616.76895804,N,11940.87683395,W,4,8,1.1,322.804,M,-17.561,M,0.8,0000*40
1627578241568324080,12538,1627578241568172931,gps_frame,$GPGGA,170400.90,4616.76893430,N,11940.87685218,W,4,8,1.1,322.828,M,-17.561,M,0.9,0000*44
1627578241619728427,12539,1627578241619468927,gps_frame,$GPGGA,170400.95,4616.76891285,N,11940.87694254,W,4,8,1.1,322.843,M,-17.561,M,0.9,0000*4E
1627578241676563911,12540,1627578241676346063,gps_frame,$GPGGA,170401.00,4616.76889912,N,11940.87694486,W,4,8,1.1,322.834,M,-17.561,M,1.0,0000*4E
1627578241719681720,12541,1627578241719523906,gps_frame,$GPGGA,170401.05,4616.76888257,N,11940.87703649,W,4,8,1.1,322.834,M,-17.561,M,1.0,0000*4E
1627578241779796175,12542,1627578241779638051,gps_frame,$GPGGA,170401.10,4616.76884786,N,11940.87705915,W,4,8,1.1,322.851,M,-17.561,M,1.1,0000*4D
1627578241819868189,12543,1627578241819660902,gps_frame,$GPGGA,170401.15,4616.76881980,N,11940.87715576,W,4,8,1.1,322.861,M,-17.561,M,1.1,0000*4E
1627578241870562564,12544,1627578241870413064,gps_frame,$GPGGA,170401.20,4616.76881606,N,11940.87716441,W,4,8,1.1,322.858,M,-17.561,M,0.2,0000*47
1627578241919548054,12545,1627578241919430971,gps_frame,$GPGGA,170401.25,4616.76880341,N,11940.87727623,W,4,8,1.1,322.860,M,-17.561,M,0.2,0000*4A
1627578241968651237,12546,1627578241968463897,gps_frame,$GPGGA,170401.30,4616.76878124,N,11940.87726965,W,4,8,1.1,322.864,M,-17.561,M,0.3,0000*41
1627578242019595674,12547,1627578242019494056,gps_frame,$GPGGA,170401.35,4616.76876255,N,11940.87735045,W,4,8,1.1,322.868,M,-17.561,M,0.3,0000*4A
1627578242069929935,12548,1627578242069720029,gps_frame,$GPGGA,170401.40,4616.76873682,N,11940.87739096,W,4,8,1.1,322.890,M,-17.561,M,0.4,0000*41
1627578242119715887,12549,1627578242119484901,gps_frame,$GPGGA,170401.45,4616.76871367,N,11940.87749444,W,4,8,1.1,322.905,M,-17.561,M,0.4,0000*49
1627578242168256970,12550,1627578242168035030,gps_frame,$GPGGA,170401.50,4616.76868073,N,11940.87748784,W,4,8,1.1,322.896,M,-17.561,M,0.5,0000*47
1627578242219672996,12551,1627578242219501972,gps_frame,$GPGGA,170401.55,4616.76865138,N,11940.87758305,W,4,8,1.1,322.896,M,-17.561,M,0.5,0000*4D
1627578242269631889,12552,1627578242269493103,gps_frame,$GPGGA,170401.60,4616.76862892,N,11940.87757163,W,4,8,1.1,322.905,M,-17.561,M,0.6,0000*40
1627578242319757781,12553,1627578242319595098,gps_frame,$GPGGA,170401.65,4616.76860394,N,11940.87767691,W,4,8,1.1,322.911,M,-17.561,M,0.6,0000*46
1627578242368631894,12554,1627578242368463993,gps_frame,$GPGGA,170401.70,4616.76855140,N,11940.87768214,W,4,8,1.1,322.917,M,-17.561,M,0.7,0000*4E
1627578242419818426,12555,1627578242419488906,gps_frame,$GPGGA,170401.75,4616.76850896,N,11940.87779573,W,4,8,1.1,322.923,M,-17.561,M,0.7,0000*4D
1627578242469547998,12556,1627578242469363927,gps_frame,$GPGGA,170401.80,4616.76850616,N,11940.87777015,W,4,8,1.1,322.952,M,-17.561,M,0.8,0000*43
1627578242519712590,12557,1627578242519495010,gps_frame,$GPGGA,170401.85,4616.76848884,N,11940.87790285,W,4,8,1.1,322.973,M,-17.561,M,0.8,0000*4B
1627578242568314758,12558,1627578242568170070,gps_frame,$GPGGA,170401.90,4616.76843890,N,11940.87789647,W,4,8,1.1,322.952,M,-17.561,M,0.9,0000*41
1627578242619752927,12559,1627578242619611978,gps_frame,$GPGGA,170401.95,4616.76840091,N,11940.87800365,W,4,8,1.1,322.946,M,-17.561,M,0.9,0000*40
1627578242676374742,12560,1627578242676244020,gps_frame,$GPGGA,170402.00,4616.76837942,N,11940.87800245,W,4,8,1.1,322.957,M,-17.561,M,1.0,0000*43
1627578242719990222,12561,1627578242719693899,gps_frame,$GPGGA,170402.05,4616.76835190,N,11940.87813405,W,4,8,1.1,322.962,M,-17.561,M,1.0,0000*45
1627578242779951558,12562,1627578242779778957,gps_frame,$GPGGA,170402.10,4616.76829744,N,11940.87809931,W,4,8,1.1,322.976,M,-17.561,M,1.1,0000*46
1627578242819614010,12563,1627578242819466114,gps_frame,$GPGGA,170402.15,4616.76825284,N,11940.87820781,W,4,8,1.1,322.986,M,-17.561,M,1.1,0000*47
1627578242870571545,12564,1627578242870403051,gps_frame,$GPGGA,170402.20,4616.76821591,N,11940.87820971,W,4,8,1.1,323.003,M,-17.561,M,0.2,0000*40
1627578242919599050,12565,1627578242919445991,gps_frame,$GPGGA,170402.25,4616.76817617,N,11940.87836416,W,4,8,1.1,323.017,M,-17.561,M,0.2,0000*43
1627578242968612793,12566,1627578242968398094,gps_frame,$GPGGA,170402.30,4616.76815012,N,11940.87829976,W,4,8,1.1,322.982,M,-17.561,M,0.3,0000*46
1627578243019687232,12567,1627578243019557952,gps_frame,$GPGGA,170402.35,4616.76811906,N,11940.87842836,W,4,8,1.1,322.965,M,-17.561,M,0.3,0000*4A
1627578243069636407,12568,1627578243069425106,gps_frame,$GPGGA,170402.40,4616.76804557,N,11940.87840481,W,4,8,1.1,323.027,M,-17.561,M,0.4,0000*4F
1627578243119662662,12569,1627578243119488954,gps_frame,$GPGGA,170402.45,4616.76798762,N,11940.87852806,W,4,8,1.1,323.060,M,-17.561,M,0.4,0000*47
1627578243168343502,12570,1627578243168170928,gps_frame,$GPGGA,170402.50,4616.76797699,N,11940.87851100,W,4,8,1.1,323.015,M,-17.561,M,0.5,0000*46
1627578243219699701,12571,1627578243219558000,gps_frame,$GPGGA,170402.55,4616.76794904,N,11940.87869007,W,4,8,1.1,322.999,M,-17.561,M,0.5,0000*4A
1627578243270516247,12572,1627578243270374059,gps_frame,$GPGGA,170402.60,4616.76787626,N,11940.87862286,W,4,8,1.1,323.030,M,-17.561,M,0.6,0000*49
1627578243319663430,12573,1627578243319509029,gps_frame,$GPGGA,170402.65,4616.76781989,N,11940.87874076,W,4,8,1.1,323.044,M,-17.561,M,0.6,0000*49
1627578243369243916,12574,1627578243368490934,gps_frame,$GPGGA,170402.70,4616.76778854,N,11940.87871327,W,4,8,1.1,323.036,M,-17.561,M,0.7,0000*4C
1627578243419856877,12575,1627578243419644117,gps_frame,$GPGGA,170402.75,4616.76774803,N,11940.87887848,W,4,8,1.1,323.036,M,-17.561,M,0.7,0000*4C
1627578243469738960,12576,1627578243469448089,gps_frame,$GPGGA,170402.80,4616.76766931,N,11940.87880703,W,4,8,1.1,323.060,M,-17.561,M,0.8,0000*4E
1627578243519678634,12577,1627578243519496917,gps_frame,$GPGGA,170402.85,4616.76760457,N,11940.87894368,W,4,8,1.1,323.076,M,-17.561,M,0.8,0000*4B
1627578243568396407,12578,1627578243568219900,gps_frame,$GPGGA,170402.90,4616.76757312,N,11940.87891219,W,4,8,1.1,323.083,M,-17.561,M,0.9,0000*44
1627578243619609623,12579,1627578243619445085,gps_frame,$GPGGA,170402.95,4616.76752948,N,11940.87910735,W,4,8,1.1,323.093,M,-17.561,M,0.9,0000*43
1627578243676551709,12580,1627578243676390886,gps_frame,$GPGGA,170403.00,4616.76746408,N,11940.87903522,W,4,8,1.1,323.067,M,-17.561,M,1.0,0000*47
1627578243719597385,12581,1627578243719450950,gps_frame,$GPGGA,170403.05,4616.76740665,N,11940.87919413,W,4,8,1.1,323.054,M,-17.561,M,1.0,0000*45
1627578243779819172,12582,1627578243779671907,gps_frame,$GPGGA,170403.10,4616.76732702,N,11940.87913705,W,4,8,1.1,323.103,M,-17.561,M,1.1,0000*48
1627578243819578592,12583,1627578243819432973,gps_frame,$GPGGA,170403.15,4616.76725552,N,11940.87931002,W,4,8,1.1,323.129,M,-17.561,M,1.1,0000*44
1627578243870644030,12584,1627578243870454072,gps_frame,$GPGGA,170403.20,4616.76726648,N,11940.87920201,W,4,8,1.1,323.066,M,-17.561,M,0.2,0000*40
1627578243919551639,12585,1627578243919425964,gps_frame,$GPGGA,170403.25,4616.76724725,N,11940.87938663,W,4,8,1.1,323.036,M,-17.561,M,0.2,0000*41
1627578243968651780,12586,1627578243968450069,gps_frame,$GPGGA,170403.30,4616.76709875,N,11940.87929987,W,4,8,1.1,323.120,M,-17.561,M,0.3,0000*42
1627578244019808064,12587,1627578244019608020,gps_frame,$GPGGA,170403.35,4616.76699757,N,11940.87939627,W,4,8,1.1,323.161,M,-17.561,M,0.3,0000*41
1627578244069787150,12588,1627578244069664001,gps_frame,$GPGGA,170403.40,4616.76700639,N,11940.87939081,W,4,8,1.1,323.128,M,-17.561,M,0.4,0000*4B
1627578244119829973,12589,1627578244119590044,gps_frame,$GPGGA,170403.45,4616.76697494,N,11940.87965489,W,4,8,1.1,323.122,M,-17.561,M,0.4,0000*4B
1627578244168286249,12590,1627578244168075084,gps_frame,$GPGGA,170403.50,4616.76691604,N,11940.87942702,W,4,8,1.1,323.103,M,-17.561,M,0.5,0000*45
1627578244219588117,12591,1627578244219450950,gps_frame,$GPGGA,170403.55,4616.76686718,N,11940.87950712,W,4,8,1.1,323.089,M,-17.561,M,0.5,0000*4B
1627578244269640937,12592,1627578244269517898,gps_frame,$GPGGA,170403.60,4616.76676205,N,11940.87958286,W,4,8,1.1,323.145,M,-17.561,M,0.6,0000*49
1627578244319587005,12593,1627578244319466114,gps_frame,$GPGGA,170403.65,4616.76667752,N,11940.87978531,W,4,8,1.1,323.175,M,-17.561,M,0.6,0000*41
1627578244368942715,12594,1627578244368746995,gps_frame,$GPGGA,170403.70,4616.76668775,N,11940.87963023,W,4,8,1.1,323.126,M,-17.561,M,0.7,0000*44
1627578244419736388,12595,1627578244419531106,gps_frame,$GPGGA,170403.75,4616.76666328,N,11940.87981925,W,4,8,1.1,323.106,M,-17.561,M,0.7,0000*42
1627578244469534072,12596,1627578244469383001,gps_frame,$GPGGA,170403.80,4616.76656892,N,11940.87969867,W,4,8,1.1,323.130,M,-17.561,M,0.8,0000*4A
1627578244519719153,12597,1627578244519500017,gps_frame,$GPGGA,170403.85,4616.76650015,N,11940.87979432,W,4,8,1.1,323.138,M,-17.561,M,0.8,0000*4B
1627578244568283571,12598,1627578244568074941,gps_frame,$GPGGA,170403.90,4616.76647019,N,11940.87982038,W,4,8,1.1,323.129,M,-17.561,M,0.9,0000*4E
1627578244619614918,12599,1627578244619462013,gps_frame,$GPGGA,170403.95,4616.76642603,N,11940.88003645,W,4,8,1.1,323.125,M,-17.561,M,0.9,0000*4C
1627578244676470818,12600,1627578244676328897,gps_frame,$GPGGA,170404.00,4616.76637676,N,11940.87982136,W,4,8,1.1,323.137,M,-17.561,M,1.0,0000*40
1627578244719620326,12601,1627578244719455957,gps_frame,$GPGGA,170404.05,4616.76632936,N,11940.87990081,W,4,8,1.1,323.144,M,-17.561,M,1.0,0000*41
1627578244780069266,12602,1627578244779841899,gps_frame,$GPGGA,170404.10,4616.76626437,N,11940.87993170,W,4,8,1.1,323.161,M,-17.561,M,1.1,0000*46
1627578244819988623,12603,1627578244819721937,gps_frame,$GPGGA,170404.15,4616.76620582,N,11940.88010974,W,4,8,1.1,323.174,M,-17.561,M,1.1,0000*4F
1627578244870840208,12604,1627578244870563030,gps_frame,$GPGGA,170404.20,4616.76615544,N,11940.87999521,W,4,8,1.1,323.153,M,-17.561,M,0.2,0000*49
1627578244919593837,12605,1627578244919431924,gps_frame,$GPGGA,170404.25,4616.76610206,N,11940.88014340,W,4,8,1.1,323.144,M,-17.561,M,0.2,0000*4C
1627578244968640440,12606,1627578244968447923,gps_frame,$GPGGA,170404.30,4616.76606235,N,11940.88002212,W,4,8,1.1,323.165,M,-17.561,M,0.3,0000*4C
1627578245020069009,12607,1627578245019711017,gps_frame,$GPGGA,170404.35,4616.76601763,N,11940.88015032,W,4,8,1.1,323.174,M,-17.561,M,0.3,0000*4E
1627578245069683199,12608,1627578245069503068,gps_frame,$GPGGA,170404.40,4616.76595769,N,11940.88011894,W,4,8,1.1,323.163,M,-17.561,M,0.4,0000*49
1627578245119624206,12609,1627578245119452953,gps_frame,$GPGGA,170404.45,4616.76590332,N,11940.88027488,W,4,8,1.1,323.160,M,-17.561,M,0.4,0000*44
1627578245168364947,12610,1627578245168190002,gps_frame,$GPGGA,170404.50,4616.76585893,N,11940.88014564,W,4,8,1.1,323.184,M,-17.561,M,0.5,0000*4C
1627578245219629119,12611,1627578245219456911,gps_frame,$GPGGA,170404.55,4616.76581089,N,11940.88026570,W,4,8,1.1,323.197,M,-17.561,M,0.5,0000*48
1627578245270562461,12612,1627578245270354986,gps_frame,$GPGGA,170404.60,4616.76577033,N,11940.88019594,W,4,8,1.1,323.178,M,-17.561,M,0.6,0000*42
1627578245319677025,12613,1627578245319494962,gps_frame,$GPGGA,170404.65,4616.76572703,N,11940.88033242,W,4,8,1.1,323.172,M,-17.561,M,0.6,0000*48
1627578245369107725,12614,1627578245368863105,gps_frame,$GPGGA,170404.70,4616.76566077,N,11940.88030691,W,4,8,1.1,323.175,M,-17.561,M,0.7,0000*42
1627578245419644597,12615,1627578245419477939,gps_frame,$GPGGA,170404.75,4616.76560291,N,11940.88046338,W,4,8,1.1,323.174,M,-17.561,M,0.7,0000*4D
1627578245469673236,12616,1627578245469451904,gps_frame,$GPGGA,170404.80,4616.76555831,N,11940.88035750,W,4,8,1.1,323.180,M,-17.561,M,0.8,0000*4B
1627578245519886095,12617,1627578245519606113,gps_frame,$GPGGA,170404.85,4616.76550885,N,11940.88049936,W,4,8,1.1,323.184,M,-17.561,M,0.8,0000*45
1627578245568347928,12618,1627578245568222045,gps_frame,$GPGGA,170404.90,4616.76544423,N,11940.88043655,W,4,8,1.1,323.210,M,-17.561,M,0.9,0000*4B
1627578245619712877,12619,1627578245619549989,gps_frame,$GPGGA,170404.95,4616.76538517,N,11940.88059055,W,4,8,1.1,323.228,M,-17.561,M,0.9,0000*45
1627578245676612561,12620,1627578245676410913,gps_frame,$GPGGA,170405.00,4616.76535474,N,11940.88049663,W,4,8,1.1,323.201,M,-17.561,M,1.0,0000*40
1627578245719875881,12621,1627578245719583034,gps_frame,$GPGGA,170405.05,4616.76531383,N,11940.88065142,W,4,8,1.1,323.191,M,-17.561,M,1.0,0000*4E
1627578245779890613,12622,1627578245779699087,gps_frame,$GPGGA,170405.10,4616.76523522,N,11940.88053795,W,4,8,1.1,323.202,M,-17.561,M,1.1,0000*45
1627578245819586468,12623,1627578245819459915,gps_frame,$GPGGA,170405.15,4616.76517041,N,11940.88064660,W,4,8,1.1,323.205,M,-17.561,M,1.1,0000*4F
1627578245870602152,12624,1627578245870417118,gps_frame,$GPGGA,170405.20,4616.76511620,N,11940.88065152,W,4,8,1.1,323.200,M,-17.561,M,0.2,0000*4E
1627578245919661241,12625,1627578245919456005,gps_frame,$GPGGA,170405.25,4616.76505811,N,11940.88085992,W,4,8,1.1,323.198,M,-17.561,M,0.2,0000*4A
1627578245968701237,12626,1627578245968477010,gps_frame,$GPGGA,170405.30,4616.76503035,N,11940.88070396,W,4,8,1.1,323.195,M,-17.561,M,0.3,0000*4E
1627578246019664348,12627,1627578246019464969,gps_frame,$GPGGA,170405.35,4616.76499148,N,11940.88084617,W,4,8,1.1,323.192,M,-17.561,M,0.3,0000*42
1627578246069761873,12628,1627578246069576978,gps_frame,$GPGGA,170405.40,4616.76491554,N,11940.88080350,W,4,8,1.1,323.209,M,-17.561,M,0.4,0000*45
1627578246119645846,12629,1627578246119479894,gps_frame,$GPGGA,170405.45,4616.76485317,N,11940.88094739,W,4,8,1.1,323.219,M,-17.561,M,0.4,0000*4B
1627578246168444821,12630,1627578246168263912,gps_frame,$GPGGA,170405.50,4616.76479980,N,11940.88085009,W,4,8,1.1,323.247,M,-17.561,M,0.5,0000*46
1627578246219627542,12631,1627578246219496011,gps_frame,$GPGGA,170405.55,4616.76474314,N,11940.88100006,W,4,8,1.1,323.269,M,-17.561,M,0.5,0000*46
1627578246269695972,12632,1627578246269520998,gps_frame,$GPGGA,170405.60,4616.76469450,N,11940.88089631,W,4,8,1.1,323.236,M,-17.561,M,0.6,0000*40
1627578246319750691,12633,1627578246319520950,gps_frame,$GPGGA,170405.65,4616.76464292,N,11940.88104569,W,4,8,1.1,323.224,M,-17.561,M,0.6,0000*49
1627578246368664264,12634,1627578246368474960,gps_frame,$GPGGA,170405.70,4616.76458236,N,11940.88096940,W,4,8,1.1,323.215,M,-17.561,M,0.7,0000*42
1627578246419723497,12635,1627578246419529914,gps_frame,$GPGGA,170405.75,4616.76452509,N,11940.88112154,W,4,8,1.1,323.204,M,-17.561,M,0.7,0000*46
1627578246469692990,12636,1627578246469465017,gps_frame,$GPGGA,170405.80,4616.76443961,N,11940.88105101,W,4,8,1.1,323.252,M,-17.561,M,0.8,0000*44
1627578246519822527,12637,1627578246519553899,gps_frame,$GPGGA,170405.85,4616.76436445,N,11940.88121726,W,4,8,1.1,323.279,M,-17.561,M,0.8,0000*44
1627578246568280021,12638,1627578246568172931,gps_frame,$GPGGA,170405.90,4616.76433961,N,11940.88110540,W,4,8,1.1,323.258,M,-17.561,M,0.9,0000*4C
1627578246619751872,12639,1627578246619514942,gps_frame,$GPGGA,170405.95,4616.76429635,N,11940.88129301,W,4,8,1.1,323.254,M,-17.561,M,0.9,0000*49
1627578246676436395,12640,1627578246676275014,gps_frame,$GPGGA,170406.00,4616.76422435,N,11940.88116466,W,4,8,1.1,323.232,M,-17.561,M,1.0,0000*4D
1627578246719648913,12641,1627578246719466924,gps_frame,$GPGGA,170406.05,4616.76416288,N,11940.88129043,W,4,8,1.1,323.217,M,-17.561,M,1.0,0000*47
1627578246779995437,12642,1627578246779800891,gps_frame,$GPGGA,170406.10,4616.76408779,N,11940.88124312,W,4,8,1.1,323.250,M,-17.561,M,1.1,0000*4F
1627578246819863736,12643,1627578246819622039,gps_frame,$GPGGA,170406.15,4616.76401768,N,11940.88141877,W,4,8,1.1,323.265,M,-17.561,M,1.1,0000*4E
1627578246870510983,12644,1627578246870338916,gps_frame,$GPGGA,170406.20,4616.76395581,N,11940.88131209,W,4,8,1.1,323.288,M,-17.561,M,0.2,0000*42
1627578246919863675,12645,1627578246919672966,gps_frame,$GPGGA,170406.25,4616.76389092,N,11940.88149786,W,4,8,1.1,323.308,M,-17.561,M,0.2,0000*49
1627578246968607371,12646,1627578246968416929,gps_frame,$GPGGA,170406.30,4616.76388856,N,11940.88138000,W,4,8,1.1,323.232,M,-17.561,M,0.3,0000*4A
1627578247019766293,12647,1627578247019587993,gps_frame,$GPGGA,170406.35,4616.76386330,N,11940.88155603,W,4,8,1.1,323.191,M,-17.561,M,0.3,0000*4E
1627578247069759589,12648,1627578247069473981,gps_frame,$GPGGA,170406.40,4616.76372874,N,11940.88145684,W,4,8,1.1,323.273,M,-17.561,M,0.4,0000*4A
1627578247119757357,12649,1627578247119621038,gps_frame,$GPGGA,170406.45,4616.76363419,N,11940.88155152,W,4,8,1.1,323.309,M,-17.561,M,0.4,0000*49
1627578247168175416,12650,1627578247168037891,gps_frame,$GPGGA,170406.50,4616.76359976,N,11940.88152404,W,4,8,1.1,323.298,M,-17.561,M,0.5,0000*49
1627578247219879055,12651,1627578247219614028,gps_frame,$GPGGA,170406.55,4616.76354332,N,11940.88176259,W,4,8,1.1,323.304,M,-17.561,M,0.5,0000*47
1627578247270567365,12652,1627578247270411014,gps_frame,$GPGGA,170406.60,4616.76355409,N,11940.88154671,W,4,8,1.1,323.246,M,-17.561,M,0.6,0000*45
1627578247319622635,12653,1627578247319497108,gps_frame,$GPGGA,170406.65,4616.76354026,N,11940.88167577,W,4,8,1.1,323.212,M,-17.561,M,0.6,0000*4C
1627578247369412564,12654,1627578247369214057,gps_frame,$GPGGA,170406.70,4616.76339225,N,11940.88167527,W,4,8,1.1,323.288,M,-17.561,M,0.7,0000*45
1627578247419893720,12655,1627578247419554948,gps_frame,$GPGGA,170406.75,4616.76329336,N,11940.88178543,W,4,8,1.1,323.324,M,-17.561,M,0.7,0000*49
1627578247470465844,12656,1627578247470211982,gps_frame,$GPGGA,170406.80,4616.76328209,N,11940.88173321,W,4,8,1.1,323.293,M,-17.561,M,0.8,0000*44
1627578247519753045,12657,1627578247519536018,gps_frame,$GPGGA,170406.85,4616.76323874,N,11940.88196452,W,4,8,1.1,323.287,M,-17.561,M,0.8,0000*47
1627578247568268263,12658,1627578247568123102,gps_frame,$GPGGA,170406.90,4616.76319703,N,11940.88173016,W,4,8,1.1,323.271,M,-17.561,M,0.9,0000*42
1627578247619671783,12659,1627578247619472026,gps_frame,$GPGGA,170406.95,4616.76315471,N,11940.88181881,W,4,8,1.1,323.259,M,-17.561,M,0.9,0000*4C
1627578247676538012,12660,1627578247676362037,gps_frame,$GPGGA,170407.00,4616.76306066,N,11940.88188110,W,4,8,1.1,323.294,M,-17.561,M,1.0,0000*40
1627578247719841870,12661,1627578247719573020,gps_frame,$GPGGA,170407.05,4616.76298554,N,11940.88207082,W,4,8,1.1,323.312,M,-17.561,M,1.0,0000*46
1627578247779806250,12662,1627578247779654026,gps_frame,$GPGGA,170407.10,4616.76295799,N,11940.88189948,W,4,8,1.1,323.298,M,-17.561,M,1.1,0000*44
1627578247819735736,12663,1627578247819535970,gps_frame,$GPGGA,170407.15,4616.76291302,N,11940.88204915,W,4,8,1.1,323.295,M,-17.561,M,1.1,0000*40
1627578247870534985,12664,1627578247870325088,gps_frame,$GPGGA,170407.20,4616.76284676,N,11940.88195488,W,4,8,1.1,323.308,M,-17.561,M,0.2,0000*41
1627578247919781686,12665,1627578247919568061,gps_frame,$GPGGA,170407.25,4616.76278830,N,11940.88209207,W,4,8,1.1,323.315,M,-17.561,M,0.2,0000*40
1627578247968620447,12666,1627578247968436956,gps_frame,$GPGGA,170407.30,4616.76276121,N,11940.88203218,W,4,8,1.1,323.281,M,-17.561,M,0.3,0000*4A
1627578248019882432,12667,1627578248019644021,gps_frame,$GPGGA,170407.35,4616.76272263,N,11940.88219844,W,4,8,1.1,323.262,M,-17.561,M,0.3,0000*4B
1627578248069953521,12668,1627578248069717884,gps_frame,$GPGGA,170407.40,4616.76260977,N,11940.88204624,W,4,8,1.1,323.334,M,-17.561,M,0.4,0000*45
1627578248120029445,12669,1627578248119808912,gps_frame,$GPGGA,170407.45,4616.76252410,N,11940.88212908,W,4,8,1.1,323.373,M,-17.561,M,0.4,0000*48
1627578248168170692,12670,1627578248168009996,gps_frame,$GPGGA,170407.50,4616.76251963,N,11940.88208233,W,4,8,1.1,323.345,M,-17.561,M,0.5,0000*4A
1627578248219817675,12671,1627578248219523906,gps_frame,$GPGGA,170407.55,4616.76248544,N,11940.88229271,W,4,8,1.1,323.342,M,-17.561,M,0.5,0000*4C
1627578248269933935,12672,1627578248269681930,gps_frame,$GPGGA,170407.60,4616.76245174,N,11940.88218807,W,4,8,1.1,323.329,M,-17.561,M,0.6,0000*47
1627578248319761800,12673,1627578248319581031,gps_frame,$GPGGA,170407.65,4616.76241787,N,11940.88232356,W,4,8,1.1,323.319,M,-17.561,M,0.6,0000*48
1627578248368675607,12674,1627578248368474960,gps_frame,$GPGGA,170407.70,4616.76230668,N,11940.88223458,W,4,8,1.1,323.357,M,-17.561,M,0.7,0000*48
1627578248419655977,12675,1627578248419509887,gps_frame,$GPGGA,170407.75,4616.76222379,N,11940.88232178,W,4,8,1.1,323.377,M,-17.561,M,0.7,0000*4E
1627578248469787826,12676,1627578248469464063,gps_frame,$GPGGA,170407.80,4616.76221926,N,11940.88230370,W,4,8,1.1,323.353,M,-17.561,M,0.8,0000*46
1627578248519917481,12677,1627578248519725084,gps_frame,$GPGGA,170407.85,4616.76218605,N,11940.88252504,W,4,8,1.1,323.346,M,-17.561,M,0.8,0000*42
1627578248568294721,12678,1627578248568142890,gps_frame,$GPGGA,170407.90,4616.76210868,N,11940.88235699,W,4,8,1.1,323.343,M,-17.561,M,0.9,0000*49
1627578248619856247,12679,1627578248619577884,gps_frame,$GPGGA,170407.95,4616.76204748,N,11940.88245252,W,4,8,1.1,323.338,M,-17.561,M,0.9,0000*4C
1627578248676789108,12680,1627578248676505088,gps_frame,$GPGGA,170408.00,4616.76201020,N,11940.88240380,W,4,8,1.1,323.352,M,-17.561,M,1.0,0000*4C
1627578248720062535,12681,1627578248719759941,gps_frame,$GPGGA,170408.05,4616.76196416,N,11940.88256101,W,4,8,1.1,323.359,M,-17.561,M,1.0,0000*42
1627578248780064442,12682,1627578248779877901,gps_frame,$GPGGA,170408.10,4616.76188060,N,11940.88247615,W,4,8,1.1,323.381,M,-17.561,M,1.1,0000*4A
1627578248819708628,12683,1627578248819499015,gps_frame,$GPGGA,170408.15,4616.76181077,N,11940.88261627,W,4,8,1.1,323.398,M,-17.561,M,1.1,0000*4D
1627578248870692457,12684,1627578248870410919,gps_frame,$GPGGA,170408.20,4616.76179669,N,11940.88252659,W,4,8,1.1,323.388,M,-17.561,M,0.2,0000*4F
1627578248919669411,12685,1627578248919481039,gps_frame,$GPGGA,170408.25,4616.76176220,N,11940.88270047,W,4,8,1.1,323.388,M,-17.561,M,0.2,0000*45
1627578248968708274,12686,1627578248968453884,gps_frame,$GPGGA,170408.30,4616.76168031,N,11940.88259471,W,4,8,1.1,323.391,M,-17.561,M,0.3,0000*4F
1627578249020048699,12687,1627578249019761085,gps_frame,$GPGGA,170408.35,4616.76161578,N,11940.88270750,W,4,8,1.1,323.394,M,-17.561,M,0.3,0000*45
1627578249069586302,12688,1627578249069355010,gps_frame,$GPGGA,170408.40,4616.76155281,N,11940.88264139,W,4,8,1.1,323.436,M,-17.561,M,0.4,0000*45
1627578249119786975,12689,1627578249119585037,gps_frame,$GPGGA,170408.45,4616.76148927,N,11940.88280191,W,4,8,1.1,323.464,M,-17.561,M,0.4,0000*44
1627578249168146869,12690,1627578249168004035,gps_frame,$GPGGA,170408.50,4616.76146975,N,11940.88270593,W,4,8,1.1,323.402,M,-17.561,M,0.5,0000*41
1627578249219875552,12691,1627578249219530105,gps_frame,$GPGGA,170408.55,4616.76143411,N,11940.88288040,W,4,8,1.1,323.373,M,-17.561,M,0.5,0000*43
1627578249270598952,12692,1627578249270438909,gps_frame,$GPGGA,170408.60,4616.76134897,N,11940.88277338,W,4,8,1.1,323.448,M,-17.561,M,0.6,0000*47
1627578249319950672,12693,1627578249319729089,gps_frame,$GPGGA,170408.65,4616.76128195,N,11940.88288443,W,4,8,1.1,323.486,M,-17.561,M,0.6,0000*4D
1627578249368742107,12694,1627578249368494987,gps_frame,$GPGGA,170408.70,4616.76125721,N,11940.88284135,W,4,8,1.1,323.433,M,-17.561,M,0.7,0000*4A
1627578249419636498,12695,1627578249419440984,gps_frame,$GPGGA,170408.75,4616.76121700,N,11940.88302193,W,4,8,1.1,323.414,M,-17.561,M,0.7,0000*4E
1627578249469696080,12696,1627578249469434022,gps_frame,$GPGGA,170408.80,4616.76114923,N,11940.88288019,W,4,8,1.1,323.429,M,-17.561,M,0.8,0000*4C
1627578249519706418,12697,1627578249519582033,gps_frame,$GPGGA,170408.85,4616.76109154,N,11940.88298349,W,4,8,1.1,323.432,M,-17.561,M,0.8,0000*40
1627578249568170314,12698,1627578249568042993,gps_frame,$GPGGA,170408.90,4616.76103649,N,11940.88298227,W,4,8,1.1,323.457,M,-17.561,M,0.9,0000*4E
1627578249619793217,12699,1627578249619571924,gps_frame,$GPGGA,170408.95,4616.76098047,N,11940.88316885,W,4,8,1.1,323.473,M,-17.561,M,0.9,0000*43
1627578249676512023,12700,1627578249676362991,gps_frame,$GPGGA,170409.00,4616.76094459,N,11940.88303163,W,4,8,1.1,323.453,M,-17.561,M,1.0,0000*46
1627578249719733903,12701,1627578249719530105,gps_frame,$GPGGA,170409.05,4616.76090134,N,11940.88316904,W,4,8,1.1,323.446,M,-17.561,M,1.0,0000*40
1627578249779886185,12702,1627578249779694080,gps_frame,$GPGGA,170409.10,4616.76083541,N,11940.88310973,W,4,8,1.1,323.461,M,-17.561,M,1.1,0000*42
1627578249819730181,12703,1627578249819520950,gps_frame,$GPGGA,170409.15,4616.76077778,N,11940.88324969,W,4,8,1.1,323.468,M,-17.561,M,1.1,0000*41
1627578249870541591,12704,1627578249870393991,gps_frame,$GPGGA,170409.20,4616.76071738,N,11940.88320704,W,4,8,1.1,323.448,M,-17.561,M,0.2,0000*44
1627578249919708830,12705,1627578249919464111,gps_frame,$GPGGA,170409.25,4616.76065799,N,11940.88338243,W,4,8,1.1,323.437,M,-17.561,M,0.2,0000*48
1627578249968590795,12706,1627578249968391895,gps_frame,$GPGGA,170409.30,4616.76060768,N,11940.88323241,W,4,8,1.1,323.464,M,-17.561,M,0.3,0000*48
1627578250020037596,12707,1627578250019761085,gps_frame,$GPGGA,170409.35,4616.76055405,N,11940.88336494,W,4,8,1.1,323.477,M,-17.561,M,0.3,0000*4B
1627578250069860277,12708,1627578250069675922,gps_frame,$GPGGA,170409.40,4616.76051947,N,11940.88334889,W,4,8,1.1,323.467,M,-17.561,M,0.4,0000*42
1627578250119796571,12709,1627578250119524955,gps_frame,$GPGGA,170409.45,4616.76047791,N,11940.88353913,W,4,8,1.1,323.465,M,-17.561,M,0.4,0000*44
1627578250168180122,12710,1627578250168028116,gps_frame,$GPGGA,170409.50,4616.76038099,N,11940.88341291,W,4,8,1.1,323.495,M,-17.561,M,0.5,0000*4B
1627578250219847496,12711,1627578250219552040,gps_frame,$GPGGA,170409.55,4616.76030434,N,11940.88352468,W,4,8,1.1,323.514,M,-17.561,M,0.5,0000*4F
1627578250269762176,12712,1627578250269572019,gps_frame,$GPGGA,170409.60,4616.76028571,N,11940.88345402,W,4,8,1.1,323.481,M,-17.561,M,0.6,0000*44
1627578250319768939,12713,1627578250319550037,gps_frame,$GPGGA,170409.65,4616.76024584,N,11940.88364190,W,4,8,1.1,323.467,M,-17.561,M,0.6,0000*42
1627578250368556559,12714,1627578250368415117,gps_frame,$GPGGA,170409.70,4616.76015270,N,11940.88356028,W,4,8,1.1,323.500,M,-17.561,M,0.7,0000*4A
1627578250419874949,12715,1627578250419672012,gps_frame,$GPGGA,170409.75,4616.76007906,N,11940.88370926,W,4,8,1.1,323.516,M,-17.561,M,0.7,0000*42
1627578250469840080,12716,1627578250469620943,gps_frame,$GPGGA,170409.80,4616.76004620,N,11940.88360661,W,4,8,1.1,323.512,M,-17.561,M,0.8,0000*46
1627578250519977166,12717,1627578250519746065,gps_frame,$GPGGA,170409.85,4616.75999841,N,11940.88378025,W,4,8,1.1,323.514,M,-17.561,M,0.8,0000*4D
1627578250568295885,12718,1627578250568073034,gps_frame,$GPGGA,170409.90,4616.75993473,N,11940.88367511,W,4,8,1.1,323.510,M,-17.561,M,0.9,0000*47
1627578250619852941,12719,1627578250619553089,gps_frame,$GPGGA,170409.95,4616.75987686,N,11940.88381948,W,4,8,1.1,323.508,M,-17.561,M,0.9,0000*4E
1627578250676935945,12720,1627578250676682949,gps_frame,$GPGGA,170410.00,4616.75981693,N,11940.88376654,W,4,8,1.1,323.495,M,-17.561,M,1.0,0000*4F
1627578250719846236,12721,1627578250719609975,gps_frame,$GPGGA,170410.05,4616.75975776,N,11940.88394019,W,4,8,1.1,323.485,M,-17.561,M,1.0,0000*49
1627578250780673774,12722,1627578250780384063,gps_frame,$GPGGA,170410.10,4616.75968895,N,11940.88377299,W,4,8,1.1,323.509,M,-17.561,M,1.1,0000*40
1627578250819831146,12723,1627578250819562911,gps_frame,$GPGGA,170410.15,4616.75962367,N,11940.88389368,W,4,8,1.1,323.520,M,-17.561,M,1.1,0000*4C
1627578250871397710,12724,1627578250870954036,gps_frame,$GPGGA,170410.20,4616.75955499,N,11940.88388471,W,4,8,1.1,323.538,M,-17.561,M,0.2,0000*4D
1627578250919741830,12725,1627578250919452905,gps_frame,$GPGGA,170410.25,4616.75948756,N,11940.88410042,W,4,8,1.1,323.554,M,-17.561,M,0.2,0000*4C
1627578250968555560,12726,1627578250968374967,gps_frame,$GPGGA,170410.30,4616.75945027,N,11940.88391483,W,4,8,1.1,323.525,M,-17.561,M,0.3,0000*44
1627578251020015237,12727,1627578251019670009,gps_frame,$GPGGA,170410.35,4616.75940195,N,11940.88406163,W,4,8,1.1,323.512,M,-17.561,M,0.3,0000*4A
1627578251069620223,12728,1627578251069447040,gps_frame,$GPGGA,170410.40,4616.75932281,N,11940.88398144,W,4,8,1.1,323.533,M,-17.561,M,0.4,0000*4A
1627578251119670691,12729,1627578251119425058,gps_frame,$GPGGA,170410.45,4616.75925495,N,11940.88412935,W,4,8,1.1,323.542,M,-17.561,M,0.4,0000*47
1627578251168132757,12730,1627578251167978048,gps_frame,$GPGGA,170410.50,4616.75920662,N,11940.88407880,W,4,8,1.1,323.542,M,-17.561,M,0.5,0000*46
1627578251219871371,12731,1627578251219618082,gps_frame,$GPGGA,170410.55,4616.75915114,N,11940.88427739,W,4,8,1.1,323.545,M,-17.561,M,0.5,0000*4B
1627578251270743861,12732,1627578251270462989,gps_frame,$GPGGA,170410.60,4616.75906594,N,11940.88410302,W,4,8,1.1,323.560,M,-17.561,M,0.6,0000*4F
1627578251319850248,12733,1627578251319580078,gps_frame,$GPGGA,170410.65,4616.75899162,N,11940.88422607,W,4,8,1.1,323.571,M,-17.561,M,0.6,0000*41
1627578251368755779,12734,1627578251368441104,gps_frame,$GPGGA,170410.70,4616.75894556,N,11940.88416802,W,4,8,1.1,323.555,M,-17.561,M,0.7,0000*40
1627578251419881001,12735,1627578251419543027,gps_frame,$GPGGA,170410.75,4616.75888915,N,11940.88437106,W,4,8,1.1,323.549,M,-17.561,M,0.7,0000*40
1627578251470083341,12736,1627578251469770908,gps_frame,$GPGGA,170410.80,4616.75883314,N,11940.88420146,W,4,8,1.1,323.546,M,-17.561,M,0.8,0000*48
1627578251520300837,12737,1627578251520025968,gps_frame,$GPGGA,170410.85,4616.75877698,N,11940.88433496,W,4,8,1.1,323.542,M,-17.561,M,0.8,0000*49
1627578251568701717,12738,1627578251568253040,gps_frame,$GPGGA,170410.90,4616.75868519,N,11940.88426220,W,4,8,1.1,323.561,M,-17.561,M,0.9,0000*46
1627578251620357928,12739,1627578251620048999,gps_frame,$GPGGA,170410.95,4616.75860644,N,11940.88442061,W,4,8,1.1,323.571,M,-17.561,M,0.9,0000*44
1627578251676838649,12740,1627578251676666975,gps_frame,$GPGGA,170411.00,4616.75855608,N,11940.88431183,W,4,8,1.1,323.575,M,-17.561,M,1.0,0000*42
1627578251719734700,12741,1627578251719598054,gps_frame,$GPGGA,170411.05,4616.75849533,N,11940.88450572,W,4,8,1.1,323.581,M,-17.561,M,1.0,0000*47
1627578251779739903,12742,1627578251779643058,gps_frame,$GPGGA,170411.10,4616.75842781,N,11940.88435818,W,4,8,1.1,323.578,M,-17.561,M,1.1,0000*46
1627578251819797901,12743,1627578251819602966,gps_frame,$GPGGA,170411.15,4616.75836277,N,11940.88451439,W,4,8,1.1,323.579,M,-17.561,M,1.1,0000*40
1627578251870691823,12744,1627578251870398044,gps_frame,$GPGGA,170411.20,4616.75828036,N,11940.88438027,W,4,8,1.1,323.581,M,-17.561,M,0.2,0000*4F
1627578251920178066,12745,1627578251919946908,gps_frame,$GPGGA,170411.25,4616.75820431,N,11940.88453005,W,4,8,1.1,323.583,M,-17.561,M,0.2,0000*4E
