%time,field.header.seq,field.header.stamp,field.header.frame_id,field.sentence
1627577691470128247,1536,1627577691469832897,gps_frame,$GPGGA,165450.80,4616.72291981,N,11940.86023744,W,4,5,1.9,321.631,M,-17.561,M,0.8,0000*49
1627577691520591430,1537,1627577691520364999,gps_frame,$GPGGA,165450.85,4616.72295256,N,11940.86012824,W,4,5,1.9,321.621,M,-17.561,M,0.8,0000*43
1627577691568735636,1538,1627577691568576097,gps_frame,$GPGGA,165450.90,4616.72297904,N,11940.86021986,W,4,5,1.9,321.660,M,-17.561,M,0.9,0000*44
1627577691620712433,1539,1627577691620377063,gps_frame,$GPGGA,165450.95,4616.72300781,N,11940.86014986,W,4,5,1.9,321.682,M,-17.561,M,0.9,0000*47
1627577691677036512,1540,1627577691676834106,gps_frame,$GPGGA,165451.00,4616.72305424,N,11940.86015280,W,4,5,1.9,321.618,M,-17.561,M,1.0,0000*44
1627577691720522139,1541,1627577691720309019,gps_frame,$GPGGA,165451.05,4616.72309421,N,11940.86004703,W,4,5,1.9,321.586,M,-17.561,M,1.0,0000*42
1627577691779686921,1542,1627577691779566049,gps_frame,$GPGGA,165451.10,4616.72311851,N,11940.86009632,W,4,5,1.9,321.613,M,-17.561,M,1.1,0000*44
1627577691820500251,1543,1627577691820272922,gps_frame,$GPGGA,165451.15,4616.72314855,N,11940.85998472,W,4,5,1.9,321.618,M,-17.561,M,1.1,0000*4F
1627577691871378363,1544,1627577691871167898,gps_frame,$GPGGA,165451.20,4616.72317546,N,11940.86005673,W,4,5,1.9,321.687,M,-17.561,M,0.2,0000*4C
1627577691920580856,1545,1627577691920264005,gps_frame,$GPGGA,165451.25,4616.72320352,N,11940.85997253,W,4,5,1.9,321.733,M,-17.561,M,0.2,0000*47
1627577691969045448,1546,1627577691968910932,gps_frame,$GPGGA,165451.30,4616.72322509,N,11940.85998620,W,4,5,1.9,321.618,M,-17.561,M,0.3,0000*4F
1627577692020623601,1547,1627577692020364999,gps_frame,$GPGGA,165451.35,4616.72324904,N,11940.85988519,W,4,5,1.9,321.562,M,-17.561,M,0.3,0000*4B
1627577692070985013,1548,1627577692070637941,gps_frame,$GPGGA,165451.40,4616.72331229,N,11940.85996423,W,4,5,1.9,321.636,M,-17.561,M,0.4,0000*4B
1627577692120562053,1549,1627577692120306015,gps_frame,$GPGGA,165451.45,4616.72336114,N,11940.85990865,W,4,5,1.9,321.663,M,-17.561,M,0.4,0000*4C
1627577692168826351,1550,1627577692168665885,gps_frame,$GPGGA,165451.50,4616.72337054,N,11940.85992042,W,4,5,1.9,321.691,M,-17.561,M,0.5,0000*4F
1627577692220757418,1551,1627577692220329999,gps_frame,$GPGGA,165451.55,4616.72339438,N,11940.85978679,W,4,5,1.9,321.718,M,-17.561,M,0.5,0000*40
1627577692270429781,1552,1627577692270145893,gps_frame,$GPGGA,165451.60,4616.72344394,N,11940.85986966,W,4,5,1.9,321.607,M,-17.561,M,0.6,0000*41
1627577692320941506,1553,1627577692320640087,gps_frame,$GPGGA,165451.65,4616.72348409,N,11940.85979262,W,4,5,1.9,321.547,M,-17.561,M,0.6,0000*43
1627577692369092103,1554,1627577692368928909,gps_frame,$GPGGA,165451.70,4616.72350119,N,11940.85981686,W,4,5,1.9,321.639,M,-17.561,M,0.7,0000*48
1627577692420617193,1555,1627577692420413970,gps_frame,$GPGGA,165451.75,4616.72352673,N,11940.85970239,W,4,5,1.9,321.675,M,-17.561,M,0.7,0000*42
1627577692469828364,1556,1627577692469703912,gps_frame,$GPGGA,165451.80,4616.72356820,N,11940.85972665,W,4,5,1.9,321.604,M,-17.561,M,0.8,0000*42
1627577692520721189,1557,1627577692520432949,gps_frame,$GPGGA,165451.85,4616.72360385,N,11940.85962086,W,4,5,1.9,321.572,M,-17.561,M,0.8,0000*4E
1627577692568683246,1558,1627577692568530082,gps_frame,$GPGGA,165451.90,4616.72363082,N,11940.85968055,W,4,5,1.9,321.662,M,-17.561,M,0.9,0000*4A
1627577692620752131,1559,1627577692620403051,gps_frame,$GPGGA,165451.95,4616.72366096,N,11940.85958687,W,4,5,1.9,321.706,M,-17.561,M,0.9,0000*46
1627577692677206216,1560,1627577692676928997,gps_frame,$GPGGA,165452.00,4616.72369598,N,11940.85963272,W,4,5,1.9,321.613,M,-17.561,M,1.0,0000*46
1627577692720662494,1561,1627577692720329046,gps_frame,$GPGGA,165452.05,4616.72372922,N,11940.85954079,W,4,5,1.9,321.571,M,-17.561,M,1.0,0000*4E
1627577692780136589,1562,1627577692780005931,gps_frame,$GPGGA,165452.10,4616.72376190,N,11940.85960480,W,4,5,1.9,321.635,M,-17.561,M,1.1,0000*48
1627577692820650880,1563,1627577692820354938,gps_frame,$GPGGA,165452.15,4616.72379478,N,11940.85952150,W,4,5,1.9,321.660,M,-17.561,M,1.1,0000*48
1627577692871442973,1564,1627577692871124982,gps_frame,$GPGGA,165452.20,4616.72382758,N,11940.85953427,W,4,6,1.7,321.655,M,-17.561,M,0.2,0000*46
1627577692920546913,1565,1627577692920304059,gps_frame,$GPGGA,165452.25,4616.72386041,N,11940.85942059,W,4,6,1.7,321.662,M,-17.561,M,0.2,0000*41
1627577692969041685,1566,1627577692968914985,gps_frame,$GPGGA,165452.30,4616.72390569,N,11940.85948093,W,4,6,1.7,321.648,M,-17.561,M,0.3,0000*48
1627577693020467971,1567,1627577693020246982,gps_frame,$GPGGA,165452.35,4616.72394642,N,11940.85938663,W,4,6,1.7,321.641,M,-17.561,M,0.3,0000*44
1627577693069806040,1568,1627577693069647073,gps_frame,$GPGGA,165452.40,4616.72395715,N,11940.85942465,W,4,6,1.7,321.630,M,-17.561,M,0.4,0000*4C
1627577693120532469,1569,1627577693120299100,gps_frame,$GPGGA,165452.45,4616.72397887,N,11940.85930606,W,4,6,1.7,321.621,M,-17.561,M,0.4,0000*4D
1627577693168627547,1570,1627577693168505907,gps_frame,$GPGGA,165452.50,4616.72403343,N,11940.85938670,W,4,6,1.7,321.631,M,-17.561,M,0.5,0000*49
1627577693220454973,1571,1627577693220247030,gps_frame,$GPGGA,165452.55,4616.72407596,N,11940.85932315,W,4,6,1.7,321.635,M,-17.561,M,0.5,0000*4E
1627577693271267468,1572,1627577693270992040,gps_frame,$GPGGA,165452.60,4616.72409219,N,11940.85932077,W,4,6,1.7,321.592,M,-17.561,M,0.6,0000*4C
1627577693320864125,1573,1627577693320509910,gps_frame,$GPGGA,165452.65,4616.72411805,N,11940.85919039,W,4,6,1.7,321.565,M,-17.561,M,0.6,0000*4C
1627577693368922251,1574,1627577693368767976,gps_frame,$GPGGA,165452.70,4616.72416561,N,11940.85927654,W,4,6,1.7,321.560,M,-17.561,M,0.7,0000*44
1627577693420602855,1575,1627577693420314073,gps_frame,$GPGGA,165452.75,4616.72420522,N,11940.85920207,W,4,6,1.7,321.547,M,-17.561,M,0.7,0000*43
1627577693469814298,1576,1627577693469615936,gps_frame,$GPGGA,165452.80,4616.72421310,N,11940.85924203,W,4,6,1.7,321.663,M,-17.561,M,0.8,0000*45
1627577693520584524,1577,1627577693520250082,gps_frame,$GPGGA,165452.85,4616.72423259,N,11940.85913845,W,4,6,1.7,321.731,M,-17.561,M,0.8,0000*44
1627577693568605732,1578,1627577693568453073,gps_frame,$GPGGA,165452.90,4616.72432043,N,11940.85916556,W,4,6,1.7,321.576,M,-17.561,M,0.9,0000*43
1627577693620747212,1579,1627577693620409965,gps_frame,$GPGGA,165452.95,4616.72438326,N,11940.85907907,W,4,6,1.7,321.504,M,-17.561,M,0.9,0000*41
1627577693676718375,1580,1627577693676528930,gps_frame,$GPGGA,165453.00,4616.72435917,N,11940.85914957,W,4,6,1.7,321.640,M,-17.561,M,1.0,0000*45
1627577693720535923,1581,1627577693720282077,gps_frame,$GPGGA,165453.05,4616.72436689,N,11940.85901400,W,4,6,1.7,321.700,M,-17.561,M,1.0,0000*45
1627577693779805530,1582,1627577693779639005,gps_frame,$GPGGA,165453.10,4616.72443526,N,11940.85906631,W,4,6,1.7,321.676,M,-17.561,M,1.1,0000*43
1627577693820697459,1583,1627577693820342063,gps_frame,$GPGGA,165453.15,4616.72448143,N,11940.85899620,W,4,6,1.7,321.683,M,-17.561,M,1.1,0000*47
1627577693871180840,1584,1627577693870943069,gps_frame,$GPGGA,165453.20,4616.72448369,N,11940.85900338,W,4,6,1.7,321.559,M,-17.561,M,0.2,0000*40
1627577693920607574,1585,1627577693920363903,gps_frame,$GPGGA,165453.25,4616.72450204,N,11940.85887691,W,4,6,1.7,321.483,M,-17.561,M,0.2,0000*48
1627577693968664692,1586,1627577693968585014,gps_frame,$GPGGA,165453.30,4616.72455982,N,11940.85893553,W,4,6,1.7,321.551,M,-17.561,M,0.3,0000*4B
1627577694020397609,1587,1627577694020271062,gps_frame,$GPGGA,165453.35,4616.72460316,N,11940.85885935,W,4,6,1.7,321.567,M,-17.561,M,0.3,0000*41
1627577694070241794,1588,1627577694070055961,gps_frame,$GPGGA,165453.40,4616.72463824,N,11940.85888363,W,4,6,1.7,321.584,M,-17.561,M,0.4,0000*44
1627577694120632066,1589,1627577694120297908,gps_frame,$GPGGA,165453.45,4616.72467634,N,11940.85876573,W,4,6,1.7,321.601,M,-17.561,M,0.4,0000*42
1627577694168660510,1590,1627577694168530941,gps_frame,$GPGGA,165453.50,4616.72469648,N,11940.85882218,W,4,6,1.7,321.555,M,-17.561,M,0.5,0000*41
1627577694220893451,1591,1627577694220415115,gps_frame,$GPGGA,165453.55,4616.72472319,N,11940.85870622,W,4,6,1.7,321.532,M,-17.561,M,0.5,0000*4E
1627577694270098265,1592,1627577694269911050,gps_frame,$GPGGA,165453.60,4616.72474841,N,11940.85877849,W,4,6,1.7,321.554,M,-17.561,M,0.6,0000*4F
1627577694320567285,1593,1627577694320307970,gps_frame,$GPGGA,165453.65,4616.72477418,N,11940.85870121,W,4,6,1.7,321.560,M,-17.561,M,0.6,0000*4E
1627577694368851704,1594,1627577694368695020,gps_frame,$GPGGA,165453.70,4616.72482521,N,11940.85871960,W,4,6,1.7,321.527,M,-17.561,M,0.7,0000*45
1627577694420951589,1595,1627577694420555114,gps_frame,$GPGGA,165453.75,4616.72486699,N,11940.85863105,W,4,6,1.7,321.509,M,-17.561,M,0.7,0000*40
1627577694469648934,1596,1627577694469486951,gps_frame,$GPGGA,165453.80,4616.72490951,N,11940.85866059,W,4,6,1.7,321.520,M,-17.561,M,0.8,0000*4F
1627577694520595198,1597,1627577694520298957,gps_frame,$GPGGA,165453.85,4616.72495175,N,11940.85854057,W,4,6,1.7,321.521,M,-17.561,M,0.8,0000*4F
1627577694568468409,1598,1627577694568329095,gps_frame,$GPGGA,165453.90,4616.72496234,N,11940.85861762,W,4,6,1.7,321.512,M,-17.561,M,0.9,0000*48
1627577694620436645,1599,1627577694620237112,gps_frame,$GPGGA,165453.95,4616.72498452,N,11940.85850581,W,4,6,1.7,321.506,M,-17.561,M,0.9,0000*4D
1627577694676274246,1600,1627577694676099061,gps_frame,$GPGGA,165454.00,4616.72502194,N,11940.85857207,W,4,6,1.7,321.504,M,-17.561,M,1.0,0000*4F
1627577694721136831,1601,1627577694720777988,gps_frame,$GPGGA,165454.05,4616.72505378,N,11940.85850000,W,4,6,1.7,321.501,M,-17.561,M,1.0,0000*4A
1627577694779673840,1602,1627577694779479026,gps_frame,$GPGGA,165454.10,4616.72509537,N,11940.85850317,W,4,6,1.7,321.524,M,-17.561,M,1.1,0000*4C
1627577694820521449,1603,1627577694820301055,gps_frame,$GPGGA,165454.15,4616.72513338,N,11940.85839627,W,4,6,1.7,321.537,M,-17.561,M,1.1,0000*40
1627577694871898321,1604,1627577694871670961,gps_frame,$GPGGA,165454.20,4616.72517696,N,11940.85847169,W,4,5,1.9,321.584,M,-17.561,M,0.2,0000*40
1627577694920439862,1605,1627577694920205116,gps_frame,$GPGGA,165454.25,4616.72521851,N,11940.85837870,W,4,5,1.9,321.618,M,-17.561,M,0.2,0000*45
1627577694968635640,1606,1627577694968486070,gps_frame,$GPGGA,165454.30,4616.72521353,N,11940.85839680,W,4,5,1.9,321.511,M,-17.561,M,0.3,0000*4C
1627577695020600323,1607,1627577695020376920,gps_frame,$GPGGA,165454.35,4616.72522559,N,11940.85826125,W,4,5,1.9,321.456,M,-17.561,M,0.3,0000*42
1627577695069816089,1608,1627577695069667100,gps_frame,$GPGGA,165454.40,4616.72532002,N,11940.85835103,W,4,5,1.9,321.560,M,-17.561,M,0.4,0000*4F
1627577695120598718,1609,1627577695120313882,gps_frame,$GPGGA,165454.45,4616.72538428,N,11940.85830770,W,4,5,1.9,321.606,M,-17.561,M,0.4,0000*48
1627577695168543879,1610,1627577695168409109,gps_frame,$GPGGA,165454.50,4616.72535875,N,11940.85830005,W,4,5,1.9,321.562,M,-17.561,M,0.5,0000*40
1627577695220561152,1611,1627577695220300912,gps_frame,$GPGGA,165454.55,4616.72536610,N,11940.85813188,W,4,5,1.9,321.551,M,-17.561,M,0.5,0000*4E
1627577695271083572,1612,1627577695270818948,gps_frame,$GPGGA,165454.60,4616.72542945,N,11940.85823718,W,4,5,1.9,321.527,M,-17.561,M,0.6,0000*4A
1627577695320543983,1613,1627577695320317029,gps_frame,$GPGGA,165454.65,4616.72547229,N,11940.85818874,W,4,5,1.9,321.507,M,-17.561,M,0.6,0000*44
1627577695369094812,1614,1627577695368925094,gps_frame,$GPGGA,165454.70,4616.72551204,N,11940.85818061,W,4,5,1.9,321.522,M,-17.561,M,0.7,0000*42
1627577695420498012,1615,1627577695420233964,gps_frame,$GPGGA,165454.75,4616.72555293,N,11940.85805984,W,4,5,1.9,321.524,M,-17.561,M,0.7,0000*45
1627577695469832695,1616,1627577695469651937,gps_frame,$GPGGA,165454.80,4616.72554257,N,11940.85812270,W,4,5,1.9,321.484,M,-17.561,M,0.8,0000*44
1627577695520571411,1617,1627577695520370960,gps_frame,$GPGGA,165454.85,4616.72555097,N,11940.85800398,W,4,5,1.9,321.460,M,-17.561,M,0.8,0000*40
1627577695568692805,1618,1627577695568562030,gps_frame,$GPGGA,165454.90,4616.72564189,N,11940.85806779,W,4,5,1.9,321.525,M,-17.561,M,0.9,0000*44
1627577695620431914,1619,1627577695620229005,gps_frame,$GPGGA,165454.95,4616.72570259,N,11940.85802251,W,4,5,1.9,321.557,M,-17.561,M,0.9,0000*44
1627577695677136463,1620,1627577695676879882,gps_frame,$GPGGA,165455.00,4616.72569317,N,11940.85800600,W,4,5,1.9,321.520,M,-17.561,M,1.0,0000*40
1627577695720450438,1621,1627577695720194101,gps_frame,$GPGGA,165455.05,4616.72570942,N,11940.85784144,W,4,5,1.9,321.508,M,-17.561,M,1.0,0000*49
1627577695780270981,1622,1627577695780061960,gps_frame,$GPGGA,165455.10,4616.72575474,N,11940.85795275,W,4,5,1.9,321.501,M,-17.561,M,1.1,0000*49
1627577695821546597,1623,1627577695821333885,gps_frame,$GPGGA,165455.15,4616.72578941,N,11940.85789206,W,4,5,1.9,321.492,M,-17.561,M,1.1,0000*48
1627577695871492988,1624,1627577695871085882,gps_frame,$GPGGA,165455.20,4616.72582735,N,11940.85789934,W,4,5,1.9,321.509,M,-17.561,M,0.2,0000*4D
1627577695920787633,1625,1627577695920370101,gps_frame,$GPGGA,165455.25,4616.72586409,N,11940.85779649,W,4,5,1.9,321.516,M,-17.561,M,0.2,0000*44
1627577695969042032,1626,1627577695968856096,gps_frame,$GPGGA,165455.30,4616.72588744,N,11940.85783224,W,4,5,1.9,321.493,M,-17.561,M,0.3,0000*43
1627577696020564037,1627,1627577696020359039,gps_frame,$GPGGA,165455.35,4616.72591570,N,11940.85771672,W,4,5,1.9,321.481,M,-17.561,M,0.3,0000*42
1627577696070062099,1628,1627577696069879055,gps_frame,$GPGGA,165455.40,4616.72595880,N,11940.85778816,W,4,5,1.9,321.510,M,-17.561,M,0.4,0000*4D
1627577696120599892,1629,1627577696120268106,gps_frame,$GPGGA,165455.45,4616.72599646,N,11940.85770795,W,4,5,1.9,321.524,M,-17.561,M,0.4,0000*4B
1627577696168530519,1630,1627577696168401956,gps_frame,$GPGGA,165455.50,4616.72602738,N,11940.85772835,W,4,5,1.9,321.545,M,-17.561,M,0.5,0000*47
1627577696220407601,1631,1627577696220232009,gps_frame,$GPGGA,165455.55,4616.72606077,N,11940.85761312,W,4,5,1.9,321.564,M,-17.561,M,0.5,0000*45
1627577696270384356,1632,1627577696270191907,gps_frame,$GPGGA,165455.60,4616.72609324,N,11940.85770218,W,4,5,1.9,321.522,M,-17.561,M,0.6,0000*43
1627577696320287764,1633,1627577696320130109,gps_frame,$GPGGA,165455.65,4616.72612605,N,11940.85762149,W,4,5,1.9,321.502,M,-17.561,M,0.6,0000*4C
1627577696368862582,1634,1627577696368710994,gps_frame,$GPGGA,165455.70,4616.72615614,N,11940.85763069,W,4,5,1.9,321.507,M,-17.561,M,0.7,0000*49
1627577696420716315,1635,1627577696420331001,gps_frame,$GPGGA,165455.75,4616.72618723,N,11940.85751579,W,4,5,1.9,321.504,M,-17.561,M,0.7,0000*42
1627577696469820638,1636,1627577696469706058,gps_frame,$GPGGA,165455.80,4616.72620906,N,11940.85757747,W,4,5,1.9,321.486,M,-17.561,M,0.8,0000*47
1627577696520556990,1637,1627577696520364999,gps_frame,$GPGGA,165455.85,4616.72623428,N,11940.85748742,W,4,5,1.9,321.474,M,-17.561,M,0.8,0000*46
1627577696568679853,1638,1627577696568552970,gps_frame,$GPGGA,165455.90,4616.72628088,N,11940.85753211,W,4,5,1.9,321.466,M,-17.561,M,0.9,0000*4C
1627577696620285994,1639,1627577696620107889,gps_frame,$GPGGA,165455.95,4616.72631965,N,11940.85745421,W,4,5,1.9,321.456,M,-17.561,M,0.9,0000*4A
1627577696677047883,1640,1627577696676784038,gps_frame,$GPGGA,165456.00,4616.72636041,N,11940.85745047,W,4,5,1.9,321.511,M,-17.561,M,1.0,0000*43
1627577696720515459,1641,1627577696720309019,gps_frame,$GPGGA,165456.05,4616.72640044,N,11940.85732014,W,4,5,1.9,321.542,M,-17.561,M,1.0,0000*42
1627577696779835452,1642,1627577696779674053,gps_frame,$GPGGA,165456.10,4616.72639950,N,11940.85743385,W,4,5,1.9,321.495,M,-17.561,M,1.1,0000*43
1627577696820478080,1643,1627577696820238113,gps_frame,$GPGGA,165456.15,4616.72641356,N,11940.85734809,W,4,5,1.9,321.478,M,-17.561,M,1.1,0000*49
1627577696871216855,1644,1627577696870929002,gps_frame,$GPGGA,165456.20,4616.72649412,N,11940.85735484,W,4,5,1.9,321.567,M,-17.561,M,0.2,0000*45
1627577696920931992,1645,1627577696920584917,gps_frame,$GPGGA,165456.25,4616.72655032,N,11940.85727361,W,4,5,1.9,321.618,M,-17.561,M,0.2,0000*4F
1627577696968704394,1646,1627577696968620061,gps_frame,$GPGGA,165456.30,4616.72653707,N,11940.85731533,W,4,5,1.9,321.493,M,-17.561,M,0.3,0000*4A
1627577697020500316,1647,1627577697020282030,gps_frame,$GPGGA,165456.35,4616.72654926,N,11940.85718101,W,4,5,1.9,321.433,M,-17.561,M,0.3,0000*41
1627577697069645991,1648,1627577697069482088,gps_frame,$GPGGA,165456.40,4616.72661109,N,11940.85726122,W,4,5,1.9,321.533,M,-17.561,M,0.4,0000*4A
1627577697120580152,1649,1627577697120248079,gps_frame,$GPGGA,165456.45,4616.72665474,N,11940.85720344,W,4,5,1.9,321.575,M,-17.561,M,0.4,0000*42
1627577697168563544,1650,1627577697168411016,gps_frame,$GPGGA,165456.50,4616.72666182,N,11940.85719831,W,4,5,1.9,321.506,M,-17.561,M,0.5,0000*4F
1627577697220451050,1651,1627577697220213890,gps_frame,$GPGGA,165456.55,4616.72668229,N,11940.85707140,W,4,5,1.9,321.478,M,-17.561,M,0.5,0000*4E
1627577697271082739,1652,1627577697270836114,gps_frame,$GPGGA,165456.60,4616.72672023,N,11940.85712946,W,4,5,1.9,321.507,M,-17.561,M,0.6,0000*4B
1627577697320319793,1653,1627577697320105075,gps_frame,$GPGGA,165456.65,4616.72675177,N,11940.85704957,W,4,5,1.9,321.514,M,-17.561,M,0.6,0000*4C
1627577697368651660,1654,1627577697368530035,gps_frame,$GPGGA,165456.70,4616.72679523,N,11940.85706219,W,4,5,1.9,321.478,M,-17.561,M,0.7,0000*48
1627577697420285561,1655,1627577697420080900,gps_frame,$GPGGA,165456.75,4616.72683432,N,11940.85696007,W,4,5,1.9,321.457,M,-17.561,M,0.7,0000*41
1627577697469636336,1656,1627577697469475984,gps_frame,$GPGGA,165456.80,4616.72684758,N,11940.85704422,W,4,5,1.9,321.488,M,-17.561,M,0.8,0000*47
1627577697520669068,1657,1627577697520389080,gps_frame,$GPGGA,165456.85,4616.72687029,N,11940.85695633,W,4,5,1.9,321.500,M,-17.561,M,0.8,0000*4A
1627577697568533549,1658,1627577697568433046,gps_frame,$GPGGA,165456.90,4616.72694238,N,11940.85698430,W,4,5,1.9,321.485,M,-17.561,M,0.9,0000*4F
1627577697620241216,1659,1627577697620132923,gps_frame,$GPGGA,165456.95,4616.72699639,N,11940.85689737,W,4,5,1.9,321.481,M,-17.561,M,0.9,0000*42
1627577697676736589,1660,1627577697676516056,gps_frame,$GPGGA,165457.00,4616.72698668,N,11940.85694294,W,4,5,1.9,321.487,M,-17.561,M,1.0,0000*44
1627577697720498523,1661,1627577697720279932,gps_frame,$GPGGA,165457.05,4616.72700030,N,11940.85680874,W,4,5,1.9,321.490,M,-17.561,M,1.0,0000*4D
1627577697779490589,1662,1627577697779333114,gps_frame,$GPGGA,165457.10,4616.72706687,N,11940.85686844,W,4,5,1.9,321.464,M,-17.561,M,1.1,0000*4A
1627577697820431571,1663,1627577697820233106,gps_frame,$GPGGA,165457.15,4616.72711404,N,11940.85679582,W,4,5,1.9,321.448,M,-17.561,M,1.1,0000*49
1627577697871188017,1664,1627577697870995998,gps_frame,$GPGGA,165457.20,4616.72711817,N,11940.85679645,W,4,5,1.9,321.466,M,-17.561,M,0.2,0000*47
1627577697920665569,1665,1627577697920312881,gps_frame,$GPGGA,165457.25,4616.72713806,N,11940.85665925,W,4,5,1.9,321.472,M,-17.561,M,0.2,0000*41
1627577697968974035,1666,1627577697968810081,gps_frame,$GPGGA,165457.30,4616.72717551,N,11940.85675972,W,4,5,1.9,321.434,M,-17.561,M,0.3,0000*4E
1627577698020533333,1667,1627577698020328044,gps_frame,$GPGGA,165457.35,4616.72720654,N,11940.85670215,W,4,5,1.9,321.412,M,-17.561,M,0.3,0000*42
1627577698070145126,1668,1627577698070003986,gps_frame,$GPGGA,165457.40,4616.72725308,N,11940.85669832,W,4,5,1.9,321.406,M,-17.561,M,0.4,0000*4C
1627577698120270029,1669,1627577698120098114,gps_frame,$GPGGA,165457.45,4616.72729393,N,11940.85659541,W,4,5,1.9,321.394,M,-17.561,M,0.4,0000*41
1627577698168702747,1670,1627577698168570995,gps_frame,$GPGGA,165457.50,4616.72731896,N,11940.85665227,W,4,5,1.9,321.426,M,-17.561,M,0.5,0000*45
1627577698220337868,1671,1627577698220117092,gps_frame,$GPGGA,165457.55,4616.72734979,N,11940.85654324,W,4,5,1.9,321.441,M,-17.561,M,0.5,0000*44
1627577698270092600,1672,1627577698269941091,gps_frame,$GPGGA,165457.60,4616.72737368,N,11940.85660309,W,4,5,1.9,321.470,M,-17.561,M,0.6,0000*42
1627577698320299369,1673,1627577698320132017,gps_frame,$GPGGA,165457.65,4616.72740011,N,11940.85650988,W,4,5,1.9,321.494,M,-17.561,M,0.6,0000*40
1627577698369073349,1674,1627577698368956089,gps_frame,$GPGGA,165457.70,4616.72744726,N,11940.85651353,W,4,5,1.9,321.458,M,-17.561,M,0.7,0000*4F
1627577698420332664,1675,1627577698420156002,gps_frame,$GPGGA,165457.75,4616.72748683,N,11940.85640595,W,4,5,1.9,321.444,M,-17.561,M,0.7,0000*49
1627577698470051202,1676,1627577698469897985,gps_frame,$GPGGA,165457.80,4616.72750173,N,11940.85649442,W,4,5,1.9,321.421,M,-17.561,M,0.8,0000*4C
1627577698520679429,1677,1627577698520409107,gps_frame,$GPGGA,165457.85,4616.72752567,N,11940.85640924,W,4,5,1.9,321.401,M,-17.561,M,0.8,0000*4C
1627577698568737135,1678,1627577698568572044,gps_frame,$GPGGA,165457.90,4616.72760504,N,11940.85639462,W,4,5,1.9,321.491,M,-17.561,M,0.9,0000*45
1627577698620237338,1679,1627577698620068073,gps_frame,$GPGGA,165457.95,4616.72766411,N,11940.85627875,W,4,5,1.9,321.540,M,-17.561,M,0.9,0000*4B
1627577698676823360,1680,1627577698676616907,gps_frame,$GPGGA,165458.00,4616.72764279,N,11940.85635784,W,4,5,1.9,321.460,M,-17.561,M,1.0,0000*4B
1627577698720339420,1681,1627577698720159053,gps_frame,$GPGGA,165458.05,4616.72765092,N,11940.85622252,W,4,5,1.9,321.428,M,-17.561,M,1.0,0000*4C
1627577698779763941,1682,1627577698779613971,gps_frame,$GPGGA,165458.10,4616.72772219,N,11940.85631225,W,4,5,1.9,321.442,M,-17.561,M,1.1,0000*40
1627577698820405979,1683,1627577698820149898,gps_frame,$GPGGA,165458.15,4616.72777033,N,11940.85626731,W,4,5,1.9,321.439,M,-17.561,M,1.1,0000*40
1627577698872113275,1684,1627577698871788024,gps_frame,$GPGGA,165458.20,4616.72780100,N,11940.85623797,W,4,5,1.9,321.422,M,-17.561,M,0.2,0000*4E
1627577698920289463,1685,1627577698920113086,gps_frame,$GPGGA,165458.25,4616.72783807,N,11940.85609299,W,4,5,1.9,321.410,M,-17.561,M,0.2,0000*44
1627577698968836671,1686,1627577698968705892,gps_frame,$GPGGA,165458.30,4616.72785140,N,11940.85618737,W,4,5,1.9,321.432,M,-17.561,M,0.3,0000*4C
1627577699020452744,1687,1627577699020212888,gps_frame,$GPGGA,165458.35,4616.72787342,N,11940.85608500,W,4,5,1.9,321.442,M,-17.561,M,0.3,0000*4B
1627577699069725167,1688,1627577699069596052,gps_frame,$GPGGA,165458.40,4616.72794077,N,11940.85610035,W,4,5,1.9,321.467,M,-17.561,M,0.4,0000*44
1627577699120232577,1689,1627577699120107889,gps_frame,$GPGGA,165458.45,4616.72799152,N,11940.85600282,W,4,5,1.9,321.486,M,-17.561,M,0.4,0000*4A
1627577699168575792,1690,1627577699168416976,gps_frame,$GPGGA,165458.50,4616.72800032,N,11940.85604069,W,4,5,1.9,321.496,M,-17.561,M,0.5,0000*45
1627577699220219395,1691,1627577699220110893,gps_frame,$GPGGA,165458.55,4616.72802449,N,11940.85590525,W,4,5,1.9,321.509,M,-17.561,M,0.5,0000*4E
1627577699271052286,1692,1627577699270792961,gps_frame,$GPGGA,165458.60,4616.72809885,N,11940.85597044,W,4,5,1.9,321.411,M,-17.561,M,0.6,0000*41
1627577699320567150,1693,1627577699320316076,gps_frame,$GPGGA,165458.65,4616.72815484,N,11940.85587971,W,4,5,1.9,321.354,M,-17.561,M,0.6,0000*4C
1627577699368754717,1694,1627577699368592977,gps_frame,$GPGGA,165458.70,4616.72815515,N,11940.85592916,W,4,5,1.9,321.441,M,-17.561,M,0.7,0000*46
1627577699420302924,1695,1627577699420113086,gps_frame,$GPGGA,165458.75,4616.72817583,N,11940.85579088,W,4,5,1.9,321.475,M,-17.561,M,0.7,0000*42
1627577699469775491,1696,1627577699469614982,gps_frame,$GPGGA,165458.80,4616.72823384,N,11940.85587665,W,4,5,1.9,321.481,M,-17.561,M,0.8,0000*4E
1627577699520412203,1697,1627577699520219087,gps_frame,$GPGGA,165458.85,4616.72827819,N,11940.85580245,W,4,5,1.9,321.498,M,-17.561,M,0.8,0000*49
1627577699568717718,1698,1627577699568581104,gps_frame,$GPGGA,165458.90,4616.72831863,N,11940.85577822,W,4,5,1.9,321.437,M,-17.561,M,0.9,0000*40
1627577699620296010,1699,1627577699620134115,gps_frame,$GPGGA,165458.95,4616.72836050,N,11940.85562673,W,4,5,1.9,321.405,M,-17.561,M,0.9,0000*45
1627577699676865029,1700,1627577699676631927,gps_frame,$GPGGA,165459.00,4616.72836595,N,11940.85572962,W,4,5,1.9,321.408,M,-17.561,M,1.0,0000*4F
1627577699720324966,1701,1627577699720149040,gps_frame,$GPGGA,165459.05,4616.72838474,N,11940.85562200,W,4,5,1.9,321.399,M,-17.561,M,1.0,0000*4B
1627577699779882785,1702,1627577699779726982,gps_frame,$GPGGA,165459.10,4616.72847390,N,11940.85565972,W,4,5,1.9,321.426,M,-17.561,M,1.1,0000*41
1627577699820202338,1703,1627577699820080995,gps_frame,$GPGGA,165459.15,4616.72853730,N,11940.85557870,W,4,5,1.9,321.440,M,-17.561,M,1.1,0000*4D
1627577699871016870,1704,1627577699870810985,gps_frame,$GPGGA,165459.20,4616.72851815,N,11940.85558921,W,4,6,1.7,321.419,M,-17.561,M,0.2,0000*48
1627577699920341839,1705,1627577699920171976,gps_frame,$GPGGA,165459.25,4616.72852923,N,11940.85541675,W,4,6,1.7,321.410,M,-17.561,M,0.2,0000*45
1627577699968726198,1706,1627577699968595981,gps_frame,$GPGGA,165459.30,4616.72862585,N,11940.85553098,W,4,6,1.7,321.450,M,-17.561,M,0.3,0000*41
1627577700020575007,1707,1627577700020329952,gps_frame,$GPGGA,165459.35,4616.72869115,N,11940.85547900,W,4,6,1.7,321.473,M,-17.561,M,0.3,0000*4E
1627577700070103171,1708,1627577700069924116,gps_frame,$GPGGA,165459.40,4616.72867952,N,11940.85547130,W,4,6,1.7,321.435,M,-17.561,M,0.4,0000*47
1627577700120369835,1709,1627577700120184898,gps_frame,$GPGGA,165459.45,4616.72869606,N,11940.85529826,W,4,6,1.7,321.419,M,-17.561,M,0.4,0000*4A
1627577700168584895,1710,1627577700168430089,gps_frame,$GPGGA,165459.50,4616.72878147,N,11940.85539955,W,4,6,1.7,321.420,M,-17.561,M,0.5,0000*43
1627577700221108674,1711,1627577700220119953,gps_frame,$GPGGA,165459.55,4616.72884167,N,11940.85532610,W,4,6,1.7,321.415,M,-17.561,M,0.5,0000*44
1627577700270072170,1712,1627577700269876003,gps_frame,$GPGGA,165459.60,4616.72884434,N,11940.85534157,W,4,6,1.7,321.422,M,-17.561,M,0.6,0000*44
1627577700320313381,1713,1627577700320122003,gps_frame,$GPGGA,165459.65,4616.72886808,N,11940.85518333,W,4,6,1.7,321.424,M,-17.561,M,0.6,0000*48
1627577700368739178,1714,1627577700368578910,gps_frame,$GPGGA,165459.70,4616.72893825,N,11940.85525761,W,4,6,1.7,321.427,M,-17.561,M,0.7,0000*48
1627577700420289745,1715,1627577700420113086,gps_frame,$GPGGA,165459.75,4616.72899142,N,11940.85515972,W,4,6,1.7,321.430,M,-17.561,M,0.7,0000*46
1627577700469666797,1716,1627577700469542026,gps_frame,$GPGGA,165459.80,4616.72901016,N,11940.85518796,W,4,6,1.7,321.408,M,-17.561,M,0.8,0000*41
1627577700520386023,1717,1627577700520210981,gps_frame,$GPGGA,165459.85,4616.72904150,N,11940.85503999,W,4,6,1.7,321.395,M,-17.561,M,0.8,0000*4A
1627577700568531279,1718,1627577700568411111,gps_frame,$GPGGA,165459.90,4616.72909302,N,11940.85515213,W,4,6,1.7,321.427,M,-17.561,M,0.9,0000*47
1627577700620314095,1719,1627577700620119094,gps_frame,$GPGGA,165459.95,4616.72913714,N,11940.85506949,W,4,6,1.7,321.442,M,-17.561,M,0.9,0000*4F
1627577700676682483,1720,1627577700676500082,gps_frame,$GPGGA,165500.00,4616.72919696,N,11940.85505451,W,4,6,1.7,321.447,M,-17.561,M,1.0,0000*45
1627577700720967152,1721,1627577700720798969,gps_frame,$GPGGA,165500.05,4616.72925104,N,11940.85490004,W,4,6,1.7,321.456,M,-17.561,M,1.0,0000*4A
1627577700779790182,1722,1627577700779608964,gps_frame,$GPGGA,165500.10,4616.72925624,N,11940.85501047,W,4,6,1.7,321.426,M,-17.561,M,1.1,0000*43
1627577700820286724,1723,1627577700820116996,gps_frame,$GPGGA,165500.15,4616.72927934,N,11940.85488000,W,4,6,1.7,321.410,M,-17.561,M,1.1,0000*4C
1627577700871034821,1724,1627577700870785951,gps_frame,$GPGGA,165500.20,4616.72934943,N,11940.85491730,W,4,6,1.7,321.367,M,-17.561,M,0.2,0000*41
1627577700920345172,1725,1627577700920167922,gps_frame,$GPGGA,165500.25,4616.72940231,N,11940.85481110,W,4,6,1.7,321.334,M,-17.561,M,0.2,0000*4A
1627577700968715867,1726,1627577700968552112,gps_frame,$GPGGA,165500.30,4616.72944427,N,11940.85484561,W,4,6,1.7,321.377,M,-17.561,M,0.3,0000*4A
1627577701020719967,1727,1627577701020298957,gps_frame,$GPGGA,165500.35,4616.72949023,N,11940.85469958,W,4,6,1.7,321.392,M,-17.561,M,0.3,0000*4C
1627577701069716062,1728,1627577701069546937,gps_frame,$GPGGA,165500.40,4616.72949553,N,11940.85478989,W,4,6,1.7,321.366,M,-17.561,M,0.4,0000*4C
1627577701120283804,1729,1627577701120117902,gps_frame,$GPGGA,165500.45,4616.72951572,N,11940.85466236,W,4,6,1.7,321.355,M,-17.561,M,0.4,0000*43
1627577701168579498,1730,1627577701168427944,gps_frame,$GPGGA,165500.50,4616.72961775,N,11940.85471471,W,4,6,1.7,321.357,M,-17.561,M,0.5,0000*41
1627577701220284414,1731,1627577701220130920,gps_frame,$GPGGA,165500.55,4616.72968981,N,11940.85463023,W,4,6,1.7,321.354,M,-17.561,M,0.5,0000*4B
1627577701271150262,1732,1627577701270852088,gps_frame,$GPGGA,165500.60,4616.72968783,N,11940.85463271,W,4,6,1.7,321.375,M,-17.561,M,0.6,0000*44
1627577701320350690,1733,1627577701320125102,gps_frame,$GPGGA,165500.65,4616.72971295,N,11940.85443413,W,4,6,1.7,321.386,M,-17.561,M,0.6,0000*47
1627577701368789240,1734,1627577701368664026,gps_frame,$GPGGA,165500.70,4616.72977461,N,11940.85459515,W,4,6,1.7,321.402,M,-17.561,M,0.7,0000*4E
1627577701420260045,1735,1627577701420103073,gps_frame,$GPGGA,165500.75,4616.72982288,N,11940.85452749,W,4,6,1.7,321.416,M,-17.561,M,0.7,0000*45
1627577701469569976,1736,1627577701469448089,gps_frame,$GPGGA,165500.80,4616.72984955,N,11940.85451328,W,4,6,1.7,321.337,M,-17.561,M,0.8,0000*49
1627577701520390909,1737,1627577701520198106,gps_frame,$GPGGA,165500.85,4616.72988413,N,11940.85435934,W,4,6,1.7,321.292,M,-17.561,M,0.8,0000*44
1627577701568658954,1738,1627577701568485975,gps_frame,$GPGGA,165500.90,4616.72994239,N,11940.85441502,W,4,6,1.7,321.314,M,-17.561,M,0.9,0000*47
1627577701620264880,1739,1627577701620105981,gps_frame,$GPGGA,165500.95,4616.72999197,N,11940.85429020,W,4,6,1.7,321.311,M,-17.561,M,0.9,0000*46
1627577701676074174,1740,1627577701675765991,gps_frame,$GPGGA,165501.00,4616.73002531,N,11940.85438406,W,4,6,1.7,321.304,M,-17.561,M,1.0,0000*45
1627577701720884289,1741,1627577701720665931,gps_frame,$GPGGA,165501.05,4616.73006459,N,11940.85426932,W,4,6,1.7,321.298,M,-17.561,M,1.0,0000*4A
1627577701768570234,1742,1627577701768418073,gps_frame,$GPGGA,165501.10,4616.73008412,N,11940.85430023,W,4,6,1.7,321.362,M,-17.561,M,1.1,0000*44
1627577701825466702,1743,1627577701825290918,gps_frame,$GPGGA,165501.15,4616.73011087,N,11940.85416302,W,4,6,1.7,321.400,M,-17.561,M,1.1,0000*46
1627577701870967824,1744,1627577701870697021,gps_frame,$GPGGA,165501.20,4616.73022870,N,11940.85421139,W,4,5,1.9,321.339,M,-17.561,M,0.2,0000*4C
1627577701920275448,1745,1627577701920119047,gps_frame,$GPGGA,165501.25,4616.73031318,N,11940.85411038,W,4,5,1.9,321.315,M,-17.561,M,0.2,0000*43
1627577701968611268,1746,1627577701968517065,gps_frame,$GPGGA,165501.30,4616.73026136,N,11940.85417543,W,4,5,1.9,321.325,M,-17.561,M,0.3,0000*42
1627577702020310410,1747,1627577702020217895,gps_frame,$GPGGA,165501.35,4616.73025944,N,11940.85397950,W,4,5,1.9,321.322,M,-17.561,M,0.3,0000*4F
1627577702070110234,1748,1627577702069947004,gps_frame,$GPGGA,165501.40,4616.73036805,N,11940.85411457,W,4,5,1.9,321.293,M,-17.561,M,0.4,0000*44
1627577702120237785,1749,1627577702120091915,gps_frame,$GPGGA,165501.45,4616.73043618,N,11940.85408324,W,4,5,1.9,321.273,M,-17.561,M,0.4,0000*44
1627577702168475135,1750,1627577702168354988,gps_frame,$GPGGA,165501.50,4616.73044892,N,11940.85398088,W,4,5,1.9,321.268,M,-17.561,M,0.5,0000*4B
1627577702220303926,1751,1627577702220110893,gps_frame,$GPGGA,165501.55,4616.73048195,N,11940.85375680,W,4,5,1.9,321.257,M,-17.561,M,0.5,0000*4D
1627577702269716590,1752,1627577702269555091,gps_frame,$GPGGA,165501.60,4616.73052857,N,11940.85400562,W,4,5,1.9,321.284,M,-17.561,M,0.6,0000*40
1627577702320227389,1753,1627577702320110082,gps_frame,$GPGGA,165501.65,4616.73057021,N,11940.85396934,W,4,5,1.9,321.298,M,-17.561,M,0.6,0000*43
1627577702368593790,1754,1627577702368494033,gps_frame,$GPGGA,165501.70,4616.73062123,N,11940.85386885,W,4,5,1.9,321.259,M,-17.561,M,0.7,0000*44
1627577702420313399,1755,1627577702420192956,gps_frame,$GPGGA,165501.75,4616.73066881,N,11940.85368159,W,4,5,1.9,321.239,M,-17.561,M,0.7,0000*4A
1627577702470589724,1756,1627577702470410108,gps_frame,$GPGGA,165501.80,4616.73071586,N,11940.85380745,W,4,5,1.9,321.227,M,-17.561,M,0.8,0000*41
1627577702520299362,1757,1627577702520179033,gps_frame,$GPGGA,165501.85,4616.73076311,N,11940.85369039,W,4,5,1.9,321.212,M,-17.561,M,0.8,0000*46
1627577702568528798,1758,1627577702568348884,gps_frame,$GPGGA,165501.90,4616.73080026,N,11940.85379463,W,4,5,1.9,321.329,M,-17.561,M,0.9,0000*4E
1627577702620329302,1759,1627577702620209932,gps_frame,$GPGGA,165501.95,4616.73084111,N,11940.85368683,W,4,5,1.9,321.397,M,-17.561,M,0.9,0000*43
1627577702676383673,1760,1627577702676187992,gps_frame,$GPGGA,165502.00,4616.73089277,N,11940.85362811,W,4,5,1.9,321.266,M,-17.561,M,1.0,0000*4A
1627577702721346952,1761,1627577702720959901,gps_frame,$GPGGA,165502.05,4616.73094047,N,11940.85343455,W,4,5,1.9,321.208,M,-17.561,M,1.0,0000*45
1627577702768532374,1762,1627577702768408060,gps_frame,$GPGGA,165502.10,4616.73097977,N,11940.85361420,W,4,5,1.9,321.246,M,-17.561,M,1.1,0000*41
1627577702820240251,1763,1627577702820126056,gps_frame,$GPGGA,165502.15,4616.73102213,N,11940.85352915,W,4,5,1.9,321.249,M,-17.561,M,1.1,0000*44
1627577702871288260,1764,1627577702870944976,gps_frame,$GPGGA,165502.20,4616.73104061,N,11940.85352035,W,4,5,1.9,321.189,M,-17.561,M,0.2,0000*45
1627577702920245821,1765,1627577702920125007,gps_frame,$GPGGA,165502.25,4616.73106784,N,11940.85336319,W,4,5,1.9,321.151,M,-17.561,M,0.2,0000*44
1627577702968525721,1766,1627577702968394994,gps_frame,$GPGGA,165502.30,4616.73114842,N,11940.85345076,W,4,5,1.9,321.228,M,-17.561,M,0.3,0000*44
1627577703020334814,1767,1627577703020183086,gps_frame,$GPGGA,165502.35,4616.73120947,N,11940.85336450,W,4,5,1.9,321.262,M,-17.561,M,0.3,0000*48
1627577703069503522,1768,1627577703069379091,gps_frame,$GPGGA,165502.40,4616.73121996,N,11940.85338959,W,4,5,1.9,321.208,M,-17.561,M,0.4,0000*46
1627577703120229241,1769,1627577703120119094,gps_frame,$GPGGA,165502.45,4616.73124897,N,11940.85322463,W,4,5,1.9,321.186,M,-17.561,M,0.4,0000*4C
1627577703168424685,1770,1627577703168301105,gps_frame,$GPGGA,165502.50,4616.73132871,N,11940.85328819,W,4,5,1.9,321.207,M,-17.561,M,0.5,0000*47
1627577703220319916,1771,1627577703220143079,gps_frame,$GPGGA,165502.55,4616.73138987,N,11940.85316904,W,4,5,1.9,321.212,M,-17.561,M,0.5,0000*44
1627577703270853773,1772,1627577703270608901,gps_frame,$GPGGA,165502.60,4616.73140157,N,11940.85325763,W,4,5,1.9,321.234,M,-17.561,M,0.6,0000*40
1627577703320260112,1773,1627577703320146083,gps_frame,$GPGGA,165502.65,4616.73143137,N,11940.85311959,W,4,5,1.9,321.250,M,-17.561,M,0.6,0000*42
1627577703368543975,1774,1627577703368391990,gps_frame,$GPGGA,165502.70,4616.73150594,N,11940.85317200,W,4,5,1.9,321.223,M,-17.561,M,0.7,0000*4D
1627577703420335034,1775,1627577703420186042,gps_frame,$GPGGA,165502.75,4616.73156412,N,11940.85305381,W,4,5,1.9,321.212,M,-17.561,M,0.7,0000*48
1627577703469805149,1776,1627577703469634056,gps_frame,$GPGGA,165502.80,4616.73157400,N,11940.85310677,W,4,5,1.9,321.165,M,-17.561,M,0.8,0000*44
1627577703520578608,1777,1627577703520323991,gps_frame,$GPGGA,165502.85,4616.73160157,N,11940.85295256,W,4,5,1.9,321.132,M,-17.561,M,0.8,0000*4B
1627577703568502676,1778,1627577703568361043,gps_frame,$GPGGA,165502.90,4616.73165714,N,11940.85300878,W,4,5,1.9,321.144,M,-17.561,M,0.9,0000*40
1627577703620307844,1779,1627577703620126008,gps_frame,$GPGGA,165502.95,4616.73170245,N,11940.85289373,W,4,5,1.9,321.140,M,-17.561,M,0.9,0000*44
1627577703676618310,1780,1627577703676470994,gps_frame,$GPGGA,165503.00,4616.73175638,N,11940.85290816,W,4,5,1.9,321.178,M,-17.561,M,1.0,0000*41
1627577703720965563,1781,1627577703720676898,gps_frame,$GPGGA,165503.05,4616.73180716,N,11940.85276008,W,4,5,1.9,321.201,M,-17.561,M,1.0,0000*41
1627577703768802187,1782,1627577703768598079,gps_frame,$GPGGA,165503.10,4616.73183941,N,11940.85285545,W,4,5,1.9,321.103,M,-17.561,M,1.1,0000*4A
1627577703820462526,1783,1627577703820286035,gps_frame,$GPGGA,165503.15,4616.73187844,N,11940.85272428,W,4,5,1.9,321.050,M,-17.561,M,1.1,0000*4A
1627577703871161730,1784,1627577703870822906,gps_frame,$GPGGA,165503.20,4616.73194096,N,11940.85278016,W,4,5,1.9,321.117,M,-17.561,M,0.2,0000*4A
1627577703920266053,1785,1627577703920125007,gps_frame,$GPGGA,165503.25,4616.73199488,N,11940.85265261,W,4,5,1.9,321.141,M,-17.561,M,0.2,0000*44
1627577703968623849,1786,1627577703968472957,gps_frame,$GPGGA,165503.30,4616.73202396,N,11940.85273101,W,4,5,1.9,321.121,M,-17.561,M,0.3,0000*4C
1627577704020495828,1787,1627577704020349025,gps_frame,$GPGGA,165503.35,4616.73206214,N,11940.85259340,W,4,5,1.9,321.117,M,-17.561,M,0.3,0000*4C
1627577704069920042,1788,1627577704069777965,gps_frame,$GPGGA,165503.40,4616.73209661,N,11940.85263625,W,4,5,1.9,321.082,M,-17.561,M,0.4,0000*42
1627577704120263327,1789,1627577704120173931,gps_frame,$GPGGA,165503.45,4616.73213245,N,11940.85249812,W,4,5,1.9,321.059,M,-17.561,M,0.4,0000*4A
1627577704168568011,1790,1627577704168401956,gps_frame,$GPGGA,165503.50,4616.73221439,N,11940.85252492,W,4,5,1.9,321.096,M,-17.561,M,0.5,0000*4E
1627577704220389081,1791,1627577704220210075,gps_frame,$GPGGA,165503.55,4616.73227945,N,11940.85239075,W,4,5,1.9,321.110,M,-17.561,M,0.5,0000*44
1627577704269787107,1792,1627577704269664049,gps_frame,$GPGGA,165503.60,4616.73226829,N,11940.85248822,W,4,5,1.9,321.060,M,-17.561,M,0.6,0000*41
1627577704320509081,1793,1627577704320187091,gps_frame,$GPGGA,165503.65,4616.73228504,N,11940.85233781,W,4,5,1.9,321.033,M,-17.561,M,0.6,0000*44
1627577704368768113,1794,1627577704368556022,gps_frame,$GPGGA,165503.70,4616.73240340,N,11940.85240610,W,4,5,1.9,321.124,M,-17.561,M,0.7,0000*43
1627577704420852014,1795,1627577704420396089,gps_frame,$GPGGA,165503.75,4616.73248454,N,11940.85231970,W,4,5,1.9,321.172,M,-17.561,M,0.7,0000*40
1627577704469677215,1796,1627577704469523906,gps_frame,$GPGGA,165503.80,4616.73248856,N,11940.85233222,W,4,5,1.9,321.044,M,-17.561,M,0.8,0000*41
1627577704520390855,1797,1627577704520176887,gps_frame,$GPGGA,165503.85,4616.73252082,N,11940.85212145,W,4,5,1.9,320.981,M,-17.561,M,0.8,0000*4E
1627577704568518233,1798,1627577704568350076,gps_frame,$GPGGA,165503.90,4616.73257508,N,11940.85225727,W,4,5,1.9,321.048,M,-17.561,M,0.9,0000*42
1627577704620294271,1799,1627577704620104074,gps_frame,$GPGGA,165503.95,4616.73262128,N,11940.85214829,W,4,5,1.9,321.068,M,-17.561,M,0.9,0000*46
1627577704676377971,1800,1627577704676139116,gps_frame,$GPGGA,165504.00,4616.73268138,N,11940.85211910,W,4,5,1.9,320.966,M,-17.561,M,1.0,0000*46
1627577704721204704,1801,1627577704720850944,gps_frame,$GPGGA,165504.05,4616.73273640,N,11940.85194090,W,4,5,1.9,320.909,M,-17.561,M,1.0,0000*47
1627577704768625881,1802,1627577704768507957,gps_frame,$GPGGA,165504.10,4616.73275881,N,11940.85209086,W,4,5,1.9,321.071,M,-17.561,M,1.1,0000*40
1627577704820270194,1803,1627577704820121049,gps_frame,$GPGGA,165504.15,4616.73279316,N,11940.85197350,W,4,5,1.9,321.153,M,-17.561,M,1.1,0000*41
1627577704871743644,1804,1627577704871567964,gps_frame,$GPGGA,165504.20,4616.73286802,N,11940.85201870,W,4,5,1.9,321.062,M,-17.561,M,0.2,0000*4D
1627577704920238867,1805,1627577704920115947,gps_frame,$GPGGA,165504.25,4616.73292805,N,11940.85189718,W,4,5,1.9,321.034,M,-17.561,M,0.2,0000*4B
1627577704968684487,1806,1627577704968529939,gps_frame,$GPGGA,165504.30,4616.73296999,N,11940.85193307,W,4,5,1.9,320.993,M,-17.561,M,0.3,0000*4A
1627577705020626768,1807,1627577705020262002,gps_frame,$GPGGA,165504.35,4616.73301855,N,11940.85176013,W,4,5,1.9,320.956,M,-17.561,M,0.3,0000*45
1627577705069741625,1808,1627577705069626092,gps_frame,$GPGGA,165504.40,4616.73306099,N,11940.85181554,W,4,5,1.9,320.921,M,-17.561,M,0.4,0000*41
1627577705120380066,1809,1627577705120151042,gps_frame,$GPGGA,165504.45,4616.73310567,N,11940.85164616,W,4,5,1.9,320.885,M,-17.561,M,0.4,0000*46
1627577705168547069,1810,1627577705168387889,gps_frame,$GPGGA,165504.50,4616.73313305,N,11940.85177077,W,4,5,1.9,320.982,M,-17.561,M,0.5,0000*47
1627577705220354270,1811,1627577705220124959,gps_frame,$GPGGA,165504.55,4616.73316676,N,11940.85166175,W,4,5,1.9,321.031,M,-17.561,M,0.5,0000*45
1627577705270819801,1812,1627577705270597934,gps_frame,$GPGGA,165504.60,4616.73325870,N,11940.85170890,W,4,5,1.9,320.963,M,-17.561,M,0.6,0000*42
1627577705320366945,1813,1627577705320162057,gps_frame,$GPGGA,165504.65,4616.73332933,N,11940.85159910,W,4,5,1.9,320.937,M,-17.561,M,0.6,0000*44
1627577705368698681,1814,1627577705368556976,gps_frame,$GPGGA,165504.70,4616.73333145,N,11940.85160523,W,4,5,1.9,320.935,M,-17.561,M,0.7,0000*4D
1627577705420345724,1815,1627577705420095920,gps_frame,$GPGGA,165504.75,4616.73335865,N,11940.85139495,W,4,5,1.9,320.924,M,-17.561,M,0.7,0000*45
1627577705469718894,1816,1627577705469572067,gps_frame,$GPGGA,165504.80,4616.73343291,N,11940.85157584,W,4,5,1.9,320.952,M,-17.561,M,0.8,0000*48
1627577705520251207,1817,1627577705520143032,gps_frame,$GPGGA,165504.85,4616.73348993,N,11940.85151281,W,4,5,1.9,320.966,M,-17.561,M,0.8,0000*4C
1627577705568519325,1818,1627577705568363904,gps_frame,$GPGGA,165504.90,4616.73350155,N,11940.85147843,W,4,5,1.9,320.857,M,-17.561,M,0.9,0000*42
1627577705620244471,1819,1627577705620090961,gps_frame,$GPGGA,165504.95,4616.73352981,N,11940.85129308,W,4,5,1.9,320.793,M,-17.561,M,0.9,0000*4F
1627577705676301118,1820,1627577705676103115,gps_frame,$GPGGA,165505.00,4616.73361343,N,11940.85140111,W,4,5,1.9,320.887,M,-17.561,M,1.0,0000*41
1627577705720898068,1821,1627577705720717906,gps_frame,$GPGGA,165505.05,4616.73367677,N,11940.85130668,W,4,5,1.9,320.923,M,-17.561,M,1.0,0000*41
1627577705779640100,1822,1627577705779460906,gps_frame,$GPGGA,165505.10,4616.73367279,N,11940.85135552,W,4,5,1.9,320.882,M,-17.561,M,1.1,0000*4B
1627577705820281846,1823,1627577705820089101,gps_frame,$GPGGA,165505.15,4616.73369346,N,11940.85119700,W,4,5,1.9,320.870,M,-17.561,M,1.1,0000*4B
1627577705872135297,1824,1627577705871855020,gps_frame,$GPGGA,165505.20,4616.73378885,N,11940.85127430,W,4,5,1.9,320.879,M,-17.561,M,0.2,0000*4F
1627577705920285443,1825,1627577705920114040,gps_frame,$GPGGA,165505.25,4616.73385688,N,11940.85118308,W,4,5,1.9,320.881,M,-17.561,M,0.2,0000*4C
1627577705968696920,1826,1627577705968534946,gps_frame,$GPGGA,165505.30,4616.73382958,N,11940.85122604,W,4,5,1.9,320.836,M,-17.561,M,0.3,0000*40
1627577706020365281,1827,1627577706020123958,gps_frame,$GPGGA,165505.35,4616.73383718,N,11940.85105918,W,4,5,1.9,320.808,M,-17.561,M,0.3,0000*44
1627577706069794393,1828,1627577706069614887,gps_frame,$GPGGA,165505.40,4616.73392527,N,11940.85115534,W,4,5,1.9,320.886,M,-17.561,M,0.4,0000*4A
1627577706120237797,1829,1627577706120064973,gps_frame,$GPGGA,165505.45,4616.73398388,N,11940.85109883,W,4,5,1.9,320.925,M,-17.561,M,0.4,0000*42
1627577706168525640,1830,1627577706168370008,gps_frame,$GPGGA,165505.50,4616.73399850,N,11940.85108871,W,4,5,1.9,320.794,M,-17.561,M,0.5,0000*40
1627577706220211414,1831,1627577706220073938,gps_frame,$GPGGA,165505.55,4616.73402923,N,11940.85092910,W,4,5,1.9,320.726,M,-17.561,M,0.5,0000*48
1627577706269730909,1832,1627577706269540071,gps_frame,$GPGGA,165505.60,4616.73405969,N,11940.85103904,W,4,5,1.9,320.826,M,-17.561,M,0.6,0000*47
1627577706320237891,1833,1627577706320079088,gps_frame,$GPGGA,165505.65,4616.73409024,N,11940.85094892,W,4,5,1.9,320.864,M,-17.561,M,0.6,0000*49
1627577706368537815,1834,1627577706368385076,gps_frame,$GPGGA,165505.70,4616.73414327,N,11940.85097901,W,4,5,1.9,320.831,M,-17.561,M,0.7,0000*48
1627577706420221918,1835,1627577706420073986,gps_frame,$GPGGA,165505.75,4616.73418808,N,11940.85088036,W,4,5,1.9,320.824,M,-17.561,M,0.7,0000*40
1627577706469544960,1836,1627577706469404935,gps_frame,$GPGGA,165505.80,4616.73419806,N,11940.85093988,W,4,5,1.9,320.839,M,-17.561,M,0.8,0000*40
1627577706520272101,1837,1627577706520092964,gps_frame,$GPGGA,165505.85,4616.73422080,N,11940.85082576,W,4,5,1.9,320.846,M,-17.561,M,0.8,0000*4E
1627577706568496973,1838,1627577706568315029,gps_frame,$GPGGA,165505.90,4616.73425651,N,11940.85086970,W,4,5,1.9,320.793,M,-17.561,M,0.9,0000*4F
1627577706620219157,1839,1627577706620066881,gps_frame,$GPGGA,165505.95,4616.73428748,N,11940.85077991,W,4,5,1.9,320.762,M,-17.561,M,0.9,0000*41
1627577706676373714,1840,1627577706675992012,gps_frame,$GPGGA,165506.00,4616.73434015,N,11940.85081760,W,4,5,1.9,320.819,M,-17.561,M,1.0,0000*4E
1627577706720806806,1841,1627577706720619916,gps_frame,$GPGGA,165506.05,4616.73438487,N,11940.85072770,W,4,5,1.9,320.844,M,-17.561,M,1.0,0000*4D
1627577706768552024,1842,1627577706768399000,gps_frame,$GPGGA,165506.10,4616.73436832,N,11940.85077436,W,4,5,1.9,320.814,M,-17.561,M,1.1,0000*45
1627577706820255617,1843,1627577706820086956,gps_frame,$GPGGA,165506.15,4616.73437420,N,11940.85065522,W,4,5,1.9,320.805,M,-17.561,M,1.1,0000*49
1627577706870992093,1844,1627577706870723009,gps_frame,$GPGGA,165506.20,4616.73444251,N,11940.85074274,W,4,5,1.9,320.805,M,-17.561,M,0.2,0000*4D
1627577706920218282,1845,1627577706920094966,gps_frame,$GPGGA,165506.25,4616.73448796,N,11940.85071560,W,4,5,1.9,320.802,M,-17.561,M,0.2,0000*4A
1627577706968570411,1846,1627577706968405961,gps_frame,$GPGGA,165506.30,4616.73449096,N,11940.85070263,W,4,5,1.9,320.797,M,-17.561,M,0.3,0000*4F
1627577707020310356,1847,1627577707020126104,gps_frame,$GPGGA,165506.35,4616.73450950,N,11940.85058173,W,4,5,1.9,320.793,M,-17.561,M,0.3,0000*4D
1627577707069582776,1848,1627577707069425106,gps_frame,$GPGGA,165506.40,4616.73453036,N,11940.85064649,W,4,5,1.9,320.816,M,-17.561,M,0.4,0000*41
1627577707120269038,1849,1627577707120098114,gps_frame,$GPGGA,165506.45,4616.73455036,N,11940.85057620,W,4,5,1.9,320.829,M,-17.561,M,0.4,0000*41
1627577707168694996,1850,1627577707168488025,gps_frame,$GPGGA,165506.50,4616.73458547,N,11940.85058242,W,4,5,1.9,320.779,M,-17.561,M,0.5,0000*4F
1627577707220256982,1851,1627577707220101118,gps_frame,$GPGGA,165506.55,4616.73461505,N,11940.85050609,W,4,5,1.9,320.752,M,-17.561,M,0.5,0000*4C
1627577707270804997,1852,1627577707270616054,gps_frame,$GPGGA,165506.60,4616.73465527,N,11940.85053554,W,4,5,1.9,320.802,M,-17.561,M,0.6,0000*4F
1627577707320166760,1853,1627577707320084095,gps_frame,$GPGGA,165506.65,4616.73469160,N,11940.85044995,W,4,5,1.9,320.824,M,-17.561,M,0.6,0000*42
1627577707369114557,1854,1627577707368957042,gps_frame,$GPGGA,165506.70,4616.73471003,N,11940.85048751,W,4,5,1.9,320.721,M,-17.561,M,0.7,0000*4A
1627577707420234410,1855,1627577707420073032,gps_frame,$GPGGA,165506.75,4616.73473502,N,11940.85038334,W,4,5,1.9,320.663,M,-17.561,M,0.7,0000*4E
1627577707470231269,1856,1627577707469959020,gps_frame,$GPGGA,165506.80,4616.73476572,N,11940.85042588,W,4,5,1.9,320.747,M,-17.561,M,0.8,0000*42
1627577707520360379,1857,1627577707520186901,gps_frame,$GPGGA,165506.85,4616.73479432,N,11940.85033889,W,4,5,1.9,320.778,M,-17.561,M,0.8,0000*4B
1627577707568589956,1858,1627577707568474054,gps_frame,$GPGGA,165506.90,4616.73482857,N,11940.85039064,W,4,5,1.9,320.687,M,-17.561,M,0.9,0000*45
1627577707620230441,1859,1627577707620105028,gps_frame,$GPGGA,165506.95,4616.73486075,N,11940.85031450,W,4,5,1.9,320.640,M,-17.561,M,0.9,0000*4C
1627577707677094008,1860,1627577707676772117,gps_frame,$GPGGA,165507.00,4616.73489500,N,11940.85035718,W,4,5,1.9,320.725,M,-17.561,M,1.0,0000*48
1627577707720243903,1861,1627577707720110893,gps_frame,$GPGGA,165507.05,4616.73492849,N,11940.85026934,W,4,5,1.9,320.761,M,-17.561,M,1.0,0000*45
1627577707779732881,1862,1627577707779625892,gps_frame,$GPGGA,165507.10,4616.73495103,N,11940.85029856,W,4,5,1.9,320.717,M,-17.561,M,1.1,0000*4B
1627577707820311794,1863,1627577707820044040,gps_frame,$GPGGA,165507.15,4616.73497759,N,11940.85019294,W,4,5,1.9,320.703,M,-17.561,M,1.1,0000*47
1627577707871515452,1864,1627577707871129989,gps_frame,$GPGGA,165507.20,4616.73501657,N,11940.85023491,W,4,5,1.9,320.689,M,-17.561,M,0.2,0000*4B
1627577707920282977,1865,1627577707920110940,gps_frame,$GPGGA,165507.25,4616.73505100,N,11940.85014527,W,4,5,1.9,320.675,M,-17.561,M,0.2,0000*44
1627577707968637523,1866,1627577707968535900,gps_frame,$GPGGA,165507.30,4616.73508197,N,11940.85019899,W,4,5,1.9,320.743,M,-17.561,M,0.3,0000*43
1627577708020270512,1867,1627577708020117998,gps_frame,$GPGGA,165507.35,4616.73511420,N,11940.85010948,W,4,5,1.9,320.780,M,-17.561,M,0.3,0000*4C
1627577708069868158,1868,1627577708069716930,gps_frame,$GPGGA,165507.40,4616.73514578,N,11940.85014281,W,4,5,1.9,320.699,M,-17.561,M,0.4,0000*43
1627577708120214619,1869,1627577708120088100,gps_frame,$GPGGA,165507.45,4616.73517760,N,11940.85004061,W,4,5,1.9,320.661,M,-17.561,M,0.4,0000*44
1627577708168538226,1870,1627577708168380022,gps_frame,$GPGGA,165507.50,4616.73520753,N,11940.85009881,W,4,5,1.9,320.682,M,-17.561,M,0.5,0000*43
1627577708220211240,1871,1627577708220053911,gps_frame,$GPGGA,165507.55,4616.73523815,N,11940.85000994,W,4,5,1.9,320.682,M,-17.561,M,0.5,0000*44
1627577708269882446,1872,1627577708269684076,gps_frame,$GPGGA,165507.60,4616.73527916,N,11940.85002708,W,4,5,1.9,320.732,M,-17.561,M,0.6,0000*44
1627577708320229703,1873,1627577708320070981,gps_frame,$GPGGA,165507.65,4616.73531636,N,11940.84991990,W,4,5,1.9,320.763,M,-17.561,M,0.6,0000*42
1627577708368714502,1874,1627577708368550062,gps_frame,$GPGGA,165507.70,4616.73532999,N,11940.84998964,W,4,5,1.9,320.696,M,-17.561,M,0.7,0000*47
1627577708420233871,1875,1627577708420083045,gps_frame,$GPGGA,165507.75,4616.73535226,N,11940.84989543,W,4,5,1.9,320.666,M,-17.561,M,0.7,0000*4C
1627577708469934560,1876,1627577708469822883,gps_frame,$GPGGA,165507.80,4616.73540746,N,11940.84991012,W,4,5,1.9,320.684,M,-17.561,M,0.8,0000*4C
1627577708520188750,1877,1627577708520106077,gps_frame,$GPGGA,165507.85,4616.73545060,N,11940.84981456,W,4,5,1.9,320.684,M,-17.561,M,0.8,0000*4A
1627577708568716630,1878,1627577708568537950,gps_frame,$GPGGA,165507.90,4616.73547087,N,11940.84984238,W,4,5,1.9,320.640,M,-17.561,M,0.9,0000*47
1627577708620233268,1879,1627577708620084047,gps_frame,$GPGGA,165507.95,4616.73549952,N,11940.84971778,W,4,5,1.9,320.613,M,-17.561,M,0.9,0000*40
1627577708676505464,1880,1627577708676146984,gps_frame,$GPGGA,165508.00,4616.73553124,N,11940.84980395,W,4,5,1.9,320.611,M,-17.561,M,1.0,0000*42
1627577708721194047,1881,1627577708720840930,gps_frame,$GPGGA,165508.05,4616.73556183,N,11940.84972516,W,4,5,1.9,320.600,M,-17.561,M,1.0,0000*4F
1627577708768725182,1882,1627577708768552064,gps_frame,$GPGGA,165508.10,4616.73561583,N,11940.84976959,W,4,5,1.9,320.680,M,-17.561,M,1.1,0000*41
1627577708820296078,1883,1627577708820127964,gps_frame,$GPGGA,165508.15,4616.73566126,N,11940.84968533,W,4,5,1.9,320.727,M,-17.561,M,1.1,0000*4B
1627577708871003942,1884,1627577708870681047,gps_frame,$GPGGA,165508.20,4616.73567394,N,11940.84972343,W,4,5,1.9,320.735,M,-17.561,M,0.2,0000*4C
1627577708920158646,1885,1627577708920073986,gps_frame,$GPGGA,165508.25,4616.73569862,N,11940.84959961,W,4,5,1.9,320.757,M,-17.561,M,0.2,0000*42
1627577708968551171,1886,1627577708968381881,gps_frame,$GPGGA,165508.30,4616.73574712,N,11940.84964629,W,4,5,1.9,320.621,M,-17.561,M,0.3,0000*4E
1627577709020576690,1887,1627577709020368099,gps_frame,$GPGGA,165508.35,4616.73578691,N,11940.84955008,W,4,5,1.9,320.543,M,-17.561,M,0.3,0000*4D
1627577709069766086,1888,1627577709069565057,gps_frame,$GPGGA,165508.40,4616.73580224,N,11940.84960900,W,4,5,1.9,320.641,M,-17.561,M,0.4,0000*43
1627577709120372713,1889,1627577709120140075,gps_frame,$GPGGA,165508.45,4616.73582652,N,11940.84950981,W,4,5,1.9,320.675,M,-17.561,M,0.4,0000*4C
1627577709168400658,1890,1627577709168287038,gps_frame,$GPGGA,165508.50,4616.73586512,N,11940.84952633,W,4,5,1.9,320.579,M,-17.561,M,0.5,0000*41
1627577709220279917,1891,1627577709220092058,gps_frame,$GPGGA,165508.55,4616.73589849,N,11940.84942417,W,4,5,1.9,320.531,M,-17.561,M,0.5,0000*41
1627577709271170765,1892,1627577709270668029,gps_frame,$GPGGA,165508.60,4616.73595681,N,11940.84946255,W,4,5,1.9,320.604,M,-17.561,M,0.6,0000*42
1627577709320244127,1893,1627577709320081949,gps_frame,$GPGGA,165508.65,4616.73600599,N,11940.84936242,W,4,5,1.9,320.632,M,-17.561,M,0.6,0000*46
1627577709368558182,1894,1627577709368391036,gps_frame,$GPGGA,165508.70,4616.73600041,N,11940.84944024,W,4,5,1.9,320.602,M,-17.561,M,0.7,0000*47
1627577709420211585,1895,1627577709420053005,gps_frame,$GPGGA,165508.75,4616.73601489,N,11940.84932596,W,4,5,1.9,320.594,M,-17.561,M,0.7,0000*42
1627577709469725442,1896,1627577709469568967,gps_frame,$GPGGA,165508.80,4616.73606036,N,11940.84936049,W,4,5,1.9,320.601,M,-17.561,M,0.8,0000*4C
1627577709520270747,1897,1627577709520116090,gps_frame,$GPGGA,165508.85,4616.73609448,N,11940.84928017,W,4,5,1.9,320.603,M,-17.561,M,0.8,0000*4D
1627577709568433899,1898,1627577709568274974,gps_frame,$GPGGA,165508.90,4616.73613605,N,11940.84930380,W,4,5,1.9,320.540,M,-17.561,M,0.9,0000*48
1627577709620213250,1899,1627577709620107889,gps_frame,$GPGGA,165508.95,4616.73617490,N,11940.84920637,W,4,5,1.9,320.501,M,-17.561,M,0.9,0000*4A
1627577709675984732,1900,1627577709675827026,gps_frame,$GPGGA,165509.00,4616.73621318,N,11940.84923212,W,4,5,1.9,320.620,M,-17.561,M,1.0,0000*4D
1627577709720712604,1901,1627577709720581054,gps_frame,$GPGGA,165509.05,4616.73625166,N,11940.84910798,W,4,5,1.9,320.682,M,-17.561,M,1.0,0000*48
1627577709768549583,1902,1627577709768373012,gps_frame,$GPGGA,165509.10,4616.73626444,N,11940.84920128,W,4,5,1.9,320.589,M,-17.561,M,1.1,0000*4D
1627577709820251894,1903,1627577709820086956,gps_frame,$GPGGA,165509.15,4616.73628664,N,11940.84910818,W,4,5,1.9,320.552,M,-17.561,M,1.1,0000*49
1627577709871758664,1904,1627577709871617078,gps_frame,$GPGGA,165509.20,4616.73635286,N,11940.84912908,W,4,5,1.9,320.504,M,-17.561,M,0.2,0000*48
1627577709920226246,1905,1627577709920069932,gps_frame,$GPGGA,165509.25,4616.73640296,N,11940.84903727,W,4,5,1.9,320.460,M,-17.561,M,0.2,0000*4E
1627577709968506445,1906,1627577709968377113,gps_frame,$GPGGA,165509.30,4616.73642625,N,11940.84907070,W,4,5,1.9,320.502,M,-17.561,M,0.3,0000*41
1627577710020784516,1907,1627577710020378112,gps_frame,$GPGGA,165509.35,4616.73645935,N,11940.84893585,W,4,5,1.9,320.513,M,-17.561,M,0.3,0000*4E
1627577710069835733,1908,1627577710069686889,gps_frame,$GPGGA,165509.40,4616.73649026,N,11940.84902972,W,4,5,1.9,320.507,M,-17.561,M,0.4,0000*44
1627577710122281963,1909,1627577710122109889,gps_frame,$GPGGA,165509.45,4616.73652197,N,11940.84893826,W,4,5,1.9,320.507,M,-17.561,M,0.4,0000*49
1627577710168410072,1910,1627577710168260097,gps_frame,$GPGGA,165509.50,4616.73657910,N,11940.84894455,W,4,5,1.9,320.495,M,-17.561,M,0.5,0000*4B
1627577710220212171,1911,1627577710220086097,gps_frame,$GPGGA,165509.55,4616.73662692,N,11940.84882643,W,4,5,1.9,320.487,M,-17.561,M,0.5,0000*4C
1627577710269700591,1912,1627577710269532918,gps_frame,$GPGGA,165509.60,4616.73663244,N,11940.84893024,W,4,5,1.9,320.527,M,-17.561,M,0.6,0000*4B
1627577710320236200,1913,1627577710320080041,gps_frame,$GPGGA,165509.65,4616.73665345,N,11940.84882980,W,4,5,1.9,320.549,M,-17.561,M,0.6,0000*47
1627577710368530168,1914,1627577710368395090,gps_frame,$GPGGA,165509.70,4616.73672977,N,11940.84884326,W,4,5,1.9,320.520,M,-17.561,M,0.7,0000*40
1627577710420216639,1915,1627577710420066118,gps_frame,$GPGGA,165509.75,4616.73678583,N,11940.84874116,W,4,5,1.9,320.509,M,-17.561,M,0.7,0000*4D
1627577710469551224,1916,1627577710469397068,gps_frame,$GPGGA,165509.80,4616.73678534,N,11940.84879430,W,4,5,1.9,320.438,M,-17.561,M,0.8,0000*4B
1627577710520270017,1917,1627577710520114898,gps_frame,$GPGGA,165509.85,4616.73680556,N,11940.84865585,W,4,5,1.9,320.389,M,-17.561,M,0.8,0000*42
1627577710568475551,1918,1627577710568314075,gps_frame,$GPGGA,165509.90,4616.73687362,N,11940.84875855,W,4,5,1.9,320.489,M,-17.561,M,0.9,0000*47
1627577710620262282,1919,1627577710620079040,gps_frame,$GPGGA,165509.95,4616.73692415,N,11940.84869602,W,4,5,1.9,320.535,M,-17.561,M,0.9,0000*46
1627577710676041569,1920,1627577710675770044,gps_frame,$GPGGA,165510.00,4616.73695435,N,11940.84867731,W,4,5,1.9,320.523,M,-17.561,M,1.0,0000*47
1627577710721934106,1921,1627577710721606969,gps_frame,$GPGGA,165510.05,4616.73699199,N,11940.84852033,W,4,5,1.9,320.531,M,-17.561,M,1.0,0000*4D
1627577710768583765,1922,1627577710768403053,gps_frame,$GPGGA,165510.10,4616.73702003,N,11940.84864827,W,4,5,1.9,320.544,M,-17.561,M,1.1,0000*43
1627577710820217390,1923,1627577710820087909,gps_frame,$GPGGA,165510.15,4616.73705158,N,11940.84856013,W,4,5,1.9,320.555,M,-17.561,M,1.1,0000*40
1627577710870780178,1924,1627577710870521068,gps_frame,$GPGGA,165510.20,4616.73709960,N,11940.84857803,W,4,5,1.9,320.481,M,-17.561,M,0.2,0000*4B
1627577710920223391,1925,1627577710920104980,gps_frame,$GPGGA,165510.25,4616.73714160,N,11940.84846616,W,4,5,1.9,320.439,M,-17.561,M,0.2,0000*43
1627577710968538983,1926,1627577710968378067,gps_frame,$GPGGA,165510.30,4616.73716476,N,11940.84851621,W,4,5,1.9,320.439,M,-17.561,M,0.3,0000*44
1627577711020350595,1927,1627577711020245075,gps_frame,$GPGGA,165510.35,4616.73719481,N,11940.84839681,W,4,5,1.9,320.424,M,-17.561,M,0.3,0000*4E
1627577711069734035,1928,1627577711069444894,gps_frame,$GPGGA,165510.40,4616.73724584,N,11940.84845927,W,4,5,1.9,320.497,M,-17.561,M,0.4,0000*41
1627577711120326089,1929,1627577711120157957,gps_frame,$GPGGA,165510.45,4616.73728919,N,11940.84836494,W,4,5,1.9,320.537,M,-17.561,M,0.4,0000*4A
1627577711168457660,1930,1627577711168282032,gps_frame,$GPGGA,165510.50,4616.73729162,N,11940.84840348,W,4,5,1.9,320.450,M,-17.561,M,0.5,0000*4D
1627577711220374558,1931,1627577711220160007,gps_frame,$GPGGA,165510.55,4616.73730903,N,11940.84828110,W,4,5,1.9,320.409,M,-17.561,M,0.5,0000*42
1627577711271119876,1932,1627577711270761013,gps_frame,$GPGGA,165510.60,4616.73737389,N,11940.84836000,W,4,5,1.9,320.452,M,-17.561,M,0.6,0000*49
1627577711320387948,1933,1627577711320214033,gps_frame,$GPGGA,165510.65,4616.73742138,N,11940.84830184,W,4,5,1.9,320.464,M,-17.561,M,0.6,0000*48
1627577711368745464,1934,1627577711368592023,gps_frame,$GPGGA,165510.70,4616.73743935,N,11940.84828336,W,4,5,1.9,320.476,M,-17.561,M,0.7,0000*48
1627577711420338932,1935,1627577711420098066,gps_frame,$GPGGA,165510.75,4616.73746813,N,11940.84813643,W,4,5,1.9,320.489,M,-17.561,M,0.7,0000*42
1627577711469655865,1936,1627577711469499111,gps_frame,$GPGGA,165510.80,4616.73747868,N,11940.84825338,W,4,5,1.9,320.396,M,-17.561,M,0.8,0000*4F
1627577711520449657,1937,1627577711520216941,gps_frame,$GPGGA,165510.85,4616.73749591,N,11940.84818309,W,4,5,1.9,320.342,M,-17.561,M,0.8,0000*4A
1627577711568682720,1938,1627577711568453073,gps_frame,$GPGGA,165510.90,4616.73755001,N,11940.84819190,W,4,5,1.9,320.438,M,-17.561,M,0.9,0000*47
1627577711620506809,1939,1627577711620230913,gps_frame,$GPGGA,165510.95,4616.73759061,N,11940.84811730,W,4,5,1.9,320.479,M,-17.561,M,0.9,0000*49
1627577711675791822,1940,1627577711675585985,gps_frame,$GPGGA,165511.00,4616.73760922,N,11940.84815790,W,4,5,1.9,320.428,M,-17.561,M,1.0,0000*42
1627577711720960604,1941,1627577711720732927,gps_frame,$GPGGA,165511.05,4616.73763589,N,11940.84805755,W,4,5,1.9,320.411,M,-17.561,M,1.0,0000*4B
1627577711768459613,1942,1627577711768332958,gps_frame,$GPGGA,165511.10,4616.73767306,N,11940.84810391,W,4,5,1.9,320.417,M,-17.561,M,1.1,0000*45
1627577711820206910,1943,1627577711820085048,gps_frame,$GPGGA,165511.15,4616.73770639,N,11940.84801459,W,4,5,1.9,320.414,M,-17.561,M,1.1,0000*4F
1627577711870781007,1944,1627577711870610952,gps_frame,$GPGGA,165511.20,4616.73772447,N,11940.84804585,W,4,5,1.9,320.350,M,-17.561,M,0.2,0000*40
1627577711920502312,1945,1627577711920301914,gps_frame,$GPGGA,165511.25,4616.73774814,N,11940.84794457,W,4,5,1.9,320.309,M,-17.561,M,0.2,0000*4D
1627577711968640485,1946,1627577711968410015,gps_frame,$GPGGA,165511.30,4616.73778870,N,11940.84799756,W,4,5,1.9,320.339,M,-17.561,M,0.3,0000*4A
1627577712020414433,1947,1627577712020265102,gps_frame,$GPGGA,165511.35,4616.73782307,N,11940.84792288,W,4,5,1.9,320.344,M,-17.561,M,0.3,0000*46
1627577712070071131,1948,1627577712069715023,gps_frame,$GPGGA,165511.40,4616.73783193,N,11940.84794777,W,4,5,1.9,320.354,M,-17.561,M,0.4,0000*4F
