%time,field.header.seq,field.header.stamp,field.header.frame_id,field.sentence
1627578051469305671,8736,1627578051469178915,gps_frame,$GPGGA,170050.80,4616.74071416,N,11940.85004791,W,4,5,1.9,320.542,M,-17.561,M,0.8,0000*48
1627578051519840221,8737,1627578051519665956,gps_frame,$GPGGA,170050.85,4616.74072831,N,11940.85002589,W,4,5,1.9,320.555,M,-17.561,M,0.8,0000*4C
1627578051568135598,8738,1627578051567974090,gps_frame,$GPGGA,170050.90,4616.74073277,N,11940.85003172,W,4,5,1.9,320.544,M,-17.561,M,0.9,0000*41
1627578051619819877,8739,1627578051619640111,gps_frame,$GPGGA,170050.95,4616.74074079,N,11940.84999500,W,4,5,1.9,320.542,M,-17.561,M,0.9,0000*43
1627578051676283966,8740,1627578051676089048,gps_frame,$GPGGA,170051.00,4616.74074137,N,11940.85002666,W,4,5,1.9,320.569,M,-17.561,M,1.0,0000*4D
1627578051719855001,8741,1627578051719712972,gps_frame,$GPGGA,170051.05,4616.74074468,N,11940.85000751,W,4,5,1.9,320.586,M,-17.561,M,1.0,0000*41
1627578051779764511,8742,1627578051779548883,gps_frame,$GPGGA,170051.10,4616.74076697,N,11940.85001136,W,4,5,1.9,320.581,M,-17.561,M,1.1,0000*45
1627578051819870451,8743,1627578051819678068,gps_frame,$GPGGA,170051.15,4616.74078230,N,11940.84999489,W,4,5,1.9,320.584,M,-17.561,M,1.1,0000*4A
1627578051870370864,8744,1627578051870244979,gps_frame,$GPGGA,170051.20,4616.74076118,N,11940.85000756,W,4,6,1.6,320.410,M,-17.561,M,0.2,0000*40
1627578051919890104,8745,1627578051919712066,gps_frame,$GPGGA,170051.25,4616.74075342,N,11940.84997412,W,4,6,1.6,320.300,M,-17.561,M,0.2,0000*48
1627578051968595203,8746,1627578051968420982,gps_frame,$GPGGA,170051.30,4616.74077736,N,11940.84999463,W,4,6,1.6,320.337,M,-17.561,M,0.3,0000*44
1627578052019966960,8747,1627578052019735097,gps_frame,$GPGGA,170051.35,4616.74078968,N,11940.85000340,W,4,6,1.6,320.320,M,-17.561,M,0.3,0000*43
1627578052069810333,8748,1627578052069622039,gps_frame,$GPGGA,170051.40,4616.74079518,N,11940.84996983,W,4,6,1.6,320.330,M,-17.561,M,0.4,0000*4F
1627578052119850269,8749,1627578052119683980,gps_frame,$GPGGA,170051.45,4616.74080318,N,11940.84992936,W,4,6,1.6,320.331,M,-17.561,M,0.4,0000*41
1627578052168456843,8750,1627578052168250083,gps_frame,$GPGGA,170051.50,4616.74083617,N,11940.84994337,W,4,6,1.6,320.364,M,-17.561,M,0.5,0000*40
1627578052219839933,8751,1627578052219676971,gps_frame,$GPGGA,170051.55,4616.74086000,N,11940.84991275,W,4,6,1.6,320.386,M,-17.561,M,0.5,0000*4E
1627578052269617915,8752,1627578052269428014,gps_frame,$GPGGA,170051.60,4616.74085356,N,11940.84992840,W,4,6,1.6,320.364,M,-17.561,M,0.6,0000*4B
1627578052319865066,8753,1627578052319672107,gps_frame,$GPGGA,170051.65,4616.74085820,N,11940.84987036,W,4,6,1.6,320.358,M,-17.561,M,0.6,0000*46
1627578052368435338,8754,1627578052368257999,gps_frame,$GPGGA,170051.70,4616.74089819,N,11940.84989772,W,4,6,1.6,320.236,M,-17.561,M,0.7,0000*45
1627578052419880337,8755,1627578052419691085,gps_frame,$GPGGA,170051.75,4616.74092524,N,11940.84986974,W,4,6,1.6,320.156,M,-17.561,M,0.7,0000*4B
1627578052470097774,8756,1627578052469938993,gps_frame,$GPGGA,170051.80,4616.74092481,N,11940.84988146,W,4,6,1.6,320.296,M,-17.561,M,0.8,0000*48
1627578052519814849,8757,1627578052519680023,gps_frame,$GPGGA,170051.85,4616.74093444,N,11940.84981686,W,4,6,1.6,320.355,M,-17.561,M,0.8,0000*49
1627578052568211414,8758,1627578052568089008,gps_frame,$GPGGA,170051.90,4616.74095083,N,11940.84986448,W,4,6,1.6,320.282,M,-17.561,M,0.9,0000*49
1627578052619891185,8759,1627578052619719028,gps_frame,$GPGGA,170051.95,4616.74096475,N,11940.84983416,W,4,6,1.6,320.258,M,-17.561,M,0.9,0000*4B
1627578052676137474,8760,1627578052675956010,gps_frame,$GPGGA,170052.00,4616.74096979,N,11940.84984426,W,4,6,1.6,320.268,M,-17.561,M,1.0,0000*4A
1627578052719801107,8761,1627578052719662904,gps_frame,$GPGGA,170052.05,4616.74097808,N,11940.84980353,W,4,6,1.6,320.265,M,-17.561,M,1.0,0000*45
1627578052779450721,8762,1627578052779268980,gps_frame,$GPGGA,170052.10,4616.74101207,N,11940.84980247,W,4,6,1.6,320.324,M,-17.561,M,1.1,0000*4B
1627578052819803519,8763,1627578052819643020,gps_frame,$GPGGA,170052.15,4616.74103666,N,11940.84976063,W,4,6,1.6,320.360,M,-17.561,M,1.1,0000*42
1627578052870247376,8764,1627578052870099067,gps_frame,$GPGGA,170052.20,4616.74107300,N,11940.84978560,W,4,6,1.6,320.491,M,-17.561,M,0.2,0000*46
1627578052919786904,8765,1627578052919683933,gps_frame,$GPGGA,170052.25,4616.74110504,N,11940.84972757,W,4,6,1.6,320.588,M,-17.561,M,0.2,0000*42
1627578052968404096,8766,1627578052968251943,gps_frame,$GPGGA,170052.30,4616.74109065,N,11940.84977032,W,4,6,1.6,320.411,M,-17.561,M,0.3,0000*4D
1627578053019895368,8767,1627578053019767999,gps_frame,$GPGGA,170052.35,4616.74109327,N,11940.84969181,W,4,6,1.6,320.334,M,-17.561,M,0.3,0000*4B
1627578053069434411,8768,1627578053069273948,gps_frame,$GPGGA,170052.40,4616.74113632,N,11940.84972033,W,4,6,1.6,320.381,M,-17.561,M,0.4,0000*48
1627578053119769469,8769,1627578053119645118,gps_frame,$GPGGA,170052.45,4616.74116456,N,11940.84968522,W,4,6,1.6,320.383,M,-17.561,M,0.4,0000*44
1627578053168131428,8770,1627578053167977094,gps_frame,$GPGGA,170052.50,4616.74116073,N,11940.84968893,W,4,6,1.6,320.380,M,-17.561,M,0.5,0000*46
1627578053219842802,8771,1627578053219692945,gps_frame,$GPGGA,170052.55,4616.74116863,N,11940.84961520,W,4,6,1.6,320.378,M,-17.561,M,0.5,0000*41
1627578053270460491,8772,1627578053270170927,gps_frame,$GPGGA,170052.60,4616.74120383,N,11940.84967337,W,4,6,1.6,320.361,M,-17.561,M,0.6,0000*4A
1627578053319794978,8773,1627578053319657087,gps_frame,$GPGGA,170052.65,4616.74122904,N,11940.84964945,W,4,6,1.6,320.349,M,-17.561,M,0.6,0000*4E
1627578053368378375,8774,1627578053368227005,gps_frame,$GPGGA,170052.70,4616.74123890,N,11940.84964298,W,4,6,1.6,320.385,M,-17.561,M,0.7,0000*4D
1627578053419853971,8775,1627578053419626951,gps_frame,$GPGGA,170052.75,4616.74125437,N,11940.84957044,W,4,6,1.6,320.403,M,-17.561,M,0.7,0000*45
1627578053469387394,8776,1627578053469245910,gps_frame,$GPGGA,170052.80,4616.74126596,N,11940.84960723,W,4,6,1.6,320.376,M,-17.561,M,0.8,0000*4E
1627578053519845533,8777,1627578053519666910,gps_frame,$GPGGA,170052.85,4616.74127898,N,11940.84955545,W,4,6,1.6,320.365,M,-17.561,M,0.8,0000*4F
1627578053568131748,8778,1627578053567976951,gps_frame,$GPGGA,170052.90,4616.74131650,N,11940.84957078,W,4,6,1.6,320.377,M,-17.561,M,0.9,0000*4D
1627578053619783281,8779,1627578053619626045,gps_frame,$GPGGA,170052.95,4616.74134505,N,11940.84952407,W,4,6,1.6,320.380,M,-17.561,M,0.9,0000*4F
1627578053676234227,8780,1627578053676032066,gps_frame,$GPGGA,170053.00,4616.74133873,N,11940.84953864,W,4,6,1.6,320.351,M,-17.561,M,1.0,0000*45
1627578053719751965,8781,1627578053719595909,gps_frame,$GPGGA,170053.05,4616.74134517,N,11940.84946080,W,4,6,1.6,320.335,M,-17.561,M,1.0,0000*4C
1627578053779686412,8782,1627578053779406070,gps_frame,$GPGGA,170053.10,4616.74139147,N,11940.84949002,W,4,6,1.6,320.373,M,-17.561,M,1.1,0000*42
1627578053819792773,8783,1627578053819633960,gps_frame,$GPGGA,170053.15,4616.74142317,N,11940.84944928,W,4,6,1.6,320.391,M,-17.561,M,1.1,0000*4C
1627578053870288448,8784,1627578053870134115,gps_frame,$GPGGA,170053.20,4616.74142441,N,11940.84946565,W,4,6,1.6,320.369,M,-17.561,M,0.2,0000*4C
1627578053919767443,8785,1627578053919641971,gps_frame,$GPGGA,170053.25,4616.74143681,N,11940.84938809,W,4,6,1.6,320.361,M,-17.561,M,0.2,0000*40
1627578053968318916,8786,1627578053968193054,gps_frame,$GPGGA,170053.30,4616.74147972,N,11940.84941081,W,4,6,1.6,320.368,M,-17.561,M,0.3,0000*4D
1627578054019892257,8787,1627578054019740104,gps_frame,$GPGGA,170053.35,4616.74151146,N,11940.84935120,W,4,6,1.6,320.369,M,-17.561,M,0.3,0000*48
1627578054069583732,8788,1627578054069427967,gps_frame,$GPGGA,170053.40,4616.74151877,N,11940.84937752,W,4,6,1.6,320.349,M,-17.561,M,0.4,0000*45
1627578054119801253,8789,1627578054119640111,gps_frame,$GPGGA,170053.45,4616.74153503,N,11940.84929579,W,4,6,1.6,320.337,M,-17.561,M,0.4,0000*41
1627578054168172025,8790,1627578054168011903,gps_frame,$GPGGA,170053.50,4616.74156765,N,11940.84934978,W,4,6,1.6,320.354,M,-17.561,M,0.5,0000*47
1627578054219784129,8791,1627578054219626903,gps_frame,$GPGGA,170053.55,4616.74159428,N,11940.84930001,W,4,6,1.6,320.360,M,-17.561,M,0.5,0000*43
1627578054269596272,8792,1627578054269439935,gps_frame,$GPGGA,170053.60,4616.74162394,N,11940.84931505,W,4,6,1.6,320.324,M,-17.561,M,0.6,0000*4E
1627578054319756025,8793,1627578054319633960,gps_frame,$GPGGA,170053.65,4616.74165250,N,11940.84923869,W,4,6,1.6,320.304,M,-17.561,M,0.6,0000*43
1627578054368399992,8794,1627578054368241071,gps_frame,$GPGGA,170053.70,4616.74168109,N,11940.84925018,W,4,6,1.6,320.318,M,-17.561,M,0.7,0000*41
1627578054419809311,8795,1627578054419636011,gps_frame,$GPGGA,170053.75,4616.74170967,N,11940.84915156,W,4,6,1.6,320.319,M,-17.561,M,0.7,0000*44
1627578054469410445,8796,1627578054469259023,gps_frame,$GPGGA,170053.80,4616.74172176,N,11940.84921371,W,4,6,1.6,320.307,M,-17.561,M,0.8,0000*44
1627578054519807582,8797,1627578054519664049,gps_frame,$GPGGA,170053.85,4616.74173988,N,11940.84913789,W,4,6,1.6,320.300,M,-17.561,M,0.8,0000*4C
1627578054568339849,8798,1627578054568101882,gps_frame,$GPGGA,170053.90,4616.74176452,N,11940.84918560,W,4,6,1.6,320.318,M,-17.561,M,0.9,0000*41
1627578054619759207,8799,1627578054619637012,gps_frame,$GPGGA,170053.95,4616.74178678,N,11940.84913178,W,4,6,1.6,320.326,M,-17.561,M,0.9,0000*4B
1627578054676198275,8800,1627578054675957918,gps_frame,$GPGGA,170054.00,4616.74184354,N,11940.84912735,W,4,6,1.6,320.266,M,-17.561,M,1.0,0000*4B
1627578054719818732,8801,1627578054719655990,gps_frame,$GPGGA,170054.05,4616.74188766,N,11940.84904562,W,4,6,1.6,320.231,M,-17.561,M,1.0,0000*42
1627578054779502186,8802,1627578054779366970,gps_frame,$GPGGA,170054.10,4616.74189384,N,11940.84907722,W,4,6,1.6,320.302,M,-17.561,M,1.1,0000*4A
1627578054819726080,8803,1627578054819634914,gps_frame,$GPGGA,170054.15,4616.74191390,N,11940.84895793,W,4,6,1.6,320.334,M,-17.561,M,1.1,0000*46
1627578054870298480,8804,1627578054870142936,gps_frame,$GPGGA,170054.20,4616.74195712,N,11940.84902528,W,4,6,1.6,320.279,M,-17.561,M,0.2,0000*4D
1627578054919784859,8805,1627578054919651985,gps_frame,$GPGGA,170054.25,4616.74199186,N,11940.84895465,W,4,6,1.6,320.256,M,-17.561,M,0.2,0000*45
1627578054968387837,8806,1627578054968230009,gps_frame,$GPGGA,170054.30,4616.74199883,N,11940.84897001,W,4,6,1.6,320.261,M,-17.561,M,0.3,0000*4C
1627578055019876306,8807,1627578055019695997,gps_frame,$GPGGA,170054.35,4616.74201597,N,11940.84886627,W,4,6,1.6,320.256,M,-17.561,M,0.3,0000*45
1627578055069370435,8808,1627578055069221019,gps_frame,$GPGGA,170054.40,4616.74207155,N,11940.84891136,W,4,6,1.6,320.239,M,-17.561,M,0.4,0000*44
1627578055119789970,8809,1627578055119637012,gps_frame,$GPGGA,170054.45,4616.74211305,N,11940.84884420,W,4,6,1.6,320.227,M,-17.561,M,0.4,0000*48
1627578055168159583,8810,1627578055167979001,gps_frame,$GPGGA,170054.50,4616.74213512,N,11940.84884149,W,4,6,1.6,320.230,M,-17.561,M,0.5,0000*43
1627578055219802982,8811,1627578055219635009,gps_frame,$GPGGA,170054.55,4616.74216430,N,11940.84871451,W,4,6,1.6,320.227,M,-17.561,M,0.5,0000*42
1627578055270242572,8812,1627578055270090103,gps_frame,$GPGGA,170054.60,4616.74220213,N,11940.84880928,W,4,6,1.6,320.222,M,-17.561,M,0.6,0000*4D
1627578055319774349,8813,1627578055319660902,gps_frame,$GPGGA,170054.65,4616.74223679,N,11940.84873485,W,4,6,1.6,320.217,M,-17.561,M,0.6,0000*43
1627578055368729982,8814,1627578055368602991,gps_frame,$GPGGA,170054.70,4616.74227217,N,11940.84873959,W,4,6,1.6,320.203,M,-17.561,M,0.7,0000*47
1627578055419746754,8815,1627578055419658899,gps_frame,$GPGGA,170054.75,4616.74230728,N,11940.84862255,W,4,6,1.6,320.191,M,-17.561,M,0.7,0000*42
1627578055469532978,8816,1627578055469352006,gps_frame,$GPGGA,170054.80,4616.74235109,N,11940.84870281,W,4,6,1.6,320.197,M,-17.561,M,0.8,0000*4B
1627578055519892701,8817,1627578055519747018,gps_frame,$GPGGA,170054.85,4616.74239171,N,11940.84861387,W,4,6,1.6,320.196,M,-17.561,M,0.8,0000*4B
1627578055568572588,8818,1627578055568315029,gps_frame,$GPGGA,170054.90,4616.74241070,N,11940.84866044,W,4,6,1.6,320.195,M,-17.561,M,0.9,0000*49
1627578055619759914,8819,1627578055619638919,gps_frame,$GPGGA,170054.95,4616.74243761,N,11940.84854814,W,4,6,1.6,320.193,M,-17.561,M,0.9,0000*43
1627578055676482308,8820,1627578055676273107,gps_frame,$GPGGA,170055.00,4616.74249435,N,11940.84858020,W,4,6,1.6,320.202,M,-17.561,M,1.0,0000*46
1627578055719812458,8821,1627578055719655990,gps_frame,$GPGGA,170055.05,4616.74254018,N,11940.84847686,W,4,6,1.6,320.206,M,-17.561,M,1.0,0000*44
1627578055780202804,8822,1627578055779966115,gps_frame,$GPGGA,170055.10,4616.74258808,N,11940.84855182,W,4,6,1.6,320.148,M,-17.561,M,1.1,0000*4D
1627578055819804962,8823,1627578055819627046,gps_frame,$GPGGA,170055.15,4616.74263521,N,11940.84844567,W,4,6,1.6,320.113,M,-17.561,M,1.1,0000*47
1627578055870421180,8824,1627578055870276927,gps_frame,$GPGGA,170055.20,4616.74265133,N,11940.84851308,W,4,6,1.6,320.176,M,-17.561,M,0.2,0000*4A
1627578055919805888,8825,1627578055919636011,gps_frame,$GPGGA,170055.25,4616.74267880,N,11940.84838718,W,4,6,1.6,320.204,M,-17.561,M,0.2,0000*40
1627578055968766111,8826,1627578055968556880,gps_frame,$GPGGA,170055.30,4616.74275422,N,11940.84845711,W,4,6,1.6,320.164,M,-17.561,M,0.3,0000*44
1627578056019835094,8827,1627578056019661903,gps_frame,$GPGGA,170055.35,4616.74281209,N,11940.84836777,W,4,6,1.6,320.149,M,-17.561,M,0.3,0000*4E
1627578056069775921,8828,1627578056069597959,gps_frame,$GPGGA,170055.40,4616.74281593,N,11940.84839448,W,4,6,1.6,320.140,M,-17.561,M,0.4,0000*46
1627578056119745057,8829,1627578056119609117,gps_frame,$GPGGA,170055.45,4616.74283956,N,11940.84823623,W,4,6,1.6,320.129,M,-17.561,M,0.4,0000*4F
1627578056168368953,8830,1627578056168200969,gps_frame,$GPGGA,170055.50,4616.74286323,N,11940.84832387,W,4,6,1.6,320.155,M,-17.561,M,0.5,0000*47
1627578056219816732,8831,1627578056219633102,gps_frame,$GPGGA,170055.55,4616.74288688,N,11940.84823604,W,4,6,1.6,320.166,M,-17.561,M,0.5,0000*46
1627578056269730336,8832,1627578056269573926,gps_frame,$GPGGA,170055.60,4616.74298560,N,11940.84825034,W,4,6,1.6,320.096,M,-17.561,M,0.6,0000*4A
1627578056319755346,8833,1627578056319590091,gps_frame,$GPGGA,170055.65,4616.74305683,N,11940.84816177,W,4,6,1.6,320.055,M,-17.561,M,0.6,0000*4D
1627578056368570258,8834,1627578056368443965,gps_frame,$GPGGA,170055.70,4616.74303378,N,11940.84820589,W,4,6,1.6,320.105,M,-17.561,M,0.7,0000*4B
1627578056419795837,8835,1627578056419641971,gps_frame,$GPGGA,170055.75,4616.74304525,N,11940.84803200,W,4,6,1.6,320.121,M,-17.561,M,0.7,0000*46
1627578056469600228,8836,1627578056469441890,gps_frame,$GPGGA,170055.80,4616.74315910,N,11940.84821182,W,4,6,1.6,320.109,M,-17.561,M,0.8,0000*4A
1627578056519842667,8837,1627578056519685983,gps_frame,$GPGGA,170055.85,4616.74323547,N,11940.84819543,W,4,6,1.6,320.107,M,-17.561,M,0.8,0000*48
1627578056568372537,8838,1627578056568243026,gps_frame,$GPGGA,170055.90,4616.74324301,N,11940.84813306,W,4,6,1.6,320.081,M,-17.561,M,0.9,0000*4C
1627578056619825188,8839,1627578056619635105,gps_frame,$GPGGA,170055.95,4616.74327574,N,11940.84791400,W,4,6,1.6,320.064,M,-17.561,M,0.9,0000*41
1627578056676412802,8840,1627578056676215887,gps_frame,$GPGGA,170056.00,4616.74334464,N,11940.84811076,W,4,6,1.6,320.089,M,-17.561,M,1.0,0000*45
1627578056719774526,8841,1627578056719619989,gps_frame,$GPGGA,170056.05,4616.74340030,N,11940.84803912,W,4,6,1.6,320.099,M,-17.561,M,1.0,0000*4F
1627578056779472253,8842,1627578056779305934,gps_frame,$GPGGA,170056.10,4616.74344942,N,11940.84806013,W,4,6,1.6,320.053,M,-17.561,M,1.1,0000*49
1627578056819801257,8843,1627578056819626092,gps_frame,$GPGGA,170056.15,4616.74350094,N,11940.84790649,W,4,6,1.6,320.028,M,-17.561,M,1.1,0000*4E
1627578056871081375,8844,1627578056870929002,gps_frame,$GPGGA,170056.20,4616.74354261,N,11940.84802798,W,4,6,1.6,320.054,M,-17.561,M,0.2,0000*44
1627578056919811961,8845,1627578056919651031,gps_frame,$GPGGA,170056.25,4616.74358789,N,11940.84790367,W,4,6,1.6,320.061,M,-17.561,M,0.2,0000*48
1627578056968509113,8846,1627578056968357086,gps_frame,$GPGGA,170056.30,4616.74368046,N,11940.84799654,W,4,6,1.6,320.077,M,-17.561,M,0.3,0000*41
1627578057019773435,8847,1627578057019650936,gps_frame,$GPGGA,170056.35,4616.74375571,N,11940.84788086,W,4,6,1.6,320.090,M,-17.561,M,0.3,0000*49
1627578057069535262,8848,1627578057069449901,gps_frame,$GPGGA,170056.40,4616.74373425,N,11940.84797219,W,4,6,1.6,320.048,M,-17.561,M,0.4,0000*45
1627578057119752630,8849,1627578057119636058,gps_frame,$GPGGA,170056.45,4616.74374820,N,11940.84779688,W,4,6,1.6,320.026,M,-17.561,M,0.4,0000*4A
1627578057168376587,8850,1627578057168210983,gps_frame,$GPGGA,170056.50,4616.74388370,N,11940.84800138,W,4,6,1.6,320.060,M,-17.561,M,0.5,0000*4D
1627578057219802311,8851,1627578057219635963,gps_frame,$GPGGA,170056.55,4616.74397471,N,11940.84799236,W,4,6,1.6,320.073,M,-17.561,M,0.5,0000*40
1627578057271025159,8852,1627578057270863056,gps_frame,$GPGGA,170056.60,4616.74400532,N,11940.84796359,W,4,6,1.6,320.065,M,-17.561,M,0.6,0000*4A
1627578057319818584,8853,1627578057319655895,gps_frame,$GPGGA,170056.65,4616.74405804,N,11940.84773511,W,4,6,1.6,320.065,M,-17.561,M,0.6,0000*43
1627578057368590108,8854,1627578057368437051,gps_frame,$GPGGA,170056.70,4616.74406451,N,11940.84796440,W,4,6,1.6,320.072,M,-17.561,M,0.7,0000*41
1627578057419800634,8855,1627578057419636011,gps_frame,$GPGGA,170056.75,4616.74408791,N,11940.84785771,W,4,6,1.6,320.077,M,-17.561,M,0.7,0000*43
1627578057469579669,8856,1627578057469427108,gps_frame,$GPGGA,170056.80,4616.74419980,N,11940.84790321,W,4,6,1.6,320.055,M,-17.561,M,0.8,0000*4D
1627578057519889027,8857,1627578057519738912,gps_frame,$GPGGA,170056.85,4616.74427930,N,11940.84781103,W,4,6,1.6,320.043,M,-17.561,M,0.8,0000*4B
1627578057568333329,8858,1627578057568161010,gps_frame,$GPGGA,170056.90,4616.74431168,N,11940.84787647,W,4,6,1.6,320.032,M,-17.561,M,0.9,0000*4B
1627578057620077659,8859,1627578057619946956,gps_frame,$GPGGA,170056.95,4616.74436131,N,11940.84769689,W,4,6,1.6,320.021,M,-17.561,M,0.9,0000*45
1627578057676522833,8860,1627578057676373958,gps_frame,$GPGGA,170057.00,4616.74438296,N,11940.84787810,W,4,6,1.6,320.033,M,-17.561,M,1.0,0000*4D
1627578057719765747,8861,1627578057719643115,gps_frame,$GPGGA,170057.05,4616.74441485,N,11940.84777232,W,4,6,1.6,320.036,M,-17.561,M,1.0,0000*42
1627578057779888695,8862,1627578057779694080,gps_frame,$GPGGA,170057.10,4616.74451598,N,11940.84783842,W,4,6,1.6,320.045,M,-17.561,M,1.1,0000*49
1627578057819830045,8863,1627578057819641113,gps_frame,$GPGGA,170057.15,4616.74459176,N,11940.84774290,W,4,6,1.6,320.052,M,-17.561,M,1.1,0000*4B
1627578057870421189,8864,1627578057870264053,gps_frame,$GPGGA,170057.20,4616.74461898,N,11940.84785375,W,4,6,1.6,320.039,M,-17.561,M,0.2,0000*44
1627578057919766981,8865,1627578057919653892,gps_frame,$GPGGA,170057.25,4616.74466399,N,11940.84770488,W,4,6,1.6,320.033,M,-17.561,M,0.2,0000*49
1627578057968574979,8866,1627578057968420028,gps_frame,$GPGGA,170057.30,4616.74470190,N,11940.84783121,W,4,6,1.6,320.023,M,-17.561,M,0.3,0000*4B
1627578058019815219,8867,1627578058019691944,gps_frame,$GPGGA,170057.35,4616.74474240,N,11940.84771418,W,4,6,1.6,320.015,M,-17.561,M,0.3,0000*43
1627578058069765633,8868,1627578058069597959,gps_frame,$GPGGA,170057.40,4616.74483452,N,11940.84783612,W,4,6,1.6,320.028,M,-17.561,M,0.4,0000*40
1627578058119840523,8869,1627578058119657039,gps_frame,$GPGGA,170057.45,4616.74490775,N,11940.84775577,W,4,6,1.6,320.033,M,-17.561,M,0.4,0000*42
1627578058168327686,8870,1627578058168170928,gps_frame,$GPGGA,170057.50,4616.74492001,N,11940.84786222,W,4,6,1.6,320.038,M,-17.561,M,0.5,0000*41
1627578058219812033,8871,1627578058219650983,gps_frame,$GPGGA,170057.55,4616.74495458,N,11940.84771665,W,4,6,1.6,320.043,M,-17.561,M,0.5,0000*48
1627578058269766387,8872,1627578058269576072,gps_frame,$GPGGA,170057.60,4616.74501949,N,11940.84785713,W,4,6,1.6,320.056,M,-17.561,M,0.6,0000*43
1627578058319816495,8873,1627578058319657087,gps_frame,$GPGGA,170057.65,4616.74507329,N,11940.84777453,W,4,6,1.6,320.067,M,-17.561,M,0.6,0000*44
1627578058368555339,8874,1627578058368432044,gps_frame,$GPGGA,170057.70,4616.74512360,N,11940.84790324,W,4,6,1.6,320.066,M,-17.561,M,0.7,0000*47
1627578058419769790,8875,1627578058419627904,gps_frame,$GPGGA,170057.75,4616.74517519,N,11940.84781684,W,4,6,1.6,320.070,M,-17.561,M,0.7,0000*47
1627578058469528368,8876,1627578058469403028,gps_frame,$GPGGA,170057.80,4616.74522371,N,11940.84789706,W,4,6,1.6,320.052,M,-17.561,M,0.8,0000*4F
1627578058519802384,8877,1627578058519673109,gps_frame,$GPGGA,170057.85,4616.74527335,N,11940.84777212,W,4,6,1.6,320.042,M,-17.561,M,0.8,0000*4F
1627578058568314428,8878,1627578058568157911,gps_frame,$GPGGA,170057.90,4616.74532332,N,11940.84794566,W,4,6,1.6,320.043,M,-17.561,M,0.9,0000*41
1627578058619724371,8879,1627578058619596958,gps_frame,$GPGGA,170057.95,4616.74537318,N,11940.84787133,W,4,6,1.6,320.040,M,-17.561,M,0.9,0000*4C
1627578058676481458,8880,1627578058676274061,gps_frame,$GPGGA,170058.00,4616.74540952,N,11940.84796561,W,4,6,1.6,320.086,M,-17.561,M,1.0,0000*4A
1627578058719747279,8881,1627578058719621896,gps_frame,$GPGGA,170058.05,4616.74545081,N,11940.84786024,W,4,6,1.6,320.114,M,-17.561,M,1.0,0000*42
1627578058779872649,8882,1627578058779685974,gps_frame,$GPGGA,170058.10,4616.74551774,N,11940.84797081,W,4,6,1.6,320.053,M,-17.561,M,1.1,0000*42
1627578058819792354,8883,1627578058819643974,gps_frame,$GPGGA,170058.15,4616.74557528,N,11940.84788298,W,4,6,1.6,320.024,M,-17.561,M,1.1,0000*4E
1627578058870494274,8884,1627578058870322942,gps_frame,$GPGGA,170058.20,4616.74560147,N,11940.84801765,W,4,7,1.2,320.030,M,-17.561,M,0.2,0000*4A
1627578058919777764,8885,1627578058919655084,gps_frame,$GPGGA,170058.25,4616.74563914,N,11940.84792102,W,4,7,1.2,320.023,M,-17.561,M,0.2,0000*42
1627578058968439136,8886,1627578058968282938,gps_frame,$GPGGA,170058.30,4616.74570274,N,11940.84803818,W,4,7,1.2,320.047,M,-17.561,M,0.3,0000*4F
1627578059019859477,8887,1627578059019681930,gps_frame,$GPGGA,170058.35,4616.74575685,N,11940.84796114,W,4,7,1.2,320.060,M,-17.561,M,0.3,0000*46
1627578059069564860,8888,1627578059069408893,gps_frame,$GPGGA,170058.40,4616.74579483,N,11940.84806263,W,4,7,1.2,320.043,M,-17.561,M,0.4,0000*4F
1627578059119803677,8889,1627578059119646072,gps_frame,$GPGGA,170058.45,4616.74583872,N,11940.84795854,W,4,7,1.2,320.038,M,-17.561,M,0.4,0000*4A
1627578059168242320,8890,1627578059168113946,gps_frame,$GPGGA,170058.50,4616.74587848,N,11940.84809773,W,4,7,1.2,320.038,M,-17.561,M,0.5,0000*42
1627578059219759575,8891,1627578059219635009,gps_frame,$GPGGA,170058.55,4616.74591975,N,11940.84802036,W,4,7,1.2,320.036,M,-17.561,M,0.5,0000*4C
1627578059270894120,8892,1627578059270729064,gps_frame,$GPGGA,170058.60,4616.74596141,N,11940.84813914,W,4,7,1.2,320.063,M,-17.561,M,0.6,0000*48
1627578059319763141,8893,1627578059319639921,gps_frame,$GPGGA,170058.65,4616.74600293,N,11940.84807030,W,4,7,1.2,320.080,M,-17.561,M,0.6,0000*4A
1627578059368580502,8894,1627578059368421077,gps_frame,$GPGGA,170058.70,4616.74604490,N,11940.84817001,W,4,7,1.2,320.059,M,-17.561,M,0.7,0000*49
1627578059419780501,8895,1627578059419651985,gps_frame,$GPGGA,170058.75,4616.74608671,N,11940.84809318,W,4,7,1.2,320.052,M,-17.561,M,0.7,0000*42
1627578059469593781,8896,1627578059469448089,gps_frame,$GPGGA,170058.80,4616.74613553,N,11940.84820553,W,4,7,1.2,320.082,M,-17.561,M,0.8,0000*41
1627578059519829837,8897,1627578059519644021,gps_frame,$GPGGA,170058.85,4616.74618177,N,11940.84813302,W,4,7,1.2,320.099,M,-17.561,M,0.8,0000*45
1627578059568286600,8898,1627578059568150043,gps_frame,$GPGGA,170058.90,4616.74622548,N,11940.84822593,W,4,7,1.2,320.044,M,-17.561,M,0.9,0000*4D
1627578059619794742,8899,1627578059619622945,gps_frame,$GPGGA,170058.95,4616.74627012,N,11940.84813281,W,4,7,1.2,320.015,M,-17.561,M,0.9,0000*45
1627578059676617055,8900,1627578059676347017,gps_frame,$GPGGA,170059.00,4616.74630892,N,11940.84829529,W,4,7,1.2,320.075,M,-17.561,M,1.0,0000*4C
1627578059719745458,8901,1627578059719649076,gps_frame,$GPGGA,170059.05,4616.74634986,N,11940.84823965,W,4,7,1.2,320.102,M,-17.561,M,1.0,0000*46
1627578059779883836,8902,1627578059779695987,gps_frame,$GPGGA,170059.10,4616.74638789,N,11940.84833931,W,4,7,1.2,320.091,M,-17.561,M,1.1,0000*45
1627578059819785372,8903,1627578059819650888,gps_frame,$GPGGA,170059.15,4616.74642699,N,11940.84826658,W,4,7,1.2,320.094,M,-17.561,M,1.1,0000*4C
1627578059870732971,8904,1627578059870542049,gps_frame,$GPGGA,170059.20,4616.74645915,N,11940.84838169,W,4,7,1.2,320.106,M,-17.561,M,0.2,0000*44
1627578059919741744,8905,1627578059919619083,gps_frame,$GPGGA,170059.25,4616.74649385,N,11940.84831868,W,4,7,1.2,320.114,M,-17.561,M,0.2,0000*4C
1627578059968612241,8906,1627578059968455076,gps_frame,$GPGGA,170059.30,4616.74654954,N,11940.84844220,W,4,7,1.2,320.123,M,-17.561,M,0.3,0000*43
1627578060019840227,8907,1627578060019682884,gps_frame,$GPGGA,170059.35,4616.74659754,N,11940.84839877,W,4,7,1.2,320.131,M,-17.561,M,0.3,0000*44
1627578060069807926,8908,1627578060069645881,gps_frame,$GPGGA,170059.40,4616.74663635,N,11940.84848322,W,4,7,1.2,320.131,M,-17.561,M,0.4,0000*43
1627578060119774585,8909,1627578060119637012,gps_frame,$GPGGA,170059.45,4616.74667853,N,11940.84839569,W,4,7,1.2,320.134,M,-17.561,M,0.4,0000*46
1627578060168468838,8910,1627578060168287038,gps_frame,$GPGGA,170059.50,4616.74670714,N,11940.84854913,W,4,7,1.2,320.127,M,-17.561,M,0.5,0000*41
1627578060219757005,8911,1627578060219635009,gps_frame,$GPGGA,170059.55,4616.74674071,N,11940.84849416,W,4,7,1.2,320.124,M,-17.561,M,0.5,0000*43
1627578060269809924,8912,1627578060269655942,gps_frame,$GPGGA,170059.60,4616.74679648,N,11940.84861133,W,4,7,1.2,320.129,M,-17.561,M,0.6,0000*42
1627578060319704956,8913,1627578060319619894,gps_frame,$GPGGA,170059.65,4616.74684413,N,11940.84856748,W,4,7,1.2,320.131,M,-17.561,M,0.6,0000*4E
1627578060368669781,8914,1627578060368511915,gps_frame,$GPGGA,170059.70,4616.74686383,N,11940.84867342,W,4,7,1.2,320.148,M,-17.561,M,0.7,0000*45
1627578060419773693,8915,1627578060419627904,gps_frame,$GPGGA,170059.75,4616.74689376,N,11940.84860082,W,4,7,1.2,320.160,M,-17.561,M,0.7,0000*47
1627578060469594265,8916,1627578060469485044,gps_frame,$GPGGA,170059.80,4616.74695797,N,11940.84873824,W,4,7,1.2,320.169,M,-17.561,M,0.8,0000*4B
1627578060519830733,8917,1627578060519690990,gps_frame,$GPGGA,170059.85,4616.74700963,N,11940.84870554,W,4,7,1.2,320.180,M,-17.561,M,0.8,0000*48
1627578060568369162,8918,1627578060568253040,gps_frame,$GPGGA,170059.90,4616.74703550,N,11940.84878809,W,4,7,1.2,320.154,M,-17.561,M,0.9,0000*46
1627578060619841833,8919,1627578060619682073,gps_frame,$GPGGA,170059.95,4616.74707081,N,11940.84869810,W,4,7,1.2,320.141,M,-17.561,M,0.9,0000*42
1627578060676738106,8920,1627578060676556110,gps_frame,$GPGGA,170100.00,4616.74711266,N,11940.84885216,W,4,7,1.2,320.155,M,-17.561,M,1.0,0000*4C
1627578060719736999,8921,1627578060719616889,gps_frame,$GPGGA,170100.05,4616.74715212,N,11940.84880953,W,4,7,1.2,320.159,M,-17.561,M,1.0,0000*4D
1627578060780382669,8922,1627578060780071973,gps_frame,$GPGGA,170100.10,4616.74720334,N,11940.84892828,W,4,7,1.2,320.178,M,-17.561,M,1.1,0000*46
1627578060819833152,8923,1627578060819678068,gps_frame,$GPGGA,170100.15,4616.74725025,N,11940.84888111,W,4,7,1.2,320.192,M,-17.561,M,1.1,0000*49
1627578060870626772,8924,1627578060870542049,gps_frame,$GPGGA,170100.20,4616.74727007,N,11940.84897635,W,4,7,1.2,320.159,M,-17.561,M,0.2,0000*47
1627578060919816431,8925,1627578060919692993,gps_frame,$GPGGA,170100.25,4616.74729980,N,11940.84889390,W,4,7,1.2,320.143,M,-17.561,M,0.2,0000*44
1627578060968629683,8926,1627578060968472957,gps_frame,$GPGGA,170100.30,4616.74735824,N,11940.84908643,W,4,7,1.2,320.182,M,-17.561,M,0.3,0000*4D
1627578061019814134,8927,1627578061019686937,gps_frame,$GPGGA,170100.35,4616.74740616,N,11940.84908589,W,4,7,1.2,320.201,M,-17.561,M,0.3,0000*48
1627578061069679547,8928,1627578061069523096,gps_frame,$GPGGA,170100.40,4616.74742983,N,11940.84912873,W,4,7,1.2,320.189,M,-17.561,M,0.4,0000*4C
1627578061119808626,8929,1627578061119647979,gps_frame,$GPGGA,170100.45,4616.74746238,N,11940.84903360,W,4,7,1.2,320.188,M,-17.561,M,0.4,0000*4E
1627578061168414745,8930,1627578061168255090,gps_frame,$GPGGA,170100.50,4616.74750255,N,11940.84921139,W,4,7,1.2,320.196,M,-17.561,M,0.5,0000*46
1627578061219751081,8931,1627578061219628095,gps_frame,$GPGGA,170100.55,4616.74753992,N,11940.84919014,W,4,7,1.2,320.201,M,-17.561,M,0.5,0000*48
1627578061270589725,8932,1627578061270473003,gps_frame,$GPGGA,170100.60,4616.74759791,N,11940.84928858,W,4,7,1.2,320.199,M,-17.561,M,0.6,0000*4A
1627578061319746878,8933,1627578061319623947,gps_frame,$GPGGA,170100.65,4616.74764835,N,11940.84924252,W,4,7,1.2,320.200,M,-17.561,M,0.6,0000*4F
1627578061369100287,8934,1627578061368943929,gps_frame,$GPGGA,170100.70,4616.74766639,N,11940.84934231,W,4,7,1.2,320.207,M,-17.561,M,0.7,0000*49
1627578061419783198,8935,1627578061419616937,gps_frame,$GPGGA,170100.75,4616.74769630,N,11940.84925667,W,4,7,1.2,320.212,M,-17.561,M,0.7,0000*49
1627578061469645232,8936,1627578061469511032,gps_frame,$GPGGA,170100.80,4616.74773505,N,11940.84943155,W,4,7,1.2,320.203,M,-17.561,M,0.8,0000*44
1627578061519807347,8937,1627578061519682884,gps_frame,$GPGGA,170100.85,4616.74777056,N,11940.84941622,W,4,7,1.2,320.199,M,-17.561,M,0.8,0000*43
1627578061568349469,8938,1627578061568195104,gps_frame,$GPGGA,170100.90,4616.74781649,N,11940.84950826,W,4,7,1.2,320.221,M,-17.561,M,0.9,0000*4D
1627578061619767605,8939,1627578061619645118,gps_frame,$GPGGA,170100.95,4616.74785861,N,11940.84946593,W,4,7,1.2,320.234,M,-17.561,M,0.9,0000*48
1627578061676858727,8940,1627578061676671028,gps_frame,$GPGGA,170101.00,4616.74788999,N,11940.84959849,W,4,7,1.2,320.235,M,-17.561,M,1.0,0000*43
1627578061719790929,8941,1627578061719638109,gps_frame,$GPGGA,170101.05,4616.74792530,N,11940.84955426,W,4,7,1.2,320.240,M,-17.561,M,1.0,0000*49
1627578061780336115,8942,1627578061780118942,gps_frame,$GPGGA,170101.10,4616.74796326,N,11940.84965786,W,4,7,1.2,320.230,M,-17.561,M,1.1,0000*44
1627578061819754504,8943,1627578061819596052,gps_frame,$GPGGA,170101.15,4616.74800025,N,11940.84960557,W,4,7,1.2,320.225,M,-17.561,M,1.1,0000*4E
1627578061870699226,8944,1627578061870537042,gps_frame,$GPGGA,170101.20,4616.74804749,N,11940.84974573,W,4,8,1.1,320.255,M,-17.561,M,0.2,0000*4B
1627578061919807626,8945,1627578061919655084,gps_frame,$GPGGA,170101.25,4616.74809097,N,11940.84971398,W,4,8,1.1,320.273,M,-17.561,M,0.2,0000*45
1627578061968685368,8946,1627578061968542098,gps_frame,$GPGGA,170101.30,4616.74811715,N,11940.84981478,W,4,8,1.1,320.280,M,-17.561,M,0.3,0000*4E
1627578062019746579,8947,1627578062019658088,gps_frame,$GPGGA,170101.35,4616.74814966,N,11940.84975044,W,4,8,1.1,320.291,M,-17.561,M,0.3,0000*44
1627578062069771393,8948,1627578062069641113,gps_frame,$GPGGA,170101.40,4616.74818625,N,11940.84991521,W,4,8,1.1,320.284,M,-17.561,M,0.4,0000*4D
1627578062119681117,8949,1627578062119592905,gps_frame,$GPGGA,170101.45,4616.74822135,N,11940.84989965,W,4,8,1.1,320.283,M,-17.561,M,0.4,0000*45
1627578062168365661,8950,1627578062168211936,gps_frame,$GPGGA,170101.50,4616.74825897,N,11940.84999936,W,4,8,1.1,320.305,M,-17.561,M,0.5,0000*4E
1627578062219803225,8951,1627578062219644069,gps_frame,$GPGGA,170101.55,4616.74829566,N,11940.84996120,W,4,8,1.1,320.318,M,-17.561,M,0.5,0000*48
1627578062269997474,8952,1627578062269870996,gps_frame,$GPGGA,170101.60,4616.74834039,N,11940.85007275,W,4,8,1.1,320.291,M,-17.561,M,0.6,0000*4D
1627578062319827401,8953,1627578062319645881,gps_frame,$GPGGA,170101.65,4616.74838217,N,11940.85002880,W,4,8,1.1,320.278,M,-17.561,M,0.6,0000*48
1627578062368685009,8954,1627578062368519067,gps_frame,$GPGGA,170101.70,4616.74839897,N,11940.85016374,W,4,8,1.1,320.310,M,-17.561,M,0.7,0000*44
1627578062419764572,8955,1627578062419614076,gps_frame,$GPGGA,170101.75,4616.74842491,N,11940.85012046,W,4,8,1.1,320.326,M,-17.561,M,0.7,0000*44
1627578062469611626,8956,1627578062469454050,gps_frame,$GPGGA,170101.80,4616.74848696,N,11940.85024917,W,4,8,1.1,320.303,M,-17.561,M,0.8,0000*41
1627578062519821048,8957,1627578062519649982,gps_frame,$GPGGA,170101.85,4616.74853578,N,11940.85023380,W,4,8,1.1,320.294,M,-17.561,M,0.8,0000*41
1627578062568657100,8958,1627578062568505048,gps_frame,$GPGGA,170101.90,4616.74855249,N,11940.85034342,W,4,8,1.1,320.318,M,-17.561,M,0.9,0000*4A
1627578062619765139,8959,1627578062619625091,gps_frame,$GPGGA,170101.95,4616.74858096,N,11940.85028546,W,4,8,1.1,320.330,M,-17.561,M,0.9,0000*47
1627578062676708169,8960,1627578062676487922,gps_frame,$GPGGA,170102.00,4616.74862682,N,11940.85042626,W,4,8,1.1,320.321,M,-17.561,M,1.0,0000*43
1627578062719854878,8961,1627578062719686985,gps_frame,$GPGGA,170102.05,4616.74866631,N,11940.85040355,W,4,8,1.1,320.319,M,-17.561,M,1.0,0000*42
1627578062780152045,8962,1627578062779953002,gps_frame,$GPGGA,170102.10,4616.74870678,N,11940.85051497,W,4,8,1.1,320.339,M,-17.561,M,1.1,0000*46
1627578062819819751,8963,1627578062819631099,gps_frame,$GPGGA,170102.15,4616.74874689,N,11940.85047438,W,4,8,1.1,320.352,M,-17.561,M,1.1,0000*46
1627578062870781350,8964,1627578062870604991,gps_frame,$GPGGA,170102.20,4616.74876952,N,11940.85060475,W,4,8,1.1,320.350,M,-17.561,M,0.2,0000*47
1627578062919773852,8965,1627578062919625043,gps_frame,$GPGGA,170102.25,4616.74879855,N,11940.85056182,W,4,8,1.1,320.353,M,-17.561,M,0.2,0000*40
1627578062968699321,8966,1627578062968524932,gps_frame,$GPGGA,170102.30,4616.74886164,N,11940.85070828,W,4,8,1.1,320.336,M,-17.561,M,0.3,0000*40
1627578063019857939,8967,1627578063019695043,gps_frame,$GPGGA,170102.35,4616.74891227,N,11940.85069854,W,4,8,1.1,320.326,M,-17.561,M,0.3,0000*45
1627578063069710631,8968,1627578063069577932,gps_frame,$GPGGA,170102.40,4616.74891623,N,11940.85079345,W,4,8,1.1,320.339,M,-17.561,M,0.4,0000*44
1627578063119742195,8969,1627578063119623899,gps_frame,$GPGGA,170102.45,4616.74893727,N,11940.85072249,W,4,8,1.1,320.343,M,-17.561,M,0.4,0000*4D
1627578063168484204,8970,1627578063168365001,gps_frame,$GPGGA,170102.50,4616.74899769,N,11940.85089817,W,4,8,1.1,320.359,M,-17.561,M,0.5,0000*46
1627578063219810648,8971,1627578063219646930,gps_frame,$GPGGA,170102.55,4616.74904369,N,11940.85090798,W,4,8,1.1,320.370,M,-17.561,M,0.5,0000*49
1627578063270808522,8972,1627578063270620107,gps_frame,$GPGGA,170102.60,4616.74906933,N,11940.85097418,W,4,8,1.1,320.374,M,-17.561,M,0.6,0000*43
1627578063319783432,8973,1627578063319632053,gps_frame,$GPGGA,170102.65,4616.74910242,N,11940.85090694,W,4,8,1.1,320.380,M,-17.561,M,0.6,0000*46
1627578063368670331,8974,1627578063368551015,gps_frame,$GPGGA,170102.70,4616.74914306,N,11940.85108586,W,4,8,1.1,320.369,M,-17.561,M,0.7,0000*41
1627578063419734775,8975,1627578063419579029,gps_frame,$GPGGA,170102.75,4616.74918094,N,11940.85107546,W,4,8,1.1,320.364,M,-17.561,M,0.7,0000*4E
1627578063469727574,8976,1627578063469558954,gps_frame,$GPGGA,170102.80,4616.74921918,N,11940.85117598,W,4,8,1.1,320.375,M,-17.561,M,0.8,0000*4E
1627578063519783849,8977,1627578063519654035,gps_frame,$GPGGA,170102.85,4616.74925729,N,11940.85113379,W,4,8,1.1,320.380,M,-17.561,M,0.8,0000*44
1627578063568494652,8978,1627578063568378925,gps_frame,$GPGGA,170102.90,4616.74928270,N,11940.85127104,W,4,8,1.1,320.387,M,-17.561,M,0.9,0000*4D
1627578063619768731,8979,1627578063619630098,gps_frame,$GPGGA,170102.95,4616.74931275,N,11940.85123721,W,4,8,1.1,320.393,M,-17.561,M,0.9,0000*45
1627578063676872303,8980,1627578063676675081,gps_frame,$GPGGA,170103.00,4616.74936396,N,11940.85136323,W,4,8,1.1,320.387,M,-17.561,M,1.0,0000*4C
1627578063720180985,8981,1627578063720024108,gps_frame,$GPGGA,170103.05,4616.74940742,N,11940.85134279,W,4,8,1.1,320.386,M,-17.561,M,1.0,0000*48
1627578063780237010,8982,1627578063780075073,gps_frame,$GPGGA,170103.10,4616.74943336,N,11940.85145938,W,4,8,1.1,320.400,M,-17.561,M,1.1,0000*48
1627578063819749646,8983,1627578063819621086,gps_frame,$GPGGA,170103.15,4616.74946572,N,11940.85141329,W,4,8,1.1,320.409,M,-17.561,M,1.1,0000*49
1627578063870698717,8984,1627578063870573043,gps_frame,$GPGGA,170103.20,4616.74950653,N,11940.85154354,W,4,8,1.1,320.414,M,-17.561,M,0.2,0000*48
1627578063919774194,8985,1627578063919619083,gps_frame,$GPGGA,170103.25,4616.74954424,N,11940.85151313,W,4,8,1.1,320.420,M,-17.561,M,0.2,0000*4A
1627578063968718193,8986,1627578063968573093,gps_frame,$GPGGA,170103.30,4616.74958457,N,11940.85163303,W,4,8,1.1,320.420,M,-17.561,M,0.3,0000*47
1627578064019823981,8987,1627578064019666910,gps_frame,$GPGGA,170103.35,4616.74962394,N,11940.85159660,W,4,8,1.1,320.422,M,-17.561,M,0.3,0000*48
1627578064069906210,8988,1627578064069742918,gps_frame,$GPGGA,170103.40,4616.74965814,N,11940.85174348,W,4,8,1.1,320.413,M,-17.561,M,0.4,0000*4B
1627578064119762815,8989,1627578064119622945,gps_frame,$GPGGA,170103.45,4616.74969423,N,11940.85171519,W,4,8,1.1,320.408,M,-17.561,M,0.4,0000*47
1627578064168392378,8990,1627578064168272018,gps_frame,$GPGGA,170103.50,4616.74971354,N,11940.85181529,W,4,8,1.1,320.432,M,-17.561,M,0.5,0000*49
1627578064219748289,8991,1627578064219649076,gps_frame,$GPGGA,170103.55,4616.74973900,N,11940.85176652,W,4,8,1.1,320.445,M,-17.561,M,0.5,0000*42
1627578064269928060,8992,1627578064269762039,gps_frame,$GPGGA,170103.60,4616.74979849,N,11940.85193074,W,4,8,1.1,320.439,M,-17.561,M,0.6,0000*43
1627578064319782943,8993,1627578064319623947,gps_frame,$GPGGA,170103.65,4616.74984552,N,11940.85194027,W,4,8,1.1,320.440,M,-17.561,M,0.6,0000*4C
1627578064368770808,8994,1627578064368607044,gps_frame,$GPGGA,170103.70,4616.74986703,N,11940.85198833,W,4,8,1.1,320.438,M,-17.561,M,0.7,0000*43
1627578064419782212,8995,1627578064419626951,gps_frame,$GPGGA,170103.75,4616.74989788,N,11940.85190466,W,4,8,1.1,320.437,M,-17.561,M,0.7,0000*41
1627578064469750499,8996,1627578064469572067,gps_frame,$GPGGA,170103.80,4616.74994940,N,11940.85211106,W,4,8,1.1,320.455,M,-17.561,M,0.8,0000*4F
1627578064519811369,8997,1627578064519666910,gps_frame,$GPGGA,170103.85,4616.74999336,N,11940.85211637,W,4,8,1.1,320.467,M,-17.561,M,0.8,0000*48
1627578064568423807,8998,1627578064568268060,gps_frame,$GPGGA,170103.90,4616.75001749,N,11940.85218321,W,4,8,1.1,320.468,M,-17.561,M,0.9,0000*4C
1627578064619772912,8999,1627578064619615077,gps_frame,$GPGGA,170103.95,4616.75004888,N,11940.85211347,W,4,8,1.1,320.472,M,-17.561,M,0.9,0000*4C
1627578064676682441,9000,1627578064676525115,gps_frame,$GPGGA,170104.00,4616.75009579,N,11940.85229175,W,4,8,1.1,320.481,M,-17.561,M,1.0,0000*45
1627578064719772342,9001,1627578064719634056,gps_frame,$GPGGA,170104.05,4616.75013702,N,11940.85228496,W,4,8,1.1,320.489,M,-17.561,M,1.0,0000*44
1627578064780148726,9002,1627578064779958009,gps_frame,$GPGGA,170104.10,4616.75017764,N,11940.85237488,W,4,8,1.1,320.472,M,-17.561,M,1.1,0000*40
1627578064819818041,9003,1627578064819617986,gps_frame,$GPGGA,170104.15,4616.75021847,N,11940.85232098,W,4,8,1.1,320.465,M,-17.561,M,1.1,0000*48
1627578064870937045,9004,1627578064870764970,gps_frame,$GPGGA,170104.20,4616.75025386,N,11940.85246889,W,4,8,1.1,320.493,M,-17.561,M,0.2,0000*4C
1627578064919787774,9005,1627578064919612884,gps_frame,$GPGGA,170104.25,4616.75029124,N,11940.85242960,W,4,8,1.1,320.508,M,-17.561,M,0.2,0000*4E
1627578064968651131,9006,1627578064968549966,gps_frame,$GPGGA,170104.30,4616.75034150,N,11940.85255274,W,4,8,1.1,320.504,M,-17.561,M,0.3,0000*40
1627578065019807782,9007,1627578065019651889,gps_frame,$GPGGA,170104.35,4616.75038704,N,11940.85251088,W,4,8,1.1,320.507,M,-17.561,M,0.3,0000*48
1627578065069725015,9008,1627578065069569110,gps_frame,$GPGGA,170104.40,4616.75041091,N,11940.85262846,W,4,8,1.1,320.492,M,-17.561,M,0.4,0000*4F
1627578065119843246,9009,1627578065119637012,gps_frame,$GPGGA,170104.45,4616.75044271,N,11940.85256632,W,4,8,1.1,320.485,M,-17.561,M,0.4,0000*4F
1627578065168436878,9010,1627578065168279886,gps_frame,$GPGGA,170104.50,4616.75049357,N,11940.85274979,W,4,8,1.1,320.508,M,-17.561,M,0.5,0000*46
1627578065219782197,9011,1627578065219625949,gps_frame,$GPGGA,170104.55,4616.75053746,N,11940.85274724,W,4,8,1.1,320.519,M,-17.561,M,0.5,0000*4A
1627578065270760869,9012,1627578065270524024,gps_frame,$GPGGA,170104.60,4616.75056776,N,11940.85281127,W,4,8,1.1,320.520,M,-17.561,M,0.6,0000*4C
1627578065319847137,9013,1627578065319686889,gps_frame,$GPGGA,170104.65,4616.75060303,N,11940.85273647,W,4,8,1.1,320.525,M,-17.561,M,0.6,0000*43
1627578065368709991,9014,1627578065368551969,gps_frame,$GPGGA,170104.70,4616.75066765,N,11940.85292885,W,4,8,1.1,320.532,M,-17.561,M,0.7,0000*4D
1627578065419773348,9015,1627578065419630050,gps_frame,$GPGGA,170104.75,4616.75072153,N,11940.85292070,W,4,8,1.1,320.539,M,-17.561,M,0.7,0000*47
1627578065469624003,9016,1627578065469522953,gps_frame,$GPGGA,170104.80,4616.75073388,N,11940.85296252,W,4,8,1.1,320.529,M,-17.561,M,0.8,0000*40
1627578065519893441,9017,1627578065519686937,gps_frame,$GPGGA,170104.85,4616.75076144,N,11940.85284772,W,4,8,1.1,320.525,M,-17.561,M,0.8,0000*4A
1627578065568551546,9018,1627578065568387985,gps_frame,$GPGGA,170104.90,4616.75083747,N,11940.85310859,W,4,8,1.1,320.562,M,-17.561,M,0.9,0000*49
1627578065619777491,9019,1627578065619661092,gps_frame,$GPGGA,170104.95,4616.75089575,N,11940.85314023,W,4,8,1.1,320.584,M,-17.561,M,0.9,0000*4C
1627578065676827420,9020,1627578065676616907,gps_frame,$GPGGA,170105.00,4616.75090620,N,11940.85317133,W,4,8,1.1,320.559,M,-17.561,M,1.0,0000*41
1627578065719795501,9021,1627578065719624042,gps_frame,$GPGGA,170105.05,4616.75093416,N,11940.85305920,W,4,8,1.1,320.552,M,-17.561,M,1.0,0000*42
1627578065780252826,9022,1627578065780085086,gps_frame,$GPGGA,170105.10,4616.75097246,N,11940.85325790,W,4,8,1.1,320.571,M,-17.561,M,1.1,0000*46
1627578065819805927,9023,1627578065819638967,gps_frame,$GPGGA,170105.15,4616.75100697,N,11940.85324764,W,4,8,1.1,320.581,M,-17.561,M,1.1,0000*41
1627578065870970440,9024,1627578065870803117,gps_frame,$GPGGA,170105.20,4616.75109597,N,11940.85335303,W,4,8,1.1,320.561,M,-17.561,M,0.2,0000*44
1627578065919754348,9025,1627578065919605016,gps_frame,$GPGGA,170105.25,4616.75116502,N,11940.85332433,W,4,8,1.1,320.552,M,-17.561,M,0.2,0000*40
1627578065968687909,9026,1627578065968539953,gps_frame,$GPGGA,170105.30,4616.75116124,N,11940.85339931,W,4,8,1.1,320.562,M,-17.561,M,0.3,0000*42
1627578066019746055,9027,1627578066019620895,gps_frame,$GPGGA,170105.35,4616.75118413,N,11940.85326531,W,4,8,1.1,320.564,M,-17.561,M,0.3,0000*4C
1627578066069972970,9028,1627578066069751977,gps_frame,$GPGGA,170105.40,4616.75126239,N,11940.85352374,W,4,8,1.1,320.589,M,-17.561,M,0.4,0000*4D
1627578066119792981,9029,1627578066119607925,gps_frame,$GPGGA,170105.45,4616.75132038,N,11940.85354814,W,4,8,1.1,320.605,M,-17.561,M,0.4,0000*42
1627578066168536836,9030,1627578066168378114,gps_frame,$GPGGA,170105.50,4616.75133696,N,11940.85359903,W,4,8,1.1,320.593,M,-17.561,M,0.5,0000*42
1627578066219811199,9031,1627578066219633102,gps_frame,$GPGGA,170105.55,4616.75136869,N,11940.85350017,W,4,8,1.1,320.591,M,-17.561,M,0.5,0000*4B
1627578066269864528,9032,1627578066269726037,gps_frame,$GPGGA,170105.60,4616.75142666,N,11940.85369941,W,4,8,1.1,320.599,M,-17.561,M,0.6,0000*44
1627578066319838235,9033,1627578066319683074,gps_frame,$GPGGA,170105.65,4616.75147503,N,11940.85368628,W,4,8,1.1,320.604,M,-17.561,M,0.6,0000*42
1627578066369074476,9034,1627578066368918895,gps_frame,$GPGGA,170105.70,4616.75151341,N,11940.85376736,W,4,8,1.1,320.598,M,-17.561,M,0.7,0000*47
1627578066419769533,9035,1627578066419615983,gps_frame,$GPGGA,170105.75,4616.75155545,N,11940.85368974,W,4,8,1.1,320.596,M,-17.561,M,0.7,0000*4D
1627578066469717270,9036,1627578066469562053,gps_frame,$GPGGA,170105.80,4616.75161573,N,11940.85386116,W,4,8,1.1,320.617,M,-17.561,M,0.8,0000*4C
1627578066519813474,9037,1627578066519655942,gps_frame,$GPGGA,170105.85,4616.75166933,N,11940.85382131,W,4,8,1.1,320.630,M,-17.561,M,0.8,0000*42
1627578066568466613,9038,1627578066568372964,gps_frame,$GPGGA,170105.90,4616.75171564,N,11940.85394283,W,4,8,1.1,320.619,M,-17.561,M,0.9,0000*49
1627578066619767010,9039,1627578066619611024,gps_frame,$GPGGA,170105.95,4616.75176461,N,11940.85386359,W,4,8,1.1,320.616,M,-17.561,M,0.9,0000*45
1627578066676647296,9040,1627578066676492929,gps_frame,$GPGGA,170106.00,4616.75179538,N,11940.85400686,W,4,8,1.1,320.629,M,-17.561,M,1.0,0000*42
1627578066719732111,9041,1627578066719614028,gps_frame,$GPGGA,170106.05,4616.75183282,N,11940.85393034,W,4,8,1.1,320.636,M,-17.561,M,1.0,0000*48
1627578066780184514,9042,1627578066780009984,gps_frame,$GPGGA,170106.10,4616.75189919,N,11940.85411437,W,4,8,1.1,320.631,M,-17.561,M,1.1,0000*43
1627578066819769625,9043,1627578066819638013,gps_frame,$GPGGA,170106.15,4616.75195497,N,11940.85409260,W,4,8,1.1,320.631,M,-17.561,M,1.1,0000*4D
1627578066871056660,9044,1627578066870944976,gps_frame,$GPGGA,170106.20,4616.75198669,N,11940.85419688,W,4,8,1.1,320.664,M,-17.561,M,0.2,0000*44
1627578066919778665,9045,1627578066919639110,gps_frame,$GPGGA,170106.25,4616.75202722,N,11940.85411128,W,4,8,1.1,320.685,M,-17.561,M,0.2,0000*45
1627578066968676870,9046,1627578066968552112,gps_frame,$GPGGA,170106.30,4616.75207993,N,11940.85427849,W,4,8,1.1,320.660,M,-17.561,M,0.3,0000*41
1627578067019886414,9047,1627578067019731998,gps_frame,$GPGGA,170106.35,4616.75212818,N,11940.85423200,W,4,8,1.1,320.652,M,-17.561,M,0.3,0000*40
1627578067069706985,9048,1627578067069546937,gps_frame,$GPGGA,170106.40,4616.75218660,N,11940.85436828,W,4,8,1.1,320.665,M,-17.561,M,0.4,0000*4E
1627578067119792194,9049,1627578067119637012,gps_frame,$GPGGA,170106.45,4616.75224129,N,11940.85430854,W,4,8,1.1,320.671,M,-17.561,M,0.4,0000*46
1627578067168343321,9050,1627578067168220043,gps_frame,$GPGGA,170106.50,4616.75227802,N,11940.85444023,W,4,8,1.1,320.692,M,-17.561,M,0.5,0000*46
1627578067219980471,9051,1627578067219800949,gps_frame,$GPGGA,170106.55,4616.75232133,N,11940.85435414,W,4,8,1.1,320.707,M,-17.561,M,0.5,0000*47
1627578067270715424,9052,1627578067270560979,gps_frame,$GPGGA,170106.60,4616.75238437,N,11940.85452104,W,4,8,1.1,320.684,M,-17.561,M,0.6,0000*46
1627578067319748455,9053,1627578067319627046,gps_frame,$GPGGA,170106.65,4616.75244018,N,11940.85446874,W,4,8,1.1,320.675,M,-17.561,M,0.6,0000*44
1627578067369279817,9054,1627578067369122982,gps_frame,$GPGGA,170106.70,4616.75248951,N,11940.85460341,W,4,8,1.1,320.700,M,-17.561,M,0.7,0000*43
1627578067419717143,9055,1627578067419591903,gps_frame,$GPGGA,170106.75,4616.75254122,N,11940.85452239,W,4,8,1.1,320.712,M,-17.561,M,0.7,0000*4B
1627578067469820012,9056,1627578067469599008,gps_frame,$GPGGA,170106.80,4616.75257920,N,11940.85468260,W,4,8,1.1,320.699,M,-17.561,M,0.8,0000*40
1627578067519821003,9057,1627578067519659042,gps_frame,$GPGGA,170106.85,4616.75262220,N,11940.85460891,W,4,8,1.1,320.695,M,-17.561,M,0.8,0000*48
1627578067568482471,9058,1627578067568362951,gps_frame,$GPGGA,170106.90,4616.75268546,N,11940.85477378,W,4,8,1.1,320.710,M,-17.561,M,0.9,0000*46
1627578067619869401,9059,1627578067619718074,gps_frame,$GPGGA,170106.95,4616.75274130,N,11940.85472713,W,4,8,1.1,320.718,M,-17.561,M,0.9,0000*4F
1627578067676735445,9060,1627578067676548957,gps_frame,$GPGGA,170107.00,4616.75279586,N,11940.85484073,W,4,8,1.1,320.725,M,-17.561,M,1.0,0000*48
1627578067719749190,9061,1627578067719661951,gps_frame,$GPGGA,170107.05,4616.75285089,N,11940.85474853,W,4,8,1.1,320.733,M,-17.561,M,1.0,0000*46
1627578067780260927,9062,1627578067780100107,gps_frame,$GPGGA,170107.10,4616.75288786,N,11940.85494538,W,4,8,1.1,320.732,M,-17.561,M,1.1,0000*49
1627578067819760668,9063,1627578067819617986,gps_frame,$GPGGA,170107.15,4616.75293144,N,11940.85488355,W,4,8,1.1,320.735,M,-17.561,M,1.1,0000*49
1627578067870719283,9064,1627578067870559930,gps_frame,$GPGGA,170107.20,4616.75299997,N,11940.85500891,W,4,8,1.1,320.726,M,-17.561,M,0.2,0000*41
1627578067919843521,9065,1627578067919657945,gps_frame,$GPGGA,170107.25,4616.75305936,N,11940.85493835,W,4,8,1.1,320.722,M,-17.561,M,0.2,0000*4A
1627578067968785619,9066,1627578067968622922,gps_frame,$GPGGA,170107.30,4616.75310300,N,11940.85511033,W,4,8,1.1,320.729,M,-17.561,M,0.3,0000*4A
1627578068019841768,9067,1627578068019670963,gps_frame,$GPGGA,170107.35,4616.75315241,N,11940.85503830,W,4,8,1.1,320.732,M,-17.561,M,0.3,0000*4C
1627578068069958194,9068,1627578068069829940,gps_frame,$GPGGA,170107.40,4616.75321675,N,11940.85517571,W,4,8,1.1,320.753,M,-17.561,M,0.4,0000*47
1627578068119966480,9069,1627578068119708061,gps_frame,$GPGGA,170107.45,4616.75327562,N,11940.85509378,W,4,8,1.1,320.766,M,-17.561,M,0.4,0000*47
1627578068168406486,9070,1627578068168251037,gps_frame,$GPGGA,170107.50,4616.75330999,N,11940.85526644,W,4,8,1.1,320.752,M,-17.561,M,0.5,0000*4C
1627578068219764456,9071,1627578068219600915,gps_frame,$GPGGA,170107.55,4616.75335333,N,11940.85518840,W,4,8,1.1,320.749,M,-17.561,M,0.5,0000*4B
1627578068269859221,9072,1627578068269659042,gps_frame,$GPGGA,170107.60,4616.75343576,N,11940.85534298,W,4,8,1.1,320.768,M,-17.561,M,0.6,0000*4A
1627578068319917670,9073,1627578068319725990,gps_frame,$GPGGA,170107.65,4616.75350388,N,11940.85528329,W,4,8,1.1,320.780,M,-17.561,M,0.6,0000*4A
1627578068368694908,9074,1627578068368515968,gps_frame,$GPGGA,170107.70,4616.75354908,N,11940.85543140,W,4,8,1.1,320.757,M,-17.561,M,0.7,0000*43
1627578068419865123,9075,1627578068419677019,gps_frame,$GPGGA,170107.75,4616.75360266,N,11940.85532929,W,4,8,1.1,320.747,M,-17.561,M,0.7,0000*42
1627578068470077827,9076,1627578068469764947,gps_frame,$GPGGA,170107.80,4616.75363677,N,11940.85550922,W,4,8,1.1,320.788,M,-17.561,M,0.8,0000*4C
1627578068519873964,9077,1627578068519690990,gps_frame,$GPGGA,170107.85,4616.75367801,N,11940.85542900,W,4,8,1.1,320.811,M,-17.561,M,0.8,0000*4E
1627578068568545055,9078,1627578068568381071,gps_frame,$GPGGA,170107.90,4616.75377070,N,11940.85559299,W,4,8,1.1,320.782,M,-17.561,M,0.9,0000*40
1627578068619983697,9079,1627578068619719028,gps_frame,$GPGGA,170107.95,4616.75384455,N,11940.85554615,W,4,8,1.1,320.772,M,-17.561,M,0.9,0000*48
1627578068676668809,9080,1627578068676541090,gps_frame,$GPGGA,170108.00,4616.75386781,N,11940.85568500,W,4,8,1.1,320.809,M,-17.561,M,1.0,0000*40
1627578068719740337,9081,1627578068719616889,gps_frame,$GPGGA,170108.05,4616.75390959,N,11940.85557043,W,4,8,1.1,320.828,M,-17.561,M,1.0,0000*44
1627578068780176329,9082,1627578068779978990,gps_frame,$GPGGA,170108.10,4616.75396834,N,11940.85576347,W,4,8,1.1,320.815,M,-17.561,M,1.1,0000*47
1627578068819833759,9083,1627578068819679975,gps_frame,$GPGGA,170108.15,4616.75402088,N,11940.85570944,W,4,8,1.1,320.813,M,-17.561,M,1.1,0000*4E
1627578068870676183,9084,1627578068870559930,gps_frame,$GPGGA,170108.20,4616.75409131,N,11940.85585379,W,4,8,1.1,320.818,M,-17.561,M,0.2,0000*47
1627578068919832938,9085,1627578068919646978,gps_frame,$GPGGA,170108.25,4616.75415519,N,11940.85578632,W,4,8,1.1,320.821,M,-17.561,M,0.2,0000*43
1627578068968633750,9086,1627578068968508005,gps_frame,$GPGGA,170108.30,4616.75418819,N,11940.85593058,W,4,8,1.1,320.832,M,-17.561,M,0.3,0000*4B
1627578069019839190,9087,1627578069019670963,gps_frame,$GPGGA,170108.35,4616.75423249,N,11940.85582707,W,4,8,1.1,320.840,M,-17.561,M,0.3,0000*41
1627578069069791726,9088,1627578069069629907,gps_frame,$GPGGA,170108.40,4616.75430187,N,11940.85602545,W,4,8,1.1,320.849,M,-17.561,M,0.4,0000*41
1627578069119763046,9089,1627578069119610071,gps_frame,$GPGGA,170108.45,4616.75436208,N,11940.85597917,W,4,8,1.1,320.858,M,-17.561,M,0.4,0000*42
1627578069168646151,9090,1627578069168488979,gps_frame,$GPGGA,170108.50,4616.75440613,N,11940.85610635,W,4,8,1.1,320.849,M,-17.561,M,0.5,0000*4B
1627578069219846153,9091,1627578069219650030,gps_frame,$GPGGA,170108.55,4616.75445610,N,11940.85601262,W,4,8,1.1,320.846,M,-17.561,M,0.5,0000*41
1627578069270743205,9092,1627578069270616054,gps_frame,$GPGGA,170108.60,4616.75451177,N,11940.85620040,W,4,8,1.1,320.874,M,-17.561,M,0.6,0000*47
1627578069319705652,9093,1627578069319586038,gps_frame,$GPGGA,170108.65,4616.75456535,N,11940.85614076,W,4,8,1.1,320.891,M,-17.561,M,0.6,0000*4E
1627578069368640843,9094,1627578069368555068,gps_frame,$GPGGA,170108.70,4616.75462565,N,11940.85626808,W,4,8,1.1,320.861,M,-17.561,M,0.7,0000*46
1627578069419750374,9095,1627578069419610023,gps_frame,$GPGGA,170108.75,4616.75468349,N,11940.85618069,W,4,8,1.1,320.849,M,-17.561,M,0.7,0000*49
1627578069469667202,9096,1627578069469530105,gps_frame,$GPGGA,170108.80,4616.75472586,N,11940.85636467,W,4,8,1.1,320.896,M,-17.561,M,0.8,0000*46
1627578069519788469,9097,1627578069519665956,gps_frame,$GPGGA,170108.85,4616.75477389,N,11940.85629161,W,4,8,1.1,320.922,M,-17.561,M,0.8,0000*4C
1627578069568669135,9098,1627578069568454027,gps_frame,$GPGGA,170108.90,4616.75484470,N,11940.85645425,W,4,8,1.1,320.893,M,-17.561,M,0.9,0000*40
1627578069619892606,9099,1627578069619668960,gps_frame,$GPGGA,170108.95,4616.75490718,N,11940.85639185,W,4,8,1.1,320.884,M,-17.561,M,0.9,0000*4F
1627578069676792784,9100,1627578069676660060,gps_frame,$GPGGA,170109.00,4616.75494025,N,11940.85653529,W,4,8,1.1,320.907,M,-17.561,M,1.0,0000*43
1627578069719698202,9101,1627578069719605922,gps_frame,$GPGGA,170109.05,4616.75498409,N,11940.85643881,W,4,8,1.1,320.919,M,-17.561,M,1.0,0000*41
1627578069780289066,9102,1627578069780086994,gps_frame,$GPGGA,170109.10,4616.75505657,N,11940.85663614,W,4,8,1.1,320.916,M,-17.561,M,1.1,0000*47
1627578069820078640,9103,1627578069819931030,gps_frame,$GPGGA,170109.15,4616.75511857,N,11940.85659360,W,4,8,1.1,320.918,M,-17.561,M,1.1,0000*48
1627578069870801674,9104,1627578069870596885,gps_frame,$GPGGA,170109.20,4616.75515968,N,11940.85669938,W,4,8,1.1,320.921,M,-17.561,M,0.2,0000*4B
1627578069919749726,9105,1627578069919626951,gps_frame,$GPGGA,170109.25,4616.75520843,N,11940.85658979,W,4,8,1.1,320.924,M,-17.561,M,0.2,0000*42
1627578069968744999,9106,1627578069968601942,gps_frame,$GPGGA,170109.30,4616.75527908,N,11940.85680763,W,4,8,1.1,320.931,M,-17.561,M,0.3,0000*4A
1627578070019843634,9107,1627578070019680023,gps_frame,$GPGGA,170109.35,4616.75534171,N,11940.85676285,W,4,8,1.1,320.937,M,-17.561,M,0.3,0000*49
1627578070069866802,9108,1627578070069741010,gps_frame,$GPGGA,170109.40,4616.75538127,N,11940.85688474,W,4,8,1.1,320.937,M,-17.561,M,0.4,0000*4A
1627578070119751254,9109,1627578070119605064,gps_frame,$GPGGA,170109.45,4616.75542927,N,11940.85678030,W,4,8,1.1,320.939,M,-17.561,M,0.4,0000*4F
1627578070168617850,9110,1627578070168415069,gps_frame,$GPGGA,170109.50,4616.75548599,N,11940.85696897,W,4,8,1.1,320.966,M,-17.561,M,0.5,0000*46
1627578070219779668,9111,1627578070219643115,gps_frame,$GPGGA,170109.55,4616.75553952,N,11940.85690884,W,4,8,1.1,320.983,M,-17.561,M,0.5,0000*4D
1627578070269846981,9112,1627578070269726037,gps_frame,$GPGGA,170109.60,4616.75560276,N,11940.85707074,W,4,8,1.1,320.962,M,-17.561,M,0.6,0000*42
1627578070319756812,9113,1627578070319601058,gps_frame,$GPGGA,170109.65,4616.75566245,N,11940.85700636,W,4,8,1.1,320.955,M,-17.561,M,0.6,0000*42
1627578070368748970,9114,1627578070368561983,gps_frame,$GPGGA,170109.70,4616.75570582,N,11940.85716512,W,4,8,1.1,320.972,M,-17.561,M,0.7,0000*4B
1627578070419740949,9115,1627578070419615983,gps_frame,$GPGGA,170109.75,4616.75575517,N,11940.85708050,W,4,8,1.1,320.981,M,-17.561,M,0.7,0000*47
1627578070469698148,9116,1627578070469572067,gps_frame,$GPGGA,170109.80,4616.75581400,N,11940.85723925,W,4,8,1.1,320.973,M,-17.561,M,0.8,0000*41
1627578070519816208,9117,1627578070519653081,gps_frame,$GPGGA,170109.85,4616.75586936,N,11940.85716621,W,4,8,1.1,320.971,M,-17.561,M,0.8,0000*44
1627578070568552338,9118,1627578070568367958,gps_frame,$GPGGA,170109.90,4616.75592060,N,11940.85733986,W,4,8,1.1,320.992,M,-17.561,M,0.9,0000*46
1627578070619771575,9119,1627578070619622945,gps_frame,$GPGGA,170109.95,4616.75597335,N,11940.85727342,W,4,8,1.1,321.005,M,-17.561,M,0.9,0000*44
1627578070676664020,9120,1627578070676511049,gps_frame,$GPGGA,170110.00,4616.75603471,N,11940.85742212,W,4,8,1.1,321.004,M,-17.561,M,1.0,0000*47
1627578070719840571,9121,1627578070719650030,gps_frame,$GPGGA,170110.05,4616.75609291,N,11940.85734445,W,4,8,1.1,321.008,M,-17.561,M,1.0,0000*49
1627578070780571964,9122,1627578070780385971,gps_frame,$GPGGA,170110.10,4616.75613509,N,11940.85753017,W,4,8,1.1,321.008,M,-17.561,M,1.1,0000*43
1627578070819797618,9123,1627578070819624900,gps_frame,$GPGGA,170110.15,4616.75618313,N,11940.85746147,W,4,8,1.1,321.009,M,-17.561,M,1.1,0000*41
1627578070870664952,9124,1627578070870512008,gps_frame,$GPGGA,170110.20,4616.75625166,N,11940.85761461,W,4,8,1.1,321.012,M,-17.561,M,0.2,0000*45
1627578070919775537,9125,1627578070919615030,gps_frame,$GPGGA,170110.25,4616.75631270,N,11940.85754756,W,4,8,1.1,321.014,M,-17.561,M,0.2,0000*46
1627578070968770661,9126,1627578070968543052,gps_frame,$GPGGA,170110.30,4616.75634251,N,11940.85770687,W,4,8,1.1,321.030,M,-17.561,M,0.3,0000*48
1627578071019827110,9127,1627578071019648075,gps_frame,$GPGGA,170110.35,4616.75638376,N,11940.85762189,W,4,8,1.1,321.042,M,-17.561,M,0.3,0000*4A
1627578071069617850,9128,1627578071069525957,gps_frame,$GPGGA,170110.40,4616.75645164,N,11940.85781476,W,4,8,1.1,321.036,M,-17.561,M,0.4,0000*4F
1627578071119795531,9129,1627578071119615077,gps_frame,$GPGGA,170110.45,4616.75650977,N,11940.85778013,W,4,8,1.1,321.036,M,-17.561,M,0.4,0000*45
1627578071168469048,9130,1627578071168289899,gps_frame,$GPGGA,170110.50,4616.75655583,N,11940.85791199,W,4,8,1.1,321.039,M,-17.561,M,0.5,0000*49
1627578071219831342,9131,1627578071219649076,gps_frame,$GPGGA,170110.55,4616.75660631,N,11940.85783180,W,4,8,1.1,321.041,M,-17.561,M,0.5,0000*44
1627578071270812335,9132,1627578071270623922,gps_frame,$GPGGA,170110.60,4616.75665345,N,11940.85800946,W,4,8,1.1,321.065,M,-17.561,M,0.6,0000*42
1627578071319817380,9133,1627578071319638013,gps_frame,$GPGGA,170110.65,4616.75670182,N,11940.85794846,W,4,8,1.1,321.081,M,-17.561,M,0.6,0000*43
1627578071368718527,9134,1627578071368575096,gps_frame,$GPGGA,170110.70,4616.75676706,N,11940.85811285,W,4,8,1.1,321.069,M,-17.561,M,0.7,0000*4B
1627578071419781446,9135,1627578071419614076,gps_frame,$GPGGA,170110.75,4616.75682612,N,11940.85805956,W,4,8,1.1,321.068,M,-17.561,M,0.7,0000*40
1627578071469678300,9136,1627578071469531059,gps_frame,$GPGGA,170110.80,4616.75686475,N,11940.85820567,W,4,8,1.1,321.065,M,-17.561,M,0.8,0000*46
1627578071519885089,9137,1627578071519731044,gps_frame,$GPGGA,170110.85,4616.75691087,N,11940.85812149,W,4,8,1.1,321.063,M,-17.561,M,0.8,0000*43
1627578071568553871,9138,1627578071568365097,gps_frame,$GPGGA,170110.90,4616.75696998,N,11940.85830229,W,4,8,1.1,321.092,M,-17.561,M,0.9,0000*4D
1627578071619779692,9139,1627578071619630098,gps_frame,$GPGGA,170110.95,4616.75702433,N,11940.85825081,W,4,8,1.1,321.110,M,-17.561,M,0.9,0000*47
1627578071676904538,9140,1627578071676642894,gps_frame,$GPGGA,170111.00,4616.75707411,N,11940.85841362,W,4,8,1.1,321.091,M,-17.561,M,1.0,0000*43
1627578071719910892,9141,1627578071719719886,gps_frame,$GPGGA,170111.05,4616.75712557,N,11940.85835229,W,4,8,1.1,321.085,M,-17.561,M,1.0,0000*49
1627578071780286805,9142,1627578071780090093,gps_frame,$GPGGA,170111.10,4616.75717477,N,11940.85850641,W,4,8,1.1,321.096,M,-17.561,M,1.1,0000*41
1627578071819796138,9143,1627578071819643974,gps_frame,$GPGGA,170111.15,4616.75722480,N,11940.85843746,W,4,8,1.1,321.101,M,-17.561,M,1.1,0000*41
1627578071870785426,9144,1627578071870604991,gps_frame,$GPGGA,170111.20,4616.75727751,N,11940.85861421,W,4,8,1.1,321.110,M,-17.561,M,0.2,0000*4D
1627578071919803050,9145,1627578071919622898,gps_frame,$GPGGA,170111.25,4616.75732924,N,11940.85856164,W,4,8,1.1,321.118,M,-17.561,M,0.2,0000*48
1627578071968725605,9146,1627578071968565940,gps_frame,$GPGGA,170111.30,4616.75738265,N,11940.85871012,W,4,8,1.1,321.120,M,-17.561,M,0.3,0000*47
1627578072019811932,9147,1627578072019656896,gps_frame,$GPGGA,170111.35,4616.75743544,N,11940.85864274,W,4,8,1.1,321.123,M,-17.561,M,0.3,0000*4F
1627578072069814601,9148,1627578072069708108,gps_frame,$GPGGA,170111.40,4616.75748058,N,11940.85881196,W,4,8,1.1,321.132,M,-17.561,M,0.4,0000*4D
