%time,field.header.seq,field.header.stamp,field.header.frame_id,field.sentence
1627577631720566447,341,1627577631720323085,gps_frame,$GPGGA,165351.05,4616.69284172,N,11940.88677001,W,4,8,1.1,323.265,M,-17.562,M,1.0,0000*4F
1627577631780652265,342,1627577631780502080,gps_frame,$GPGGA,165351.10,4616.69284329,N,11940.88676655,W,4,8,1.1,323.282,M,-17.562,M,1.1,0000*49
1627577631820397931,343,1627577631820246934,gps_frame,$GPGGA,165351.15,4616.69284504,N,11940.88676038,W,4,8,1.1,323.291,M,-17.562,M,1.1,0000*4A
1627577631871399398,344,1627577631871196031,gps_frame,$GPGGA,165351.20,4616.69284442,N,11940.88676324,W,4,8,1.1,323.274,M,-17.562,M,0.2,0000*48
1627577631920455484,345,1627577631920262098,gps_frame,$GPGGA,165351.25,4616.69284468,N,11940.88675776,W,4,8,1.1,323.267,M,-17.562,M,0.2,0000*47
1627577631969436960,346,1627577631969203948,gps_frame,$GPGGA,165351.30,4616.69284611,N,11940.88675874,W,4,8,1.1,323.272,M,-17.562,M,0.3,0000*47
1627577632020462686,347,1627577632020314931,gps_frame,$GPGGA,165351.35,4616.69284711,N,11940.88675577,W,4,8,1.1,323.273,M,-17.562,M,0.3,0000*4C
1627577632070750548,348,1627577632070573091,gps_frame,$GPGGA,165351.40,4616.69284747,N,11940.88675995,W,4,8,1.1,323.274,M,-17.562,M,0.4,0000*4D
1627577632120479564,349,1627577632120304107,gps_frame,$GPGGA,165351.45,4616.69284806,N,11940.88675919,W,4,8,1.1,323.274,M,-17.562,M,0.4,0000*46
1627577632169404571,350,1627577632169115066,gps_frame,$GPGGA,165351.50,4616.69284981,N,11940.88675354,W,4,8,1.1,323.275,M,-17.562,M,0.5,0000*4F
1627577632220399903,351,1627577632220232009,gps_frame,$GPGGA,165351.55,4616.69285114,N,11940.88674780,W,4,8,1.1,323.275,M,-17.562,M,0.5,0000*43
1627577632270591155,352,1627577632270466089,gps_frame,$GPGGA,165351.60,4616.69285051,N,11940.88675331,W,4,8,1.1,323.279,M,-17.562,M,0.6,0000*45
1627577632320375409,353,1627577632320240020,gps_frame,$GPGGA,165351.65,4616.69285060,N,11940.88675145,W,4,8,1.1,323.281,M,-17.562,M,0.6,0000*44
1627577632369356451,354,1627577632369204998,gps_frame,$GPGGA,165351.70,4616.69285227,N,11940.88674869,W,4,8,1.1,323.270,M,-17.562,M,0.7,0000*48
1627577632420431507,355,1627577632420245885,gps_frame,$GPGGA,165351.75,4616.69285336,N,11940.88674529,W,4,8,1.1,323.264,M,-17.562,M,0.7,0000*40
1627577632470510366,356,1627577632470336914,gps_frame,$GPGGA,165351.80,4616.69285608,N,11940.88674454,W,4,8,1.1,323.272,M,-17.562,M,0.8,0000*41
1627577632520470562,357,1627577632520282030,gps_frame,$GPGGA,165351.85,4616.69285820,N,11940.88674039,W,4,8,1.1,323.275,M,-17.562,M,0.8,0000*48
1627577632569216349,358,1627577632569013118,gps_frame,$GPGGA,165351.90,4616.69285716,N,11940.88674290,W,4,8,1.1,323.272,M,-17.562,M,0.9,0000*41
1627577632620361016,359,1627577632620218038,gps_frame,$GPGGA,165351.95,4616.69285727,N,11940.88673769,W,4,8,1.1,323.272,M,-17.562,M,0.9,0000*42
1627577632677586888,360,1627577632677453994,gps_frame,$GPGGA,165352.00,4616.69285797,N,11940.88674247,W,4,8,1.1,323.277,M,-17.562,M,1.0,0000*45
1627577632720488003,361,1627577632720351934,gps_frame,$GPGGA,165352.05,4616.69285845,N,11940.88674210,W,4,8,1.1,323.280,M,-17.562,M,1.0,0000*4A
1627577632780639145,362,1627577632780488014,gps_frame,$GPGGA,165352.10,4616.69285969,N,11940.88673850,W,4,8,1.1,323.274,M,-17.562,M,1.1,0000*42
1627577632820769049,363,1627577632820489883,gps_frame,$GPGGA,165352.15,4616.69286065,N,11940.88673495,W,4,8,1.1,323.271,M,-17.562,M,1.1,0000*41
1627577632871284999,364,1627577632871155023,gps_frame,$GPGGA,165352.20,4616.69285932,N,11940.88673781,W,4,8,1.1,323.262,M,-17.562,M,0.2,0000*49
1627577632920581731,365,1627577632920392990,gps_frame,$GPGGA,165352.25,4616.69285883,N,11940.88673595,W,4,8,1.1,323.255,M,-17.562,M,0.2,0000*44
1627577632969708171,366,1627577632969300985,gps_frame,$GPGGA,165352.30,4616.69286075,N,11940.88673406,W,4,8,1.1,323.269,M,-17.562,M,0.3,0000*47
1627577633020531539,367,1627577633020333051,gps_frame,$GPGGA,165352.35,4616.69286179,N,11940.88673269,W,4,8,1.1,323.276,M,-17.562,M,0.3,0000*4E
1627577633070564299,368,1627577633070409059,gps_frame,$GPGGA,165352.40,4616.69286249,N,11940.88673460,W,4,8,1.1,323.265,M,-17.562,M,0.4,0000*46
1627577633120549194,369,1627577633120312929,gps_frame,$GPGGA,165352.45,4616.69286332,N,11940.88673333,W,4,8,1.1,323.261,M,-17.562,M,0.4,0000*4B
1627577633169427917,370,1627577633169095039,gps_frame,$GPGGA,165352.50,4616.69286132,N,11940.88673128,W,4,8,1.1,323.260,M,-17.562,M,0.5,0000*45
1627577633220586160,371,1627577633220336914,gps_frame,$GPGGA,165352.55,4616.69286035,N,11940.88672710,W,4,8,1.1,323.257,M,-17.562,M,0.5,0000*4E
1627577633271287417,372,1627577633271116971,gps_frame,$GPGGA,165352.60,4616.69286438,N,11940.88673135,W,4,8,1.1,323.266,M,-17.562,M,0.6,0000*40
1627577633320394968,373,1627577633320203065,gps_frame,$GPGGA,165352.65,4616.69286658,N,11940.88673414,W,4,8,1.1,323.270,M,-17.562,M,0.6,0000*40
1627577633369673882,374,1627577633369304895,gps_frame,$GPGGA,165352.70,4616.69286400,N,11940.88672820,W,4,8,1.1,323.268,M,-17.562,M,0.7,0000*49
1627577633420442522,375,1627577633420281887,gps_frame,$GPGGA,165352.75,4616.69286317,N,11940.88672121,W,4,8,1.1,323.269,M,-17.562,M,0.7,0000*44
1627577633470622708,376,1627577633470406055,gps_frame,$GPGGA,165352.80,4616.69286637,N,11940.88672720,W,4,8,1.1,323.268,M,-17.562,M,0.8,0000*40
1627577633520547663,377,1627577633520385980,gps_frame,$GPGGA,165352.85,4616.69286810,N,11940.88672897,W,4,8,1.1,323.267,M,-17.562,M,0.8,0000*42
1627577633569393819,378,1627577633569202899,gps_frame,$GPGGA,165352.90,4616.69286624,N,11940.88672424,W,4,8,1.1,323.265,M,-17.562,M,0.9,0000*48
1627577633620490857,379,1627577633620313882,gps_frame,$GPGGA,165352.95,4616.69286570,N,11940.88671861,W,4,8,1.1,323.264,M,-17.562,M,0.9,0000*40
1627577633677729789,380,1627577633677571058,gps_frame,$GPGGA,165353.00,4616.69286753,N,11940.88672360,W,4,8,1.1,323.271,M,-17.562,M,1.0,0000*4B
1627577633720391397,381,1627577633720227003,gps_frame,$GPGGA,165353.05,4616.69286849,N,11940.88672488,W,4,8,1.1,323.275,M,-17.562,M,1.0,0000*4F
1627577633780713684,382,1627577633780518054,gps_frame,$GPGGA,165353.10,4616.69286806,N,11940.88672238,W,4,8,1.1,323.269,M,-17.562,M,1.1,0000*41
1627577633820456417,383,1627577633820267915,gps_frame,$GPGGA,165353.15,4616.69286815,N,11940.88671949,W,4,8,1.1,323.266,M,-17.562,M,1.1,0000*47
1627577633871484904,384,1627577633871231079,gps_frame,$GPGGA,165353.20,4616.69287030,N,11940.88671927,W,4,8,1.1,323.267,M,-17.562,M,0.2,0000*44
1627577633920815621,385,1627577633920497894,gps_frame,$GPGGA,165353.25,4616.69287170,N,11940.88671732,W,4,8,1.1,323.266,M,-17.562,M,0.2,0000*4F
1627577633969450917,386,1627577633969213008,gps_frame,$GPGGA,165353.30,4616.69287318,N,11940.88671395,W,4,8,1.1,323.273,M,-17.562,M,0.3,0000*4B
1627577634020489890,387,1627577634020318984,gps_frame,$GPGGA,165353.35,4616.69287462,N,11940.88670801,W,4,8,1.1,323.276,M,-17.562,M,0.3,0000*46
1627577634070767487,388,1627577634070568084,gps_frame,$GPGGA,165353.40,4616.69287231,N,11940.88671885,W,4,8,1.1,323.269,M,-17.562,M,0.4,0000*40
1627577634120553944,389,1627577634120359897,gps_frame,$GPGGA,165353.45,4616.69287137,N,11940.88671958,W,4,8,1.1,323.266,M,-17.562,M,0.4,0000*4E
1627577634170128378,390,1627577634169800996,gps_frame,$GPGGA,165353.50,4616.69287472,N,11940.88671341,W,4,8,1.1,323.272,M,-17.562,M,0.5,0000*48
1627577634220368344,391,1627577634220197916,gps_frame,$GPGGA,165353.55,4616.69287650,N,11940.88671096,W,4,8,1.1,323.275,M,-17.562,M,0.5,0000*41
1627577634271095721,392,1627577634270900964,gps_frame,$GPGGA,165353.60,4616.69287487,N,11940.88671304,W,4,8,1.1,323.270,M,-17.562,M,0.6,0000*41
1627577634320427299,393,1627577634320247888,gps_frame,$GPGGA,165353.65,4616.69287448,N,11940.88671012,W,4,8,1.1,323.267,M,-17.562,M,0.6,0000*45
1627577634369418297,394,1627577634369230985,gps_frame,$GPGGA,165353.70,4616.69287638,N,11940.88670767,W,4,8,1.1,323.276,M,-17.562,M,0.7,0000*41
1627577634420411166,395,1627577634420214891,gps_frame,$GPGGA,165353.75,4616.69287744,N,11940.88670485,W,4,8,1.1,323.281,M,-17.562,M,0.7,0000*49
1627577634470671376,396,1627577634470448017,gps_frame,$GPGGA,165353.80,4616.69287948,N,11940.88670544,W,4,8,1.1,323.270,M,-17.562,M,0.8,0000*4C
1627577634520506218,397,1627577634520335912,gps_frame,$GPGGA,165353.85,4616.69288115,N,11940.88670269,W,4,8,1.1,323.265,M,-17.562,M,0.8,0000*4A
1627577634569458016,398,1627577634569241046,gps_frame,$GPGGA,165353.90,4616.69288291,N,11940.88670088,W,4,8,1.1,323.276,M,-17.562,M,0.9,0000*4F
1627577634620441234,399,1627577634620243072,gps_frame,$GPGGA,165353.95,4616.69288464,N,11940.88669445,W,4,8,1.1,323.281,M,-17.562,M,0.9,0000*43
1627577634677653254,400,1627577634677505970,gps_frame,$GPGGA,165354.00,4616.69288656,N,11940.88669421,W,4,8,1.1,323.281,M,-17.562,M,1.0,0000*41
1627577634720644307,401,1627577634720376968,gps_frame,$GPGGA,165354.05,4616.69288841,N,11940.88668695,W,4,8,1.1,323.283,M,-17.562,M,1.0,0000*42
1627577634780570984,402,1627577634780428886,gps_frame,$GPGGA,165354.10,4616.69289532,N,11940.88668064,W,4,8,1.1,323.278,M,-17.562,M,1.1,0000*43
1627577634820457558,403,1627577634820242881,gps_frame,$GPGGA,165354.15,4616.69290039,N,11940.88666893,W,4,8,1.1,323.275,M,-17.562,M,1.1,0000*43
1627577634871447293,404,1627577634871251106,gps_frame,$GPGGA,165354.20,4616.69289916,N,11940.88666557,W,4,8,1.1,323.258,M,-17.562,M,0.2,0000*41
1627577634920508675,405,1627577634920294046,gps_frame,$GPGGA,165354.25,4616.69290023,N,11940.88664702,W,4,8,1.1,323.246,M,-17.562,M,0.2,0000*4C
1627577634969406886,406,1627577634969216108,gps_frame,$GPGGA,165354.30,4616.69290822,N,11940.88664665,W,4,8,1.1,323.262,M,-17.562,M,0.3,0000*46
1627577635020556162,407,1627577635020334005,gps_frame,$GPGGA,165354.35,4616.69291368,N,11940.88663433,W,4,8,1.1,323.268,M,-17.562,M,0.3,0000*4B
1627577635070473129,408,1627577635070318937,gps_frame,$GPGGA,165354.40,4616.69291454,N,11940.88663321,W,4,8,1.1,323.262,M,-17.562,M,0.4,0000*48
1627577635120456691,409,1627577635120229959,gps_frame,$GPGGA,165354.45,4616.69291708,N,11940.88661543,W,4,8,1.1,323.261,M,-17.562,M,0.4,0000*44
1627577635169469881,410,1627577635169097900,gps_frame,$GPGGA,165354.50,4616.69292028,N,11940.88661951,W,4,8,1.1,323.257,M,-17.562,M,0.5,0000*4D
1627577635220398115,411,1627577635220243930,gps_frame,$GPGGA,165354.55,4616.69292323,N,11940.88660684,W,4,8,1.1,323.254,M,-17.562,M,0.5,0000*45
1627577635271748076,412,1627577635271533966,gps_frame,$GPGGA,165354.60,4616.69292642,N,11940.88660655,W,4,8,1.1,323.261,M,-17.562,M,0.6,0000*48
1627577635320408081,413,1627577635320254087,gps_frame,$GPGGA,165354.65,4616.69292953,N,11940.88659378,W,4,8,1.1,323.264,M,-17.562,M,0.6,0000*47
1627577635369958454,414,1627577635369688034,gps_frame,$GPGGA,165354.70,4616.69293487,N,11940.88659097,W,4,8,1.1,323.257,M,-17.562,M,0.7,0000*45
1627577635420379513,415,1627577635420212030,gps_frame,$GPGGA,165354.75,4616.69293939,N,11940.88657601,W,4,8,1.1,323.253,M,-17.562,M,0.7,0000*4B
1627577635470589237,416,1627577635470462083,gps_frame,$GPGGA,165354.80,4616.69293895,N,11940.88657849,W,4,8,1.1,323.267,M,-17.562,M,0.8,0000*4C
1627577635520501762,417,1627577635520368099,gps_frame,$GPGGA,165354.85,4616.69294032,N,11940.88656290,W,4,8,1.1,323.274,M,-17.562,M,0.8,0000*46
1627577635569340695,418,1627577635569089889,gps_frame,$GPGGA,165354.90,4616.69294471,N,11940.88656073,W,4,8,1.1,323.265,M,-17.562,M,0.9,0000*4F
1627577635620544219,419,1627577635620340108,gps_frame,$GPGGA,165354.95,4616.69294799,N,11940.88654799,W,4,8,1.1,323.261,M,-17.562,M,0.9,0000*4A
1627577635678364787,420,1627577635678222894,gps_frame,$GPGGA,165355.00,4616.69295044,N,11940.88655272,W,4,8,1.1,323.263,M,-17.562,M,1.0,0000*4A
1627577635720567407,421,1627577635720405101,gps_frame,$GPGGA,165355.05,4616.69295320,N,11940.88654308,W,4,8,1.1,323.262,M,-17.562,M,1.0,0000*42
1627577635781222532,422,1627577635781100988,gps_frame,$GPGGA,165355.10,4616.69295535,N,11940.88653788,W,4,8,1.1,323.259,M,-17.562,M,1.1,0000*46
1627577635820487951,423,1627577635820305109,gps_frame,$GPGGA,165355.15,4616.69295772,N,11940.88652312,W,4,8,1.1,323.256,M,-17.562,M,1.1,0000*4B
1627577635871494509,424,1627577635871239900,gps_frame,$GPGGA,165355.20,4616.69295870,N,11940.88653132,W,4,8,1.1,323.268,M,-17.562,M,0.2,0000*4E
1627577635920620920,425,1627577635920327901,gps_frame,$GPGGA,165355.25,4616.69296019,N,11940.88652432,W,4,8,1.1,323.275,M,-17.562,M,0.2,0000*47
1627577635969490407,426,1627577635969296932,gps_frame,$GPGGA,165355.30,4616.69296722,N,11940.88651607,W,4,8,1.1,323.263,M,-17.562,M,0.3,0000*4D
1627577636020547688,427,1627577636020358085,gps_frame,$GPGGA,165355.35,4616.69297222,N,11940.88650363,W,4,8,1.1,323.258,M,-17.562,M,0.3,0000*42
1627577636070736360,428,1627577636070544004,gps_frame,$GPGGA,165355.40,4616.69297405,N,11940.88649694,W,4,8,1.1,323.264,M,-17.562,M,0.4,0000*4E
1627577636120505925,429,1627577636120287895,gps_frame,$GPGGA,165355.45,4616.69297704,N,11940.88647635,W,4,8,1.1,323.266,M,-17.562,M,0.4,0000*4E
1627577636169298776,430,1627577636169166088,gps_frame,$GPGGA,165355.50,4616.69298279,N,11940.88647677,W,4,8,1.1,323.259,M,-17.562,M,0.5,0000*41
1627577636220503122,431,1627577636220288991,gps_frame,$GPGGA,165355.55,4616.69298753,N,11940.88646004,W,4,8,1.1,323.254,M,-17.562,M,0.5,0000*47
1627577636270715552,432,1627577636270514011,gps_frame,$GPGGA,165355.60,4616.69299142,N,11940.88645243,W,4,8,1.1,323.260,M,-17.562,M,0.6,0000*40
1627577636320652424,433,1627577636320395946,gps_frame,$GPGGA,165355.65,4616.69299563,N,11940.88642938,W,4,8,1.1,323.261,M,-17.562,M,0.6,0000*43
1627577636369535015,434,1627577636369328975,gps_frame,$GPGGA,165355.70,4616.69300269,N,11940.88642259,W,4,8,1.1,323.259,M,-17.562,M,0.7,0000*4D
1627577636420419404,435,1627577636420257091,gps_frame,$GPGGA,165355.75,4616.69300870,N,11940.88639790,W,4,8,1.1,323.258,M,-17.562,M,0.7,0000*47
1627577636470710591,436,1627577636470529079,gps_frame,$GPGGA,165355.80,4616.69301269,N,11940.88639786,W,4,8,1.1,323.254,M,-17.562,M,0.8,0000*4A
1627577636520626608,437,1627577636520356893,gps_frame,$GPGGA,165355.85,4616.69301741,N,11940.88637320,W,4,8,1.1,323.252,M,-17.562,M,0.8,0000*40
1627577636569311723,438,1627577636569034099,gps_frame,$GPGGA,165355.90,4616.69301953,N,11940.88635910,W,4,8,1.1,323.237,M,-17.562,M,0.9,0000*40
1627577636620358875,439,1627577636620206117,gps_frame,$GPGGA,165355.95,4616.69302260,N,11940.88632728,W,4,8,1.1,323.226,M,-17.562,M,0.9,0000*4F
1627577636677497779,440,1627577636677377939,gps_frame,$GPGGA,165356.00,4616.69302996,N,11940.88632253,W,4,8,1.1,323.246,M,-17.562,M,1.0,0000*45
1627577636720383940,441,1627577636720253944,gps_frame,$GPGGA,165356.05,4616.69303575,N,11940.88629840,W,4,8,1.1,323.254,M,-17.562,M,1.0,0000*41
1627577636780819400,442,1627577636780690908,gps_frame,$GPGGA,165356.10,4616.69304079,N,11940.88630449,W,4,8,1.1,323.243,M,-17.562,M,1.1,0000*41
1627577636820455815,443,1627577636820261955,gps_frame,$GPGGA,165356.15,4616.69304611,N,11940.88628507,W,4,8,1.1,323.240,M,-17.562,M,1.1,0000*4D
1627577636871628267,444,1627577636871439933,gps_frame,$GPGGA,165356.20,4616.69305792,N,11940.88626403,W,4,8,1.1,323.245,M,-17.562,M,0.2,0000*4C
1627577636920654662,445,1627577636920394897,gps_frame,$GPGGA,165356.25,4616.69306735,N,11940.88622858,W,4,8,1.1,323.248,M,-17.562,M,0.2,0000*4C
1627577636969489178,446,1627577636969266891,gps_frame,$GPGGA,165356.30,4616.69306848,N,11940.88622914,W,4,8,1.1,323.245,M,-17.562,M,0.3,0000*48
1627577637020556170,447,1627577637020360946,gps_frame,$GPGGA,165356.35,4616.69307264,N,11940.88619281,W,4,8,1.1,323.244,M,-17.562,M,0.3,0000*46
1627577637070585218,448,1627577637070367097,gps_frame,$GPGGA,165356.40,4616.69307217,N,11940.88620156,W,4,8,1.1,323.224,M,-17.562,M,0.4,0000*42
1627577637120551581,449,1627577637120357990,gps_frame,$GPGGA,165356.45,4616.69307340,N,11940.88617919,W,4,8,1.1,323.212,M,-17.562,M,0.4,0000*46
1627577637169869632,450,1627577637169190883,gps_frame,$GPGGA,165356.50,4616.69308195,N,11940.88616374,W,4,8,1.1,323.216,M,-17.562,M,0.5,0000*42
1627577637220501464,451,1627577637220307111,gps_frame,$GPGGA,165356.55,4616.69308782,N,11940.88614065,W,4,8,1.1,323.214,M,-17.562,M,0.5,0000*44
1627577637271365990,452,1627577637271164894,gps_frame,$GPGGA,165356.60,4616.69309544,N,11940.88612325,W,4,8,1.1,323.224,M,-17.562,M,0.6,0000*4A
1627577637320476026,453,1627577637320286989,gps_frame,$GPGGA,165356.65,4616.69310243,N,11940.88609022,W,4,8,1.1,323.229,M,-17.562,M,0.6,0000*44
1627577637369569001,454,1627577637369266986,gps_frame,$GPGGA,165356.70,4616.69311413,N,11940.88608798,W,4,8,1.1,323.228,M,-17.562,M,0.7,0000*45
1627577637420464344,455,1627577637420285940,gps_frame,$GPGGA,165356.75,4616.69312410,N,11940.88605578,W,4,8,1.1,323.230,M,-17.562,M,0.7,0000*48
1627577637470512332,456,1627577637470343112,gps_frame,$GPGGA,165356.80,4616.69313120,N,11940.88605990,W,4,8,1.1,323.226,M,-17.562,M,0.8,0000*47
1627577637520481304,457,1627577637520322084,gps_frame,$GPGGA,165356.85,4616.69313934,N,11940.88602486,W,4,8,1.1,323.223,M,-17.562,M,0.8,0000*47
1627577637569335065,458,1627577637569075107,gps_frame,$GPGGA,165356.90,4616.69314906,N,11940.88603151,W,4,8,1.1,323.234,M,-17.562,M,0.9,0000*4C
1627577637620539008,459,1627577637620259046,gps_frame,$GPGGA,165356.95,4616.69315820,N,11940.88599926,W,4,8,1.1,323.240,M,-17.562,M,0.9,0000*46
1627577637677534547,460,1627577637677403926,gps_frame,$GPGGA,165357.00,4616.69315805,N,11940.88599536,W,4,8,1.1,323.228,M,-17.562,M,1.0,0000*47
1627577637720510274,461,1627577637720298051,gps_frame,$GPGGA,165357.05,4616.69316131,N,11940.88595635,W,4,8,1.1,323.222,M,-17.562,M,1.0,0000*49
1627577637780719949,462,1627577637780563116,gps_frame,$GPGGA,165357.10,4616.69316855,N,11940.88596640,W,4,8,1.1,323.215,M,-17.562,M,1.1,0000*42
1627577637820523008,463,1627577637820329904,gps_frame,$GPGGA,165357.15,4616.69317434,N,11940.88594603,W,4,8,1.1,323.208,M,-17.562,M,1.1,0000*44
1627577637871353663,464,1627577637871148109,gps_frame,$GPGGA,165357.20,4616.69318782,N,11940.88593246,W,4,8,1.1,323.219,M,-17.562,M,0.2,0000*43
1627577637920563950,465,1627577637920345067,gps_frame,$GPGGA,165357.25,4616.69319848,N,11940.88590186,W,4,8,1.1,323.224,M,-17.562,M,0.2,0000*4C
1627577637969695090,466,1627577637969343900,gps_frame,$GPGGA,165357.30,4616.69320963,N,11940.88589894,W,4,8,1.1,323.226,M,-17.562,M,0.3,0000*4B
1627577638020931147,467,1627577638020540952,gps_frame,$GPGGA,165357.35,4616.69322059,N,11940.88585921,W,4,8,1.1,323.230,M,-17.562,M,0.3,0000*48
1627577638070897057,468,1627577638070703029,gps_frame,$GPGGA,165357.40,4616.69322897,N,11940.88586831,W,4,8,1.1,323.228,M,-17.562,M,0.4,0000*4D
1627577638120720505,469,1627577638120367050,gps_frame,$GPGGA,165357.45,4616.69323829,N,11940.88582934,W,4,8,1.1,323.228,M,-17.562,M,0.4,0000*4C
1627577638169466493,470,1627577638169140100,gps_frame,$GPGGA,165357.50,4616.69325676,N,11940.88583148,W,4,8,1.1,323.221,M,-17.562,M,0.5,0000*40
1627577638221664550,471,1627577638220760107,gps_frame,$GPGGA,165357.55,4616.69327189,N,11940.88579180,W,4,8,1.1,323.217,M,-17.562,M,0.5,0000*44
1627577638270995005,472,1627577638270683050,gps_frame,$GPGGA,165357.60,4616.69327717,N,11940.88578029,W,4,8,1.1,323.227,M,-17.562,M,0.6,0000*40
1627577638320699985,473,1627577638320457935,gps_frame,$GPGGA,165357.65,4616.69328606,N,11940.88571998,W,4,8,1.1,323.232,M,-17.562,M,0.6,0000*45
1627577638369689152,474,1627577638369436979,gps_frame,$GPGGA,165357.70,4616.69329236,N,11940.88574072,W,4,8,1.1,323.228,M,-17.562,M,0.7,0000*45
1627577638420481487,475,1627577638420253038,gps_frame,$GPGGA,165357.75,4616.69329961,N,11940.88570352,W,4,8,1.1,323.228,M,-17.562,M,0.7,0000*4C
1627577638470717841,476,1627577638470500946,gps_frame,$GPGGA,165357.80,4616.69331738,N,11940.88569864,W,4,8,1.1,323.230,M,-17.562,M,0.8,0000*4D
1627577638520729305,477,1627577638520443916,gps_frame,$GPGGA,165357.85,4616.69333130,N,11940.88566090,W,4,8,1.1,323.231,M,-17.562,M,0.8,0000*49
1627577638569129232,478,1627577638568942070,gps_frame,$GPGGA,165357.90,4616.69333374,N,11940.88564460,W,4,8,1.1,323.229,M,-17.562,M,0.9,0000*4E
1627577638620810385,479,1627577638620455026,gps_frame,$GPGGA,165357.95,4616.69334037,N,11940.88558581,W,4,8,1.1,323.228,M,-17.562,M,0.9,0000*48
1627577638677523778,480,1627577638677376031,gps_frame,$GPGGA,165358.00,4616.69335504,N,11940.88560007,W,4,8,1.1,323.214,M,-17.562,M,1.0,0000*48
1627577638721016014,481,1627577638720602989,gps_frame,$GPGGA,165358.05,4616.69336678,N,11940.88556494,W,4,8,1.1,323.205,M,-17.562,M,1.0,0000*4D
1627577638780693248,482,1627577638780543088,gps_frame,$GPGGA,165358.10,4616.69338575,N,11940.88554537,W,4,8,1.1,323.225,M,-17.562,M,1.1,0000*40
1627577638820737250,483,1627577638820449113,gps_frame,$GPGGA,165358.15,4616.69340207,N,11940.88549059,W,4,8,1.1,323.234,M,-17.562,M,1.1,0000*49
1627577638871744019,484,1627577638871457099,gps_frame,$GPGGA,165358.20,4616.69341447,N,11940.88549528,W,4,8,1.1,323.239,M,-17.562,M,0.2,0000*40
1627577638920671847,485,1627577638920399904,gps_frame,$GPGGA,165358.25,4616.69342830,N,11940.88543569,W,4,8,1.1,323.245,M,-17.562,M,0.2,0000*4E
1627577638969327677,486,1627577638969208002,gps_frame,$GPGGA,165358.30,4616.69343886,N,11940.88544154,W,4,8,1.1,323.242,M,-17.562,M,0.3,0000*4D
1627577639020685589,487,1627577639020418882,gps_frame,$GPGGA,165358.35,4616.69345061,N,11940.88538366,W,4,8,1.1,323.242,M,-17.562,M,0.3,0000*47
1627577639070775526,488,1627577639070540904,gps_frame,$GPGGA,165358.40,4616.69347007,N,11940.88539471,W,4,8,1.1,323.235,M,-17.562,M,0.4,0000*40
1627577639120756452,489,1627577639120475053,gps_frame,$GPGGA,165358.45,4616.69348671,N,11940.88534675,W,4,8,1.1,323.230,M,-17.562,M,0.4,0000*43
1627577639169361289,490,1627577639169020891,gps_frame,$GPGGA,165358.50,4616.69350058,N,11940.88535245,W,4,8,1.1,323.250,M,-17.562,M,0.5,0000*42
1627577639220598469,491,1627577639220354080,gps_frame,$GPGGA,165358.55,4616.69351546,N,11940.88529528,W,4,8,1.1,323.260,M,-17.562,M,0.5,0000*4E
1627577639271678929,492,1627577639271404981,gps_frame,$GPGGA,165358.60,4616.69352353,N,11940.88531941,W,4,8,1.1,323.219,M,-17.562,M,0.6,0000*4E
1627577639320943374,493,1627577639320521116,gps_frame,$GPGGA,165358.65,4616.69353409,N,11940.88527155,W,4,8,1.1,323.197,M,-17.562,M,0.6,0000*4D
1627577639369598902,494,1627577639369235038,gps_frame,$GPGGA,165358.70,4616.69356181,N,11940.88528091,W,4,8,1.1,323.214,M,-17.562,M,0.7,0000*46
1627577639420663796,495,1627577639420430898,gps_frame,$GPGGA,165358.75,4616.69358324,N,11940.88523755,W,4,8,1.1,323.217,M,-17.562,M,0.7,0000*47
1627577639470828173,496,1627577639470546960,gps_frame,$GPGGA,165358.80,4616.69359871,N,11940.88524052,W,4,8,1.1,323.245,M,-17.562,M,0.8,0000*48
1627577639520831306,497,1627577639520549058,gps_frame,$GPGGA,165358.85,4616.69361635,N,11940.88517352,W,4,8,1.1,323.264,M,-17.562,M,0.8,0000*48
1627577639569287566,498,1627577639569011926,gps_frame,$GPGGA,165358.90,4616.69362070,N,11940.88518891,W,4,8,1.1,323.230,M,-17.562,M,0.9,0000*43
1627577639620832268,499,1627577639620459079,gps_frame,$GPGGA,165358.95,4616.69362992,N,11940.88512304,W,4,8,1.1,323.215,M,-17.562,M,0.9,0000*49
1627577639678059182,500,1627577639677750110,gps_frame,$GPGGA,165359.00,4616.69367096,N,11940.88513467,W,4,8,1.1,323.235,M,-17.562,M,1.0,0000*45
1627577639720671861,501,1627577639720355987,gps_frame,$GPGGA,165359.05,4616.69370035,N,11940.88508747,W,4,8,1.1,323.242,M,-17.562,M,1.0,0000*44
1627577639780649635,502,1627577639780505895,gps_frame,$GPGGA,165359.10,4616.69369183,N,11940.88507489,W,4,8,1.1,323.239,M,-17.562,M,1.1,0000*47
1627577639820552562,503,1627577639820314884,gps_frame,$GPGGA,165359.15,4616.69369719,N,11940.88498005,W,4,8,1.1,323.240,M,-17.562,M,1.1,0000*4E
1627577639871809596,504,1627577639871432065,gps_frame,$GPGGA,165359.20,4616.69372695,N,11940.88503034,W,4,8,1.1,323.232,M,-17.562,M,0.2,0000*41
1627577639920588588,505,1627577639920351028,gps_frame,$GPGGA,165359.25,4616.69374777,N,11940.88499861,W,4,8,1.1,323.228,M,-17.562,M,0.2,0000*4E
1627577639969433900,506,1627577639969197034,gps_frame,$GPGGA,165359.30,4616.69373902,N,11940.88498606,W,4,8,1.1,323.222,M,-17.562,M,0.3,0000*44
1627577640020966567,507,1627577640020730972,gps_frame,$GPGGA,165359.35,4616.69374109,N,11940.88491787,W,4,8,1.1,323.216,M,-17.562,M,0.3,0000*43
1627577640070860776,508,1627577640070607900,gps_frame,$GPGGA,165359.40,4616.69376720,N,11940.88493973,W,4,8,1.1,323.234,M,-17.562,M,0.4,0000*4E
1627577640120686689,509,1627577640120357036,gps_frame,$GPGGA,165359.45,4616.69378450,N,11940.88491190,W,4,8,1.1,323.244,M,-17.562,M,0.4,0000*41
1627577640169414095,510,1627577640169172048,gps_frame,$GPGGA,165359.50,4616.69379576,N,11940.88490436,W,4,8,1.1,323.238,M,-17.562,M,0.5,0000*43
1627577640220780348,511,1627577640220437049,gps_frame,$GPGGA,165359.55,4616.69380923,N,11940.88485038,W,4,8,1.1,323.237,M,-17.562,M,0.5,0000*4D
1627577640270998422,512,1627577640270656108,gps_frame,$GPGGA,165359.60,4616.69380960,N,11940.88486382,W,4,8,1.1,323.244,M,-17.562,M,0.6,0000*4A
1627577640320826460,513,1627577640320502042,gps_frame,$GPGGA,165359.65,4616.69381477,N,11940.88481303,W,4,8,1.1,323.249,M,-17.562,M,0.6,0000*46
1627577640369664212,514,1627577640369358062,gps_frame,$GPGGA,165359.70,4616.69383662,N,11940.88481928,W,4,8,1.1,323.234,M,-17.562,M,0.7,0000*4E
1627577640420653276,515,1627577640420358896,gps_frame,$GPGGA,165359.75,4616.69385237,N,11940.88478548,W,4,8,1.1,323.226,M,-17.562,M,0.7,0000*46
1627577640470724143,516,1627577640470454931,gps_frame,$GPGGA,165359.80,4616.69385290,N,11940.88478509,W,4,8,1.1,323.219,M,-17.562,M,0.8,0000*47
1627577640520629318,517,1627577640520368099,gps_frame,$GPGGA,165359.85,4616.69385900,N,11940.88473507,W,4,8,1.1,323.211,M,-17.562,M,0.8,0000*4D
1627577640569347985,518,1627577640569072961,gps_frame,$GPGGA,165359.90,4616.69386751,N,11940.88475185,W,4,8,1.1,323.240,M,-17.562,M,0.9,0000*4D
1627577640620491659,519,1627577640620318889,gps_frame,$GPGGA,165359.95,4616.69387513,N,11940.88472164,W,4,8,1.1,323.256,M,-17.562,M,0.9,0000*42
1627577640677684261,520,1627577640677532911,gps_frame,$GPGGA,165400.00,4616.69388942,N,11940.88470757,W,4,8,1.1,323.239,M,-17.562,M,1.0,0000*47
1627577640720638277,521,1627577640720424890,gps_frame,$GPGGA,165400.05,4616.69390127,N,11940.88466737,W,4,8,1.1,323.234,M,-17.562,M,1.0,0000*4C
1627577640780685016,522,1627577640780555009,gps_frame,$GPGGA,165400.10,4616.69390508,N,11940.88467877,W,4,8,1.1,323.225,M,-17.562,M,1.1,0000*4A
1627577640820515488,523,1627577640820353984,gps_frame,$GPGGA,165400.15,4616.69391183,N,11940.88464094,W,4,8,1.1,323.217,M,-17.562,M,1.1,0000*4E
1627577640871980919,524,1627577640871419906,gps_frame,$GPGGA,165400.20,4616.69392185,N,11940.88465145,W,4,8,1.1,323.251,M,-17.562,M,0.2,0000*41
1627577640920607690,525,1627577640920376062,gps_frame,$GPGGA,165400.25,4616.69393068,N,11940.88462259,W,4,8,1.1,323.269,M,-17.562,M,0.2,0000*45
1627577640969823527,526,1627577640969451904,gps_frame,$GPGGA,165400.30,4616.69394024,N,11940.88462132,W,4,8,1.1,323.245,M,-17.562,M,0.3,0000*4F
1627577641020596976,527,1627577641020477056,gps_frame,$GPGGA,165400.35,4616.69394953,N,11940.88458673,W,4,8,1.1,323.237,M,-17.562,M,0.3,0000*4D
1627577641070688104,528,1627577641070485115,gps_frame,$GPGGA,165400.40,4616.69394969,N,11940.88460392,W,4,8,1.1,323.250,M,-17.562,M,0.4,0000*41
1627577641120445242,529,1627577641120276927,gps_frame,$GPGGA,165400.45,4616.69395320,N,11940.88457669,W,4,8,1.1,323.255,M,-17.562,M,0.4,0000*42
1627577641169276794,530,1627577641169040918,gps_frame,$GPGGA,165400.50,4616.69397945,N,11940.88457108,W,4,8,1.1,323.246,M,-17.562,M,0.5,0000*4E
1627577641220930509,531,1627577641220551967,gps_frame,$GPGGA,165400.55,4616.69399738,N,11940.88454446,W,4,8,1.1,323.242,M,-17.562,M,0.5,0000*49
1627577641272402481,532,1627577641271481037,gps_frame,$GPGGA,165400.60,4616.69398883,N,11940.88454843,W,4,8,1.1,323.233,M,-17.562,M,0.6,0000*4D
1627577641320720172,533,1627577641320523977,gps_frame,$GPGGA,165400.65,4616.69398997,N,11940.88449999,W,4,8,1.1,323.225,M,-17.562,M,0.6,0000*41
1627577641370065110,534,1627577641369827985,gps_frame,$GPGGA,165400.70,4616.69401013,N,11940.88451493,W,4,8,1.1,323.239,M,-17.562,M,0.7,0000*45
1627577641420768912,535,1627577641420317888,gps_frame,$GPGGA,165400.75,4616.69402333,N,11940.88449368,W,4,8,1.1,323.245,M,-17.562,M,0.7,0000*43
1627577641470934837,536,1627577641470670938,gps_frame,$GPGGA,165400.80,4616.69403546,N,11940.88448528,W,4,8,1.1,323.253,M,-17.562,M,0.8,0000*47
1627577641520685553,537,1627577641520404100,gps_frame,$GPGGA,165400.85,4616.69404799,N,11940.88444268,W,4,8,1.1,323.260,M,-17.562,M,0.8,0000*4A
1627577641569300042,538,1627577641569003105,gps_frame,$GPGGA,165400.90,4616.69406566,N,11940.88445699,W,4,8,1.1,323.230,M,-17.562,M,0.9,0000*41
1627577641620586239,539,1627577641620372056,gps_frame,$GPGGA,165400.95,4616.69408145,N,11940.88441539,W,4,8,1.1,323.213,M,-17.562,M,0.9,0000*43
1627577641677338280,540,1627577641677247047,gps_frame,$GPGGA,165401.00,4616.69409259,N,11940.88443766,W,4,8,1.1,323.260,M,-17.562,M,1.0,0000*47
1627577641720694637,541,1627577641720402002,gps_frame,$GPGGA,165401.05,4616.69410543,N,11940.88439474,W,4,8,1.1,323.283,M,-17.562,M,1.0,0000*46
1627577641780417737,542,1627577641780296087,gps_frame,$GPGGA,165401.10,4616.69412393,N,11940.88440819,W,4,8,1.1,323.241,M,-17.562,M,1.1,0000*4D
1627577641820812710,543,1627577641820461034,gps_frame,$GPGGA,165401.15,4616.69414036,N,11940.88436372,W,4,8,1.1,323.223,M,-17.562,M,1.1,0000*41
1627577641871605232,544,1627577641871386051,gps_frame,$GPGGA,165401.20,4616.69416500,N,11940.88436651,W,4,7,1.7,323.247,M,-17.562,M,0.2,0000*48
1627577641920674772,545,1627577641920490980,gps_frame,$GPGGA,165401.25,4616.69418664,N,11940.88430861,W,4,7,1.7,323.256,M,-17.562,M,0.2,0000*49
1627577641969278709,546,1627577641968988895,gps_frame,$GPGGA,165401.30,4616.69417481,N,11940.88433057,W,4,7,1.7,323.231,M,-17.562,M,0.3,0000*45
1627577642020508091,547,1627577642020385026,gps_frame,$GPGGA,165401.35,4616.69417524,N,11940.88426642,W,4,7,1.7,323.218,M,-17.562,M,0.3,0000*43
1627577642070552617,548,1627577642070398092,gps_frame,$GPGGA,165401.40,4616.69419953,N,11940.88429367,W,4,7,1.7,323.249,M,-17.562,M,0.4,0000*4D
1627577642120382461,549,1627577642120234966,gps_frame,$GPGGA,165401.45,4616.69421508,N,11940.88427387,W,4,7,1.7,323.263,M,-17.562,M,0.4,0000*49
1627577642169262355,550,1627577642168884992,gps_frame,$GPGGA,165401.50,4616.69422470,N,11940.88426310,W,4,7,1.7,323.228,M,-17.562,M,0.5,0000*41
1627577642220491825,551,1627577642220328092,gps_frame,$GPGGA,165401.55,4616.69423649,N,11940.88421481,W,4,7,1.7,323.211,M,-17.562,M,0.5,0000*4F
1627577642270559091,552,1627577642270360946,gps_frame,$GPGGA,165401.60,4616.69424657,N,11940.88422205,W,4,7,1.7,323.193,M,-17.562,M,0.6,0000*42
1627577642320465282,553,1627577642320292949,gps_frame,$GPGGA,165401.65,4616.69425728,N,11940.88417411,W,4,7,1.7,323.175,M,-17.562,M,0.6,0000*42
1627577642369173237,554,1627577642369030952,gps_frame,$GPGGA,165401.70,4616.69427055,N,11940.88420369,W,4,7,1.7,323.229,M,-17.562,M,0.7,0000*4E
1627577642420392238,555,1627577642420248985,gps_frame,$GPGGA,165401.75,4616.69428289,N,11940.88417460,W,4,7,1.7,323.257,M,-17.562,M,0.7,0000*44
1627577642470535179,556,1627577642470324993,gps_frame,$GPGGA,165401.80,4616.69429993,N,11940.88416947,W,4,7,1.7,323.240,M,-17.562,M,0.8,0000*4F
1627577642520918123,557,1627577642520674943,gps_frame,$GPGGA,165401.85,4616.69431525,N,11940.88412236,W,4,7,1.7,323.239,M,-17.562,M,0.8,0000*45
1627577642568984187,558,1627577642568766117,gps_frame,$GPGGA,165401.90,4616.69432553,N,11940.88413180,W,4,7,1.7,323.222,M,-17.562,M,0.9,0000*47
1627577642620734418,559,1627577642620426893,gps_frame,$GPGGA,165401.95,4616.69433766,N,11940.88407986,W,4,7,1.7,323.210,M,-17.562,M,0.9,0000*4D
1627577642677280985,560,1627577642677148103,gps_frame,$GPGGA,165402.00,4616.69434342,N,11940.88409399,W,4,7,1.7,323.217,M,-17.562,M,1.0,0000*42
1627577642720382909,561,1627577642720196962,gps_frame,$GPGGA,165402.05,4616.69435151,N,11940.88404849,W,4,7,1.7,323.217,M,-17.562,M,1.0,0000*4D
1627577642780493273,562,1627577642780277967,gps_frame,$GPGGA,165402.10,4616.69436778,N,11940.88407555,W,4,7,1.7,323.215,M,-17.562,M,1.1,0000*47
1627577642820635922,563,1627577642820359945,gps_frame,$GPGGA,165402.15,4616.69438105,N,11940.88405129,W,4,7,1.7,323.213,M,-17.562,M,1.1,0000*4B
1627577642872207179,564,1627577642871865034,gps_frame,$GPGGA,165402.20,4616.69438592,N,11940.88404997,W,4,7,1.7,323.221,M,-17.562,M,0.2,0000*48
1627577642920779428,565,1627577642920547008,gps_frame,$GPGGA,165402.25,4616.69439386,N,11940.88400652,W,4,7,1.7,323.226,M,-17.562,M,0.2,0000*4A
1627577642969390491,566,1627577642969166994,gps_frame,$GPGGA,165402.30,4616.69441123,N,11940.88402457,W,4,7,1.7,323.201,M,-17.562,M,0.3,0000*4D
1627577643021024852,567,1627577643020546913,gps_frame,$GPGGA,165402.35,4616.69442515,N,11940.88399499,W,4,7,1.7,323.186,M,-17.562,M,0.3,0000*41
1627577643070556993,568,1627577643070296049,gps_frame,$GPGGA,165402.40,4616.69445303,N,11940.88399603,W,4,7,1.7,323.223,M,-17.562,M,0.4,0000*4F
1627577643120743251,569,1627577643120460033,gps_frame,$GPGGA,165402.45,4616.69447580,N,11940.88395082,W,4,7,1.7,323.241,M,-17.562,M,0.4,0000*42
1627577643169068796,570,1627577643168814897,gps_frame,$GPGGA,165402.50,4616.69447562,N,11940.88397953,W,4,7,1.7,323.222,M,-17.562,M,0.5,0000*49
1627577643220810573,571,1627577643220451116,gps_frame,$GPGGA,165402.55,4616.69448384,N,11940.88392331,W,4,7,1.7,323.217,M,-17.562,M,0.5,0000*40
1627577643271440207,572,1627577643271102905,gps_frame,$GPGGA,165402.60,4616.69450683,N,11940.88394199,W,4,7,1.7,323.220,M,-17.562,M,0.6,0000*4C
1627577643320744548,573,1627577643320372104,gps_frame,$GPGGA,165402.65,4616.69452441,N,11940.88390197,W,4,7,1.7,323.220,M,-17.562,M,0.6,0000*4D
1627577643369664044,574,1627577643369422912,gps_frame,$GPGGA,165402.70,4616.69454091,N,11940.88391063,W,4,7,1.7,323.207,M,-17.562,M,0.7,0000*49
1627577643420802668,575,1627577643420499086,gps_frame,$GPGGA,165402.75,4616.69455780,N,11940.88385825,W,4,7,1.7,323.198,M,-17.562,M,0.7,0000*40
1627577643470632733,576,1627577643470477104,gps_frame,$GPGGA,165402.80,4616.69457159,N,11940.88387486,W,4,7,1.7,323.255,M,-17.562,M,0.8,0000*40
1627577643520595894,577,1627577643520332098,gps_frame,$GPGGA,165402.85,4616.69458651,N,11940.88381902,W,4,7,1.7,323.288,M,-17.562,M,0.8,0000*42
1627577643569058375,578,1627577643568871974,gps_frame,$GPGGA,165402.90,4616.69458729,N,11940.88385200,W,4,7,1.7,323.223,M,-17.562,M,0.9,0000*45
1627577643620747693,579,1627577643620518922,gps_frame,$GPGGA,165402.95,4616.69459324,N,11940.88380998,W,4,7,1.7,323.193,M,-17.562,M,0.9,0000*4F
1627577643677581079,580,1627577643677417039,gps_frame,$GPGGA,165403.00,4616.69462403,N,11940.88382810,W,4,7,1.7,323.241,M,-17.562,M,1.0,0000*4F
1627577643720764227,581,1627577643720474004,gps_frame,$GPGGA,165403.05,4616.69464573,N,11940.88380248,W,4,7,1.7,323.261,M,-17.562,M,1.0,0000*4D
1627577643780354184,582,1627577643780250072,gps_frame,$GPGGA,165403.10,4616.69465431,N,11940.88380453,W,4,7,1.7,323.269,M,-17.562,M,1.1,0000*4A
1627577643820630506,583,1627577643820374011,gps_frame,$GPGGA,165403.15,4616.69466770,N,11940.88374556,W,4,7,1.7,323.281,M,-17.562,M,1.1,0000*43
1627577643871393326,584,1627577643871202945,gps_frame,$GPGGA,165403.20,4616.69468186,N,11940.88378736,W,4,7,1.7,323.278,M,-17.562,M,0.2,0000*48
1627577643920436066,585,1627577643920232057,gps_frame,$GPGGA,165403.25,4616.69469574,N,11940.88375035,W,4,7,1.7,323.280,M,-17.562,M,0.2,0000*4B
1627577643969486095,586,1627577643969265937,gps_frame,$GPGGA,165403.30,4616.69470690,N,11940.88375232,W,4,7,1.7,323.247,M,-17.562,M,0.3,0000*41
1627577644020901449,587,1627577644020612955,gps_frame,$GPGGA,165403.35,4616.69471905,N,11940.88370187,W,4,7,1.7,323.227,M,-17.562,M,0.3,0000*48
1627577644070963691,588,1627577644070709943,gps_frame,$GPGGA,165403.40,4616.69473284,N,11940.88373558,W,4,7,1.7,323.253,M,-17.562,M,0.4,0000*4B
1627577644120672698,589,1627577644120410919,gps_frame,$GPGGA,165403.45,4616.69474603,N,11940.88370382,W,4,7,1.7,323.262,M,-17.562,M,0.4,0000*42
1627577644169533718,590,1627577644169238090,gps_frame,$GPGGA,165403.50,4616.69475850,N,11940.88370066,W,4,7,1.7,323.243,M,-17.562,M,0.5,0000*44
1627577644220764890,591,1627577644220546960,gps_frame,$GPGGA,165403.55,4616.69477124,N,11940.88365112,W,4,7,1.7,323.234,M,-17.562,M,0.5,0000*4F
1627577644270723988,592,1627577644270479917,gps_frame,$GPGGA,165403.60,4616.69477472,N,11940.88366050,W,4,7,1.7,323.231,M,-17.562,M,0.6,0000*4D
1627577644320513410,593,1627577644320306062,gps_frame,$GPGGA,165403.65,4616.69478160,N,11940.88361279,W,4,7,1.7,323.226,M,-17.562,M,0.6,0000*49
1627577644369535934,594,1627577644369225978,gps_frame,$GPGGA,165403.70,4616.69480562,N,11940.88363497,W,4,7,1.7,323.247,M,-17.562,M,0.7,0000*4E
1627577644420582334,595,1627577644420325994,gps_frame,$GPGGA,165403.75,4616.69482337,N,11940.88360910,W,4,7,1.7,323.258,M,-17.562,M,0.7,0000*40
1627577644470734824,596,1627577644470515966,gps_frame,$GPGGA,165403.80,4616.69483396,N,11940.88359549,W,4,7,1.7,323.235,M,-17.562,M,0.8,0000*4E
1627577644520913231,597,1627577644520492076,gps_frame,$GPGGA,165403.85,4616.69484717,N,11940.88353461,W,4,7,1.7,323.224,M,-17.562,M,0.8,0000*40
1627577644569586112,598,1627577644569128990,gps_frame,$GPGGA,165403.90,4616.69486395,N,11940.88357659,W,4,7,1.7,323.237,M,-17.562,M,0.9,0000*46
1627577644620483122,599,1627577644620280981,gps_frame,$GPGGA,165403.95,4616.69487942,N,11940.88354168,W,4,7,1.7,323.241,M,-17.562,M,0.9,0000*45
1627577644677493521,600,1627577644677364110,gps_frame,$GPGGA,165404.00,4616.69489359,N,11940.88354172,W,4,7,1.7,323.249,M,-17.562,M,1.0,0000*4B
1627577644720452570,601,1627577644720247983,gps_frame,$GPGGA,165404.05,4616.69490824,N,11940.88348744,W,4,7,1.7,323.256,M,-17.562,M,1.0,0000*47
1627577644780363313,602,1627577644780213117,gps_frame,$GPGGA,165404.10,4616.69493314,N,11940.88352023,W,4,7,1.7,323.251,M,-17.562,M,1.1,0000*43
1627577644820681067,603,1627577644820390939,gps_frame,$GPGGA,165404.15,4616.69495428,N,11940.88348011,W,4,7,1.7,323.250,M,-17.562,M,1.1,0000*43
1627577644871361020,604,1627577644871149063,gps_frame,$GPGGA,165404.20,4616.69496329,N,11940.88349469,W,4,7,1.7,323.251,M,-17.562,M,0.2,0000*49
1627577644920549095,605,1627577644920361042,gps_frame,$GPGGA,165404.25,4616.69497674,N,11940.88343450,W,4,7,1.7,323.251,M,-17.562,M,0.2,0000*40
1627577644969368898,606,1627577644969032049,gps_frame,$GPGGA,165404.30,4616.69499492,N,11940.88345215,W,4,7,1.7,323.257,M,-17.562,M,0.3,0000*46
1627577645020870034,607,1627577645020440101,gps_frame,$GPGGA,165404.35,4616.69501137,N,11940.88339956,W,4,7,1.7,323.261,M,-17.562,M,0.3,0000*4B
1627577645070334495,608,1627577645070131063,gps_frame,$GPGGA,165404.40,4616.69502867,N,11940.88342131,W,4,7,1.7,323.236,M,-17.562,M,0.4,0000*46
1627577645120596240,609,1627577645120362997,gps_frame,$GPGGA,165404.45,4616.69504566,N,11940.88337204,W,4,7,1.7,323.221,M,-17.562,M,0.4,0000*48
1627577645169290464,610,1627577645168765068,gps_frame,$GPGGA,165404.50,4616.69505660,N,11940.88339948,W,4,7,1.7,323.238,M,-17.562,M,0.5,0000*4C
1627577645220708109,611,1627577645220417022,gps_frame,$GPGGA,165404.55,4616.69506976,N,11940.88335211,W,4,7,1.7,323.244,M,-17.562,M,0.5,0000*42
1627577645271483630,612,1627577645271059989,gps_frame,$GPGGA,165404.60,4616.69509472,N,11940.88335848,W,4,7,1.7,323.263,M,-17.562,M,0.6,0000*42
1627577645320673993,613,1627577645320327043,gps_frame,$GPGGA,165404.65,4616.69511536,N,11940.88330650,W,4,7,1.7,323.278,M,-17.562,M,0.6,0000*47
1627577645369622637,614,1627577645369426012,gps_frame,$GPGGA,165404.70,4616.69514049,N,11940.88333373,W,4,7,1.7,323.262,M,-17.562,M,0.7,0000*46
1627577645420782557,615,1627577645420509099,gps_frame,$GPGGA,165404.75,4616.69516398,N,11940.88327919,W,4,7,1.7,323.258,M,-17.562,M,0.7,0000*44
1627577645470866464,616,1627577645470588922,gps_frame,$GPGGA,165404.80,4616.69516556,N,11940.88328744,W,4,7,1.7,323.219,M,-17.562,M,0.8,0000*49
1627577645520674682,617,1627577645520368099,gps_frame,$GPGGA,165404.85,4616.69517517,N,11940.88320933,W,4,7,1.7,323.194,M,-17.562,M,0.8,0000*48
1627577645569138209,618,1627577645568883895,gps_frame,$GPGGA,165404.90,4616.69520626,N,11940.88325122,W,4,7,1.7,323.267,M,-17.562,M,0.9,0000*4A
1627577645620882884,619,1627577645620460987,gps_frame,$GPGGA,165404.95,4616.69522948,N,11940.88321446,W,4,7,1.7,323.304,M,-17.562,M,0.9,0000*4D
1627577645677519241,620,1627577645677310943,gps_frame,$GPGGA,165405.00,4616.69522642,N,11940.88321816,W,4,7,1.7,323.285,M,-17.562,M,1.0,0000*4C
1627577645721404089,621,1627577645721133947,gps_frame,$GPGGA,165405.05,4616.69523299,N,11940.88315070,W,4,7,1.7,323.286,M,-17.562,M,1.0,0000*46
1627577645780287470,622,1627577645780165910,gps_frame,$GPGGA,165405.10,4616.69527616,N,11940.88318487,W,4,7,1.7,323.295,M,-17.562,M,1.1,0000*47
1627577645820734269,623,1627577645820472002,gps_frame,$GPGGA,165405.15,4616.69530592,N,11940.88315392,W,4,7,1.7,323.301,M,-17.562,M,1.1,0000*49
1627577645871256405,624,1627577645871026992,gps_frame,$GPGGA,165405.20,4616.69530568,N,11940.88315034,W,4,6,1.7,323.294,M,-17.562,M,0.2,0000*4B
1627577645920867437,625,1627577645920540094,gps_frame,$GPGGA,165405.25,4616.69531642,N,11940.88306788,W,4,6,1.7,323.292,M,-17.562,M,0.2,0000*40
1627577645969549149,626,1627577645969176054,gps_frame,$GPGGA,165405.30,4616.69534857,N,11940.88311414,W,4,6,1.7,323.250,M,-17.562,M,0.3,0000*44
1627577646020474011,627,1627577646020291090,gps_frame,$GPGGA,165405.35,4616.69537288,N,11940.88307240,W,4,6,1.7,323.223,M,-17.562,M,0.3,0000*4E
1627577646071025556,628,1627577646070559978,gps_frame,$GPGGA,165405.40,4616.69537856,N,11940.88309414,W,4,6,1.7,323.238,M,-17.562,M,0.4,0000*41
1627577646120567513,629,1627577646120321035,gps_frame,$GPGGA,165405.45,4616.69539105,N,11940.88303326,W,4,6,1.7,323.237,M,-17.562,M,0.4,0000*46
1627577646168883192,630,1627577646168737888,gps_frame,$GPGGA,165405.50,4616.69542836,N,11940.88304564,W,4,6,1.7,323.299,M,-17.562,M,0.5,0000*45
1627577646220553799,631,1627577646220366954,gps_frame,$GPGGA,165405.55,4616.69545658,N,11940.88298967,W,4,6,1.7,323.337,M,-17.562,M,0.5,0000*4F
1627577646270958375,632,1627577646270603895,gps_frame,$GPGGA,165405.60,4616.69545073,N,11940.88301637,W,4,6,1.7,323.267,M,-17.562,M,0.6,0000*4A
1627577646320539085,633,1627577646320338010,gps_frame,$GPGGA,165405.65,4616.69545735,N,11940.88294385,W,4,6,1.7,323.236,M,-17.562,M,0.6,0000*4F
1627577646369461570,634,1627577646369102001,gps_frame,$GPGGA,165405.70,4616.69549912,N,11940.88297702,W,4,6,1.7,323.283,M,-17.562,M,0.7,0000*4B
1627577646420588732,635,1627577646420398950,gps_frame,$GPGGA,165405.75,4616.69552802,N,11940.88294054,W,4,6,1.7,323.302,M,-17.562,M,0.7,0000*4B
1627577646470450898,636,1627577646470204114,gps_frame,$GPGGA,165405.80,4616.69554122,N,11940.88294203,W,4,6,1.7,323.241,M,-17.562,M,0.8,0000*45
1627577646521001351,637,1627577646520555973,gps_frame,$GPGGA,165405.85,4616.69556017,N,11940.88286261,W,4,6,1.7,323.210,M,-17.562,M,0.8,0000*46
1627577646569272917,638,1627577646568859100,gps_frame,$GPGGA,165405.90,4616.69557717,N,11940.88292977,W,4,6,1.7,323.311,M,-17.562,M,0.9,0000*4C
1627577646620609978,639,1627577646620357036,gps_frame,$GPGGA,165405.95,4616.69559488,N,11940.88288499,W,4,6,1.7,323.364,M,-17.562,M,0.9,0000*46
1627577646677300960,640,1627577646677154064,gps_frame,$GPGGA,165406.00,4616.69561047,N,11940.88286238,W,4,6,1.7,323.257,M,-17.562,M,1.0,0000*4F
1627577646720726551,641,1627577646720390081,gps_frame,$GPGGA,165406.05,4616.69562685,N,11940.88278187,W,4,6,1.7,323.208,M,-17.562,M,1.0,0000*4D
1627577646780268161,642,1627577646780025959,gps_frame,$GPGGA,165406.10,4616.69564661,N,11940.88286350,W,4,6,1.7,323.268,M,-17.562,M,1.1,0000*4B
1627577646820572807,643,1627577646820318937,gps_frame,$GPGGA,165406.15,4616.69566514,N,11940.88283967,W,4,6,1.7,323.288,M,-17.562,M,1.1,0000*48
1627577646871467727,644,1627577646871265888,gps_frame,$GPGGA,165406.20,4616.69569526,N,11940.88281367,W,4,6,1.7,323.323,M,-17.562,M,0.2,0000*4A
1627577646920792580,645,1627577646920562028,gps_frame,$GPGGA,165406.25,4616.69572114,N,11940.88273843,W,4,6,1.7,323.352,M,-17.562,M,0.2,0000*46
1627577646968961442,646,1627577646968733072,gps_frame,$GPGGA,165406.30,4616.69572552,N,11940.88276617,W,4,6,1.7,323.291,M,-17.562,M,0.3,0000*41
1627577647020557121,647,1627577647020317077,gps_frame,$GPGGA,165406.35,4616.69573777,N,11940.88268886,W,4,6,1.7,323.263,M,-17.562,M,0.3,0000*44
1627577647070807720,648,1627577647070441007,gps_frame,$GPGGA,165406.40,4616.69578638,N,11940.88273560,W,4,6,1.7,323.347,M,-17.562,M,0.4,0000*48
1627577647120646378,649,1627577647120364904,gps_frame,$GPGGA,165406.45,4616.69582168,N,11940.88269504,W,4,6,1.7,323.389,M,-17.562,M,0.4,0000*41
1627577647169113600,650,1627577647168824911,gps_frame,$GPGGA,165406.50,4616.69582256,N,11940.88269710,W,4,6,1.7,323.289,M,-17.562,M,0.5,0000*4C
1627577647220476072,651,1627577647220240116,gps_frame,$GPGGA,165406.55,4616.69583604,N,11940.88259928,W,4,6,1.7,323.240,M,-17.562,M,0.5,0000*48
1627577647270997667,652,1627577647270730972,gps_frame,$GPGGA,165406.60,4616.69586959,N,11940.88265446,W,4,6,1.7,323.297,M,-17.562,M,0.6,0000*4F
1627577647320464345,653,1627577647320265054,gps_frame,$GPGGA,165406.65,4616.69589580,N,11940.88260355,W,4,6,1.7,323.315,M,-17.562,M,0.6,0000*46
1627577647369478735,654,1627577647369250059,gps_frame,$GPGGA,165406.70,4616.69590382,N,11940.88263634,W,4,6,1.7,323.267,M,-17.562,M,0.7,0000*4A
1627577647420784475,655,1627577647420444011,gps_frame,$GPGGA,165406.75,4616.69591851,N,11940.88257337,W,4,6,1.7,323.243,M,-17.562,M,0.7,0000*4C
1627577647470270707,656,1627577647470002889,gps_frame,$GPGGA,165406.80,4616.69594319,N,11940.88257290,W,4,6,1.7,323.317,M,-17.562,M,0.8,0000*47
1627577647521240492,657,1627577647520778894,gps_frame,$GPGGA,165406.85,4616.69596421,N,11940.88250215,W,4,6,1.7,323.355,M,-17.562,M,0.8,0000*40
1627577647569003330,658,1627577647568732976,gps_frame,$GPGGA,165406.90,4616.69598013,N,11940.88255973,W,4,6,1.7,323.257,M,-17.562,M,0.9,0000*43
1627577647620667071,659,1627577647620362997,gps_frame,$GPGGA,165406.95,4616.69599792,N,11940.88251582,W,4,6,1.7,323.208,M,-17.562,M,0.9,0000*45
1627577647677286117,660,1627577647677139997,gps_frame,$GPGGA,165407.00,4616.69602784,N,11940.88250989,W,4,6,1.7,323.351,M,-17.562,M,1.0,0000*4D
1627577647720786403,661,1627577647720515012,gps_frame,$GPGGA,165407.05,4616.69605331,N,11940.88243892,W,4,6,1.7,323.423,M,-17.562,M,1.0,0000*4E
1627577647779806017,662,1627577647779639005,gps_frame,$GPGGA,165407.10,4616.69609413,N,11940.88247348,W,4,6,1.7,323.305,M,-17.562,M,1.1,0000*4B
1627577647820747974,663,1627577647820436000,gps_frame,$GPGGA,165407.15,4616.69612934,N,11940.88240335,W,4,6,1.7,323.256,M,-17.562,M,1.1,0000*46
1627577647871561968,664,1627577647871356010,gps_frame,$GPGGA,165407.20,4616.69612106,N,11940.88247007,W,4,5,2.0,323.266,M,-17.562,M,0.2,0000*4A
1627577647920772642,665,1627577647920383930,gps_frame,$GPGGA,165407.25,4616.69612871,N,11940.88239490,W,4,5,2.0,323.254,M,-17.562,M,0.2,0000*44
1627577647969021823,666,1627577647968859910,gps_frame,$GPGGA,165407.30,4616.69616223,N,11940.88238630,W,4,5,2.0,323.292,M,-17.562,M,0.3,0000*4B
1627577648020704850,667,1627577648020411014,gps_frame,$GPGGA,165407.35,4616.69618627,N,11940.88231604,W,4,5,2.0,323.312,M,-17.562,M,0.3,0000*47
1627577648070601053,668,1627577648070306062,gps_frame,$GPGGA,165407.40,4616.69620232,N,11940.88238332,W,4,5,2.0,323.264,M,-17.562,M,0.4,0000*40
1627577648120556635,669,1627577648120273113,gps_frame,$GPGGA,165407.45,4616.69622129,N,11940.88234325,W,4,5,2.0,323.241,M,-17.562,M,0.4,0000*43
1627577648168791853,670,1627577648168636083,gps_frame,$GPGGA,165407.50,4616.69625002,N,11940.88231252,W,4,5,2.0,323.305,M,-17.562,M,0.5,0000*4C
1627577648220706800,671,1627577648220393896,gps_frame,$GPGGA,165407.55,4616.69627518,N,11940.88222287,W,4,5,2.0,323.338,M,-17.562,M,0.5,0000*41
1627577648270149300,672,1627577648269933938,gps_frame,$GPGGA,165407.60,4616.69628959,N,11940.88230648,W,4,5,2.0,323.276,M,-17.562,M,0.6,0000*4D
1627577648320674572,673,1627577648320408105,gps_frame,$GPGGA,165407.65,4616.69630794,N,11940.88226061,W,4,5,2.0,323.248,M,-17.562,M,0.6,0000*49
1627577648369382994,674,1627577648369044065,gps_frame,$GPGGA,165407.70,4616.69634412,N,11940.88225906,W,4,5,2.0,323.278,M,-17.562,M,0.7,0000*4D
1627577648420527025,675,1627577648420279026,gps_frame,$GPGGA,165407.75,4616.69637377,N,11940.88218650,W,4,5,2.0,323.287,M,-17.562,M,0.7,0000*4D
1627577648469910913,676,1627577648469749927,gps_frame,$GPGGA,165407.80,4616.69638574,N,11940.88220604,W,4,5,2.0,323.288,M,-17.562,M,0.8,0000*47
1627577648520752301,677,1627577648520426034,gps_frame,$GPGGA,165407.85,4616.69640418,N,11940.88211637,W,4,5,2.0,323.292,M,-17.562,M,0.8,0000*4F
1627577648568892254,678,1627577648568732023,gps_frame,$GPGGA,165407.90,4616.69642856,N,11940.88219140,W,4,5,2.0,323.312,M,-17.562,M,0.9,0000*48
1627577648620415635,679,1627577648620229005,gps_frame,$GPGGA,165407.95,4616.69645077,N,11940.88214851,W,4,5,2.0,323.326,M,-17.562,M,0.9,0000*42
1627577648676775341,680,1627577648676594018,gps_frame,$GPGGA,165408.00,4616.69647530,N,11940.88212485,W,4,5,2.0,323.298,M,-17.562,M,1.0,0000*4A
1627577648720554695,681,1627577648720320940,gps_frame,$GPGGA,165408.05,4616.69649897,N,11940.88203484,W,4,5,2.0,323.285,M,-17.562,M,1.0,0000*4C
1627577648780091205,682,1627577648780011892,gps_frame,$GPGGA,165408.10,4616.69651130,N,11940.88211935,W,4,5,2.0,323.268,M,-17.562,M,1.1,0000*43
1627577648820599064,683,1627577648820286989,gps_frame,$GPGGA,165408.15,4616.69652778,N,11940.88207526,W,4,5,2.0,323.253,M,-17.562,M,1.1,0000*4E
1627577648871327248,684,1627577648871131896,gps_frame,$GPGGA,165408.20,4616.69659247,N,11940.88206161,W,4,6,1.9,323.289,M,-17.562,M,0.2,0000*40
1627577648920509923,685,1627577648920339107,gps_frame,$GPGGA,165408.25,4616.69663950,N,11940.88198698,W,4,6,1.9,323.307,M,-17.562,M,0.2,0000*43
1627577648969695100,686,1627577648969214916,gps_frame,$GPGGA,165408.30,4616.69662912,N,11940.88204877,W,4,6,1.9,323.254,M,-17.562,M,0.3,0000*4F
1627577649020647500,687,1627577649020468950,gps_frame,$GPGGA,165408.35,4616.69663976,N,11940.88194823,W,4,6,1.9,323.227,M,-17.562,M,0.3,0000*46
1627577649070507281,688,1627577649070266962,gps_frame,$GPGGA,165408.40,4616.69668522,N,11940.88200547,W,4,6,1.9,323.210,M,-17.562,M,0.4,0000*40
1627577649120635395,689,1627577649120397090,gps_frame,$GPGGA,165408.45,4616.69671793,N,11940.88195421,W,4,6,1.9,323.190,M,-17.562,M,0.4,0000*40
1627577649169171646,690,1627577649168828964,gps_frame,$GPGGA,165408.50,4616.69671488,N,11940.88195468,W,4,6,1.9,323.234,M,-17.562,M,0.5,0000*4C
1627577649220419904,691,1627577649220290899,gps_frame,$GPGGA,165408.55,4616.69672492,N,11940.88185854,W,4,6,1.9,323.255,M,-17.562,M,0.5,0000*44
1627577649270950308,692,1627577649270756959,gps_frame,$GPGGA,165408.60,4616.69675876,N,11940.88190390,W,4,6,1.9,323.210,M,-17.562,M,0.6,0000*46
1627577649320537348,693,1627577649320336103,gps_frame,$GPGGA,165408.65,4616.69678389,N,11940.88185639,W,4,6,1.9,323.189,M,-17.562,M,0.6,0000*44
1627577649368968379,694,1627577649368763923,gps_frame,$GPGGA,165408.70,4616.69682073,N,11940.88185201,W,4,6,1.9,323.260,M,-17.562,M,0.7,0000*49
1627577649420742689,695,1627577649420459032,gps_frame,$GPGGA,165408.75,4616.69685328,N,11940.88177108,W,4,6,1.9,323.297,M,-17.562,M,0.7,0000*49
1627577649469978131,696,1627577649469769001,gps_frame,$GPGGA,165408.80,4616.69686092,N,11940.88182492,W,4,6,1.9,323.276,M,-17.562,M,0.8,0000*4E
1627577649520582938,697,1627577649520355939,gps_frame,$GPGGA,165408.85,4616.69687768,N,11940.88174362,W,4,6,1.9,323.277,M,-17.562,M,0.8,0000*48
1627577649569060280,698,1627577649568829059,gps_frame,$GPGGA,165408.90,4616.69693402,N,11940.88176230,W,4,6,1.9,323.262,M,-17.562,M,0.9,0000*47
1627577649620708363,699,1627577649620373010,gps_frame,$GPGGA,165408.95,4616.69697587,N,11940.88168873,W,4,6,1.9,323.254,M,-17.562,M,0.9,0000*4D
1627577649676902940,700,1627577649676747083,gps_frame,$GPGGA,165409.00,4616.69697949,N,11940.88174096,W,4,6,1.9,323.242,M,-17.562,M,1.0,0000*4F
1627577649720676810,701,1627577649720417976,gps_frame,$GPGGA,165409.05,4616.69699710,N,11940.88164592,W,4,6,1.9,323.232,M,-17.562,M,1.0,0000*41
1627577649779701048,702,1627577649779582977,gps_frame,$GPGGA,165409.10,4616.69704392,N,11940.88170402,W,4,6,1.9,323.260,M,-17.562,M,1.1,0000*45
1627577649820703488,703,1627577649820394992,gps_frame,$GPGGA,165409.15,4616.69708004,N,11940.88164312,W,4,6,1.9,323.274,M,-17.562,M,1.1,0000*46
1627577649871199597,704,1627577649871015071,gps_frame,$GPGGA,165409.20,4616.69708415,N,11940.88165577,W,4,6,1.9,323.233,M,-17.562,M,0.2,0000*41
1627577649920442551,705,1627577649920241117,gps_frame,$GPGGA,165409.25,4616.69709999,N,11940.88155228,W,4,6,1.9,323.213,M,-17.562,M,0.2,0000*40
1627577649968880356,706,1627577649968713045,gps_frame,$GPGGA,165409.30,4616.69713832,N,11940.88157570,W,4,6,1.9,323.242,M,-17.562,M,0.3,0000*42
1627577650020668343,707,1627577650020382881,gps_frame,$GPGGA,165409.35,4616.69716841,N,11940.88149696,W,4,6,1.9,323.253,M,-17.562,M,0.3,0000*42
1627577650070395398,708,1627577650070194959,gps_frame,$GPGGA,165409.40,4616.69719560,N,11940.88152804,W,4,6,1.9,323.240,M,-17.562,M,0.4,0000*4B
1627577650120653712,709,1627577650120352983,gps_frame,$GPGGA,165409.45,4616.69722384,N,11940.88144392,W,4,6,1.9,323.235,M,-17.562,M,0.4,0000*4B
1627577650169053123,710,1627577650168780088,gps_frame,$GPGGA,165409.50,4616.69725229,N,11940.88146611,W,4,6,1.9,323.191,M,-17.562,M,0.5,0000*4E
1627577650220598992,711,1627577650220365047,gps_frame,$GPGGA,165409.55,4616.69728066,N,11940.88137008,W,4,6,1.9,323.162,M,-17.562,M,0.5,0000*4B
1627577650270429372,712,1627577650270087957,gps_frame,$GPGGA,165409.60,4616.69731523,N,11940.88143301,W,4,6,1.9,323.223,M,-17.562,M,0.6,0000*4D
1627577650320638940,713,1627577650320369958,gps_frame,$GPGGA,165409.65,4616.69734753,N,11940.88135925,W,4,6,1.9,323.250,M,-17.562,M,0.6,0000*41
1627577650369090136,714,1627577650368923902,gps_frame,$GPGGA,165409.70,4616.69736114,N,11940.88139163,W,4,6,1.9,323.206,M,-17.562,M,0.7,0000*46
1627577650420627094,715,1627577650420341968,gps_frame,$GPGGA,165409.75,4616.69738160,N,11940.88129799,W,4,6,1.9,323.188,M,-17.562,M,0.7,0000*49
1627577650470223511,716,1627577650470032930,gps_frame,$GPGGA,165409.80,4616.69742793,N,11940.88133970,W,4,6,1.9,323.214,M,-17.562,M,0.8,0000*4F
1627577650520793762,717,1627577650520555019,gps_frame,$GPGGA,165409.85,4616.69746479,N,11940.88126830,W,4,6,1.9,323.225,M,-17.562,M,0.8,0000*4A
1627577650568981864,718,1627577650568747043,gps_frame,$GPGGA,165409.90,4616.69749156,N,11940.88128125,W,4,6,1.9,323.229,M,-17.562,M,0.9,0000*47
1627577650620637560,719,1627577650620383024,gps_frame,$GPGGA,165409.95,4616.69752202,N,11940.88117084,W,4,6,1.9,323.235,M,-17.562,M,0.9,0000*41
1627577650676689291,720,1627577650676589012,gps_frame,$GPGGA,165410.00,4616.69754050,N,11940.88125527,W,4,6,1.9,323.227,M,-17.562,M,1.0,0000*40
1627577650720871468,721,1627577650720536947,gps_frame,$GPGGA,165410.05,4616.69756337,N,11940.88118027,W,4,6,1.9,323.225,M,-17.562,M,1.0,0000*4C
1627577650780487710,722,1627577650780297994,gps_frame,$GPGGA,165410.10,4616.69760313,N,11940.88119676,W,4,6,1.9,323.192,M,-17.562,M,1.1,0000*46
1627577650820400283,723,1627577650820221900,gps_frame,$GPGGA,165410.15,4616.69763671,N,11940.88111199,W,4,6,1.9,323.169,M,-17.562,M,1.1,0000*4B
1627577650871261551,724,1627577650870935916,gps_frame,$GPGGA,165410.20,4616.69766875,N,11940.88114809,W,4,6,1.9,323.226,M,-17.562,M,0.2,0000*4D
1627577650920628290,725,1627577650920315027,gps_frame,$GPGGA,165410.25,4616.69770135,N,11940.88105323,W,4,6,1.9,323.254,M,-17.562,M,0.2,0000*44
1627577650969352000,726,1627577650969126939,gps_frame,$GPGGA,165410.30,4616.69772546,N,11940.88109042,W,4,6,1.9,323.207,M,-17.562,M,0.3,0000*4D
1627577651020555649,727,1627577651020390033,gps_frame,$GPGGA,165410.35,4616.69775268,N,11940.88098841,W,4,6,1.9,323.188,M,-17.562,M,0.3,0000*42
1627577651070253878,728,1627577651070018053,gps_frame,$GPGGA,165410.40,4616.69780311,N,11940.88102100,W,4,6,1.9,323.214,M,-17.562,M,0.4,0000*4A
1627577651120434945,729,1627577651120196104,gps_frame,$GPGGA,165410.45,4616.69784503,N,11940.88092579,W,4,6,1.9,323.224,M,-17.562,M,0.4,0000*4F
1627577651168990592,730,1627577651168768882,gps_frame,$GPGGA,165410.50,4616.69783968,N,11940.88097157,W,4,6,1.9,323.201,M,-17.562,M,0.5,0000*46
1627577651220441213,731,1627577651220232963,gps_frame,$GPGGA,165410.55,4616.69785163,N,11940.88085822,W,4,6,1.9,323.190,M,-17.562,M,0.5,0000*45
1627577651271212193,732,1627577651270900964,gps_frame,$GPGGA,165410.60,4616.69790715,N,11940.88093857,W,4,6,1.9,323.190,M,-17.562,M,0.6,0000*46
1627577651320395150,733,1627577651320204973,gps_frame,$GPGGA,165410.65,4616.69794672,N,11940.88089737,W,4,6,1.9,323.186,M,-17.562,M,0.6,0000*42
1627577651370327633,734,1627577651369946956,gps_frame,$GPGGA,165410.70,4616.69796922,N,11940.88086834,W,4,6,1.9,323.227,M,-17.562,M,0.7,0000*44
1627577651420717633,735,1627577651420449972,gps_frame,$GPGGA,165410.75,4616.69799797,N,11940.88074143,W,4,6,1.9,323.252,M,-17.562,M,0.7,0000*48
1627577651470254550,736,1627577651469979047,gps_frame,$GPGGA,165410.80,4616.69804622,N,11940.88081037,W,4,6,1.9,323.223,M,-17.562,M,0.8,0000*47
1627577651521095287,737,1627577651520904064,gps_frame,$GPGGA,165410.85,4616.69808733,N,11940.88072167,W,4,6,1.9,323.214,M,-17.562,M,0.8,0000*43
1627577651568987260,738,1627577651568802118,gps_frame,$GPGGA,165410.90,4616.69810204,N,11940.88077620,W,4,6,1.9,323.178,M,-17.562,M,0.9,0000*46
1627577651620293193,739,1627577651620151042,gps_frame,$GPGGA,165410.95,4616.69812642,N,11940.88067169,W,4,6,1.9,323.153,M,-17.562,M,0.9,0000*45
1627577651677219063,740,1627577651676985979,gps_frame,$GPGGA,165411.00,4616.69815561,N,11940.88073107,W,4,6,1.9,323.204,M,-17.562,M,1.0,0000*49
1627577651720546308,741,1627577651720341920,gps_frame,$GPGGA,165411.05,4616.69818304,N,11940.88065315,W,4,6,1.9,323.227,M,-17.562,M,1.0,0000*43
1627577651780018682,742,1627577651779891967,gps_frame,$GPGGA,165411.10,4616.69823513,N,11940.88066657,W,4,6,1.9,323.178,M,-17.562,M,1.1,0000*47
1627577651820644737,743,1627577651820348978,gps_frame,$GPGGA,165411.15,4616.69827820,N,11940.88057237,W,4,6,1.9,323.156,M,-17.562,M,1.1,0000*47
1627577651872133761,744,1627577651871892929,gps_frame,$GPGGA,165411.20,4616.69830218,N,11940.88061908,W,4,6,1.9,323.179,M,-17.562,M,0.2,0000*4B
1627577651920471207,745,1627577651920315980,gps_frame,$GPGGA,165411.25,4616.69833315,N,11940.88050410,W,4,6,1.9,323.186,M,-17.562,M,0.2,0000*47
1627577651969635624,746,1627577651969321966,gps_frame,$GPGGA,165411.30,4616.69837593,N,11940.88057077,W,4,6,1.9,323.189,M,-17.562,M,0.3,0000*43
1627577652020651735,747,1627577652020454883,gps_frame,$GPGGA,165411.35,4616.69841439,N,11940.88047811,W,4,6,1.9,323.194,M,-17.562,M,0.3,0000*43
1627577652070579078,748,1627577652070270061,gps_frame,$GPGGA,165411.40,4616.69841637,N,11940.88050807,W,4,6,1.9,323.148,M,-17.562,M,0.4,0000*4A
1627577652120395607,749,1627577652120198011,gps_frame,$GPGGA,165411.45,4616.69843170,N,11940.88039102,W,4,6,1.9,323.121,M,-17.562,M,0.4,0000*45
1627577652168904598,750,1627577652168747901,gps_frame,$GPGGA,165411.50,4616.69850167,N,11940.88044357,W,4,6,1.9,323.150,M,-17.562,M,0.5,0000*4A
1627577652220619151,751,1627577652220319986,gps_frame,$GPGGA,165411.55,4616.69855164,N,11940.88037804,W,4,6,1.9,323.159,M,-17.562,M,0.5,0000*49
1627577652270482353,752,1627577652270231008,gps_frame,$GPGGA,165411.60,4616.69855576,N,11940.88041717,W,4,6,1.9,323.161,M,-17.562,M,0.6,0000*4C
1627577652320677821,753,1627577652320461988,gps_frame,$GPGGA,165411.65,4616.69857667,N,11940.88029986,W,4,6,1.9,323.165,M,-17.562,M,0.6,0000*44
1627577652369396614,754,1627577652369100093,gps_frame,$GPGGA,165411.70,4616.69862198,N,11940.88033443,W,4,6,1.9,323.196,M,-17.562,M,0.7,0000*43
1627577652420453918,755,1627577652420269012,gps_frame,$GPGGA,165411.75,4616.69865836,N,11940.88023851,W,4,6,1.9,323.217,M,-17.562,M,0.7,0000*48
1627577652470705789,756,1627577652470396995,gps_frame,$GPGGA,165411.80,4616.69870108,N,11940.88030900,W,4,6,1.9,323.173,M,-17.562,M,0.8,0000*4B
