%time,field.header.seq,field.header.stamp,field.header.frame_id,field.sentence
1627578111469691857,9936,1627578111469502925,gps_frame,$GPGGA,170150.80,4616.74025579,N,11940.88584946,W,4,8,1.1,323.806,M,-17.561,M,0.8,0000*4F
1627578111519777573,9937,1627578111519614934,gps_frame,$GPGGA,170150.85,4616.74018672,N,11940.88602213,W,4,8,1.1,323.806,M,-17.561,M,0.8,0000*4A
1627578111568529104,9938,1627578111568346977,gps_frame,$GPGGA,170150.90,4616.74011103,N,11940.88580561,W,4,8,1.1,323.809,M,-17.561,M,0.9,0000*43
1627578111619704735,9939,1627578111619570970,gps_frame,$GPGGA,170150.95,4616.74003776,N,11940.88592211,W,4,8,1.1,323.811,M,-17.561,M,0.9,0000*4B
1627578111676682326,9940,1627578111676523923,gps_frame,$GPGGA,170151.00,4616.73997555,N,11940.88587093,W,4,8,1.1,323.803,M,-17.561,M,1.0,0000*41
1627578111719698998,9941,1627578111719531059,gps_frame,$GPGGA,170151.05,4616.73990930,N,11940.88608158,W,4,8,1.1,323.798,M,-17.561,M,1.0,0000*43
1627578111780306340,9942,1627578111780133008,gps_frame,$GPGGA,170151.10,4616.73981597,N,11940.88585819,W,4,8,1.1,323.820,M,-17.561,M,1.1,0000*41
1627578111819700900,9943,1627578111819555997,gps_frame,$GPGGA,170151.15,4616.73973255,N,11940.88598128,W,4,8,1.1,323.832,M,-17.561,M,1.1,0000*44
1627578111870719648,9944,1627578111870548963,gps_frame,$GPGGA,170151.20,4616.73969823,N,11940.88587744,W,4,8,1.1,323.794,M,-17.561,M,0.2,0000*41
1627578111919815778,9945,1627578111919625043,gps_frame,$GPGGA,170151.25,4616.73964594,N,11940.88607764,W,4,8,1.1,323.774,M,-17.561,M,0.2,0000*4F
1627578111968653733,9946,1627578111968501091,gps_frame,$GPGGA,170151.30,4616.73952759,N,11940.88589797,W,4,8,1.1,323.823,M,-17.561,M,0.3,0000*48
1627578112019806388,9947,1627578112019624948,gps_frame,$GPGGA,170151.35,4616.73943342,N,11940.88602038,W,4,8,1.1,323.847,M,-17.561,M,0.3,0000*43
1627578112069915135,9948,1627578112069736003,gps_frame,$GPGGA,170151.40,4616.73941352,N,11940.88588155,W,4,8,1.1,323.823,M,-17.561,M,0.4,0000*4C
1627578112119793952,9949,1627578112119610071,gps_frame,$GPGGA,170151.45,4616.73936644,N,11940.88607464,W,4,8,1.1,323.817,M,-17.561,M,0.4,0000*4F
1627578112168651678,9950,1627578112168315887,gps_frame,$GPGGA,170151.50,4616.73924392,N,11940.88590367,W,4,8,1.1,323.831,M,-17.561,M,0.5,0000*4A
1627578112219787501,9951,1627578112219608068,gps_frame,$GPGGA,170151.55,4616.73914901,N,11940.88602391,W,4,8,1.1,323.838,M,-17.561,M,0.5,0000*44
1627578112269766661,9952,1627578112269608974,gps_frame,$GPGGA,170151.60,4616.73909830,N,11940.88589705,W,4,8,1.1,323.828,M,-17.561,M,0.6,0000*46
1627578112319741047,9953,1627578112319586038,gps_frame,$GPGGA,170151.65,4616.73903141,N,11940.88609549,W,4,8,1.1,323.824,M,-17.561,M,0.6,0000*4B
1627578112368708726,9954,1627578112368551015,gps_frame,$GPGGA,170151.70,4616.73897982,N,11940.88590781,W,4,8,1.1,323.814,M,-17.561,M,0.7,0000*43
1627578112419767055,9955,1627578112419616937,gps_frame,$GPGGA,170151.75,4616.73892263,N,11940.88606311,W,4,8,1.1,323.806,M,-17.561,M,0.7,0000*45
1627578112469608446,9956,1627578112469481945,gps_frame,$GPGGA,170151.80,4616.73881091,N,11940.88593663,W,4,8,1.1,323.824,M,-17.561,M,0.8,0000*42
1627578112519740139,9957,1627578112519612073,gps_frame,$GPGGA,170151.85,4616.73871915,N,11940.88607736,W,4,8,1.1,323.833,M,-17.561,M,0.8,0000*44
1627578112568331271,9958,1627578112568208932,gps_frame,$GPGGA,170151.90,4616.73867183,N,11940.88594694,W,4,8,1.1,323.824,M,-17.561,M,0.9,0000*47
1627578112619727661,9959,1627578112619587898,gps_frame,$GPGGA,170151.95,4616.73860824,N,11940.88614966,W,4,8,1.1,323.821,M,-17.561,M,0.9,0000*4D
1627578112676713656,9960,1627578112676497936,gps_frame,$GPGGA,170152.00,4616.73853976,N,11940.88596192,W,4,8,1.1,323.820,M,-17.561,M,1.0,0000*47
1627578112719726533,9961,1627578112719554901,gps_frame,$GPGGA,170152.05,4616.73847307,N,11940.88610970,W,4,8,1.1,323.818,M,-17.561,M,1.0,0000*49
1627578112780021665,9962,1627578112779875040,gps_frame,$GPGGA,170152.10,4616.73838353,N,11940.88596869,W,4,8,1.1,323.824,M,-17.561,M,1.1,0000*4E
1627578112819708496,9963,1627578112819566965,gps_frame,$GPGGA,170152.15,4616.73830236,N,11940.88611626,W,4,8,1.1,323.826,M,-17.561,M,1.1,0000*4A
1627578112870664883,9964,1627578112870546102,gps_frame,$GPGGA,170152.20,4616.73821862,N,11940.88596605,W,4,8,1.1,323.860,M,-17.561,M,0.2,0000*4A
1627578112919707622,9965,1627578112919548034,gps_frame,$GPGGA,170152.25,4616.73813581,N,11940.88614117,W,4,8,1.1,323.882,M,-17.561,M,0.2,0000*4F
1627578112968646482,9966,1627578112968498945,gps_frame,$GPGGA,170152.30,4616.73811921,N,11940.88598111,W,4,8,1.1,323.835,M,-17.561,M,0.3,0000*43
1627578113019755827,9967,1627578113019598960,gps_frame,$GPGGA,170152.35,4616.73807838,N,11940.88617211,W,4,8,1.1,323.814,M,-17.561,M,0.3,0000*4C
1627578113069655688,9968,1627578113069494962,gps_frame,$GPGGA,170152.40,4616.73793126,N,11940.88599293,W,4,8,1.1,323.856,M,-17.561,M,0.4,0000*44
1627578113119729610,9969,1627578113119575977,gps_frame,$GPGGA,170152.45,4616.73782306,N,11940.88608691,W,4,8,1.1,323.874,M,-17.561,M,0.4,0000*4C
1627578113168548854,9970,1627578113168353080,gps_frame,$GPGGA,170152.50,4616.73780014,N,11940.88601583,W,4,8,1.1,323.853,M,-17.561,M,0.5,0000*47
1627578113219732428,9971,1627578113219578981,gps_frame,$GPGGA,170152.55,4616.73774599,N,11940.88626542,W,4,8,1.1,323.846,M,-17.561,M,0.5,0000*45
1627578113270657701,9972,1627578113270493030,gps_frame,$GPGGA,170152.60,4616.73766308,N,11940.88603576,W,4,8,1.1,323.857,M,-17.561,M,0.6,0000*4D
1627578113319814604,9973,1627578113319616079,gps_frame,$GPGGA,170152.65,4616.73759070,N,11940.88616310,W,4,8,1.1,323.861,M,-17.561,M,0.6,0000*4F
1627578113368888509,9974,1627578113368613958,gps_frame,$GPGGA,170152.70,4616.73749575,N,11940.88604300,W,4,8,1.1,323.859,M,-17.561,M,0.7,0000*42
1627578113419698358,9975,1627578113419548034,gps_frame,$GPGGA,170152.75,4616.73740907,N,11940.88620325,W,4,8,1.1,323.859,M,-17.561,M,0.7,0000*46
1627578113469614986,9976,1627578113469489097,gps_frame,$GPGGA,170152.80,4616.73735420,N,11940.88605731,W,4,8,1.1,323.856,M,-17.561,M,0.8,0000*40
1627578113519770809,9977,1627578113519609928,gps_frame,$GPGGA,170152.85,4616.73728768,N,11940.88625515,W,4,8,1.1,323.854,M,-17.561,M,0.8,0000*42
1627578113568491375,9978,1627578113568331956,gps_frame,$GPGGA,170152.90,4616.73721892,N,11940.88606722,W,4,8,1.1,323.852,M,-17.561,M,0.9,0000*45
1627578113619770050,9979,1627578113619602918,gps_frame,$GPGGA,170152.95,4616.73715098,N,11940.88621652,W,4,8,1.1,323.850,M,-17.561,M,0.9,0000*44
1627578113676696634,9980,1627578113676542043,gps_frame,$GPGGA,170153.00,4616.73705937,N,11940.88608006,W,4,8,1.1,323.856,M,-17.561,M,1.0,0000*46
1627578113719755771,9981,1627578113719603061,gps_frame,$GPGGA,170153.05,4616.73697642,N,11940.88623552,W,4,8,1.1,323.859,M,-17.561,M,1.0,0000*46
1627578113780253099,9982,1627578113780023097,gps_frame,$GPGGA,170153.10,4616.73692035,N,11940.88610962,W,4,8,1.1,323.860,M,-17.561,M,1.1,0000*45
1627578113819734582,9983,1627578113819590091,gps_frame,$GPGGA,170153.15,4616.73685445,N,11940.88630764,W,4,8,1.1,323.861,M,-17.561,M,1.1,0000*4E
1627578113870723609,9984,1627578113870548009,gps_frame,$GPGGA,170153.20,4616.73677450,N,11940.88611596,W,4,8,1.1,323.852,M,-17.561,M,0.2,0000*4F
1627578113919833254,9985,1627578113919653892,gps_frame,$GPGGA,170153.25,4616.73669970,N,11940.88625943,W,4,8,1.1,323.847,M,-17.561,M,0.2,0000*4D
1627578113968658651,9986,1627578113968482017,gps_frame,$GPGGA,170153.30,4616.73660479,N,11940.88614470,W,4,8,1.1,323.857,M,-17.561,M,0.3,0000*4B
1627578114019802060,9987,1627578114019610881,gps_frame,$GPGGA,170153.35,4616.73651724,N,11940.88632645,W,4,8,1.1,323.861,M,-17.561,M,0.3,0000*42
1627578114069923969,9988,1627578114069732904,gps_frame,$GPGGA,170153.40,4616.73648969,N,11940.88615415,W,4,8,1.1,323.840,M,-17.561,M,0.4,0000*49
1627578114119745594,9989,1627578114119561910,gps_frame,$GPGGA,170153.45,4616.73644017,N,11940.88634646,W,4,8,1.1,323.828,M,-17.561,M,0.4,0000*49
1627578114168630626,9990,1627578114168371915,gps_frame,$GPGGA,170153.50,4616.73630510,N,11940.88615790,W,4,8,1.1,323.868,M,-17.561,M,0.5,0000*40
1627578114219729969,9991,1627578114219559907,gps_frame,$GPGGA,170153.55,4616.73620135,N,11940.88626814,W,4,8,1.1,323.889,M,-17.561,M,0.5,0000*4B
1627578114269871719,9992,1627578114269690990,gps_frame,$GPGGA,170153.60,4616.73617038,N,11940.88618523,W,4,8,1.1,323.862,M,-17.561,M,0.6,0000*47
1627578114319760986,9993,1627578114319576025,gps_frame,$GPGGA,170153.65,4616.73611277,N,11940.88642861,W,4,8,1.1,323.853,M,-17.561,M,0.6,0000*4B
1627578114368940963,9994,1627578114368769884,gps_frame,$GPGGA,170153.70,4616.73602558,N,11940.88618304,W,4,8,1.1,323.844,M,-17.561,M,0.7,0000*47
1627578114419779854,9995,1627578114419596910,gps_frame,$GPGGA,170153.75,4616.73594922,N,11940.88630299,W,4,8,1.1,323.835,M,-17.561,M,0.7,0000*46
1627578114469650070,9996,1627578114469497919,gps_frame,$GPGGA,170153.80,4616.73587675,N,11940.88622453,W,4,8,1.1,323.844,M,-17.561,M,0.8,0000*49
1627578114519906857,9997,1627578114519692897,gps_frame,$GPGGA,170153.85,4616.73580286,N,11940.88641920,W,4,8,1.1,323.847,M,-17.561,M,0.8,0000*4C
1627578114568511695,9998,1627578114568344116,gps_frame,$GPGGA,170153.90,4616.73569811,N,11940.88623620,W,4,8,1.1,323.873,M,-17.561,M,0.9,0000*46
1627578114619748265,9999,1627578114619597911,gps_frame,$GPGGA,170153.95,4616.73560465,N,11940.88639753,W,4,8,1.1,323.891,M,-17.561,M,0.9,0000*47
1627578114676623791,10000,1627578114676486015,gps_frame,$GPGGA,170154.00,4616.73559975,N,11940.88627613,W,4,8,1.1,323.839,M,-17.561,M,1.0,0000*4A
1627578114719834742,10001,1627578114719624042,gps_frame,$GPGGA,170154.05,4616.73556243,N,11940.88650559,W,4,8,1.1,323.813,M,-17.561,M,1.0,0000*4B
1627578114780239398,10002,1627578114779922962,gps_frame,$GPGGA,170154.10,4616.73541934,N,11940.88627472,W,4,8,1.1,323.847,M,-17.561,M,1.1,0000*4A
1627578114819752113,10003,1627578114819588899,gps_frame,$GPGGA,170154.15,4616.73531497,N,11940.88634855,W,4,8,1.1,323.860,M,-17.561,M,1.1,0000*42
1627578114870675093,10004,1627578114870522975,gps_frame,$GPGGA,170154.20,4616.73525304,N,11940.88627141,W,4,8,1.1,323.873,M,-17.561,M,0.2,0000*42
1627578114919802430,10005,1627578114919627904,gps_frame,$GPGGA,170154.25,4616.73517557,N,11940.88649933,W,4,8,1.1,323.886,M,-17.561,M,0.2,0000*49
1627578114968661451,10006,1627578114968466997,gps_frame,$GPGGA,170154.30,4616.73515451,N,11940.88631202,W,4,8,1.1,323.857,M,-17.561,M,0.3,0000*43
1627578115019971293,10007,1627578115019711971,gps_frame,$GPGGA,170154.35,4616.73511280,N,11940.88650699,W,4,8,1.1,323.844,M,-17.561,M,0.3,0000*4B
1627578115070209968,10008,1627578115069818019,gps_frame,$GPGGA,170154.40,4616.73494681,N,11940.88630326,W,4,8,1.1,323.864,M,-17.561,M,0.4,0000*42
1627578115119837940,10009,1627578115119607925,gps_frame,$GPGGA,170154.45,4616.73482632,N,11940.88638191,W,4,8,1.1,323.871,M,-17.561,M,0.4,0000*4A
1627578115168358566,10010,1627578115168193101,gps_frame,$GPGGA,170154.50,4616.73483249,N,11940.88635913,W,4,8,1.1,323.842,M,-17.561,M,0.5,0000*49
1627578115219726682,10011,1627578115219593048,gps_frame,$GPGGA,170154.55,4616.73479229,N,11940.88666108,W,4,8,1.1,323.826,M,-17.561,M,0.5,0000*49
1627578115270673723,10012,1627578115270484924,gps_frame,$GPGGA,170154.60,4616.73466725,N,11940.88638012,W,4,8,1.1,323.861,M,-17.561,M,0.6,0000*49
1627578115319754122,10013,1627578115319572925,gps_frame,$GPGGA,170154.65,4616.73457327,N,11940.88647085,W,4,8,1.1,323.877,M,-17.561,M,0.6,0000*49
1627578115369380780,10014,1627578115369180917,gps_frame,$GPGGA,170154.70,4616.73451558,N,11940.88639030,W,4,8,1.1,323.854,M,-17.561,M,0.7,0000*42
1627578115419696061,10015,1627578115419557094,gps_frame,$GPGGA,170154.75,4616.73444461,N,11940.88660125,W,4,8,1.1,323.846,M,-17.561,M,0.7,0000*42
1627578115469667621,10016,1627578115469507932,gps_frame,$GPGGA,170154.80,4616.73438025,N,11940.88640838,W,4,8,1.1,323.846,M,-17.561,M,0.8,0000*4F
1627578115519733993,10017,1627578115519603967,gps_frame,$GPGGA,170154.85,4616.73431348,N,11940.88657334,W,4,8,1.1,323.843,M,-17.561,M,0.8,0000*4F
1627578115568694432,10018,1627578115568397045,gps_frame,$GPGGA,170154.90,4616.73421333,N,11940.88642128,W,4,8,1.1,323.858,M,-17.561,M,0.9,0000*46
1627578115619693269,10019,1627578115619568109,gps_frame,$GPGGA,170154.95,4616.73412541,N,11940.88657265,W,4,8,1.1,323.866,M,-17.561,M,0.9,0000*43
1627578115676752818,10020,1627578115676584005,gps_frame,$GPGGA,170155.00,4616.73407177,N,11940.88645567,W,4,8,1.1,323.852,M,-17.561,M,1.0,0000*42
1627578115719746586,10021,1627578115719588994,gps_frame,$GPGGA,170155.05,4616.73400558,N,11940.88666806,W,4,8,1.1,323.846,M,-17.561,M,1.0,0000*47
1627578115780659354,10022,1627578115780436038,gps_frame,$GPGGA,170155.10,4616.73391727,N,11940.88648335,W,4,8,1.1,323.854,M,-17.561,M,1.1,0000*43
1627578115819664016,10023,1627578115819574117,gps_frame,$GPGGA,170155.15,4616.73383706,N,11940.88664002,W,4,8,1.1,323.857,M,-17.561,M,1.1,0000*4C
1627578115870691589,10024,1627578115870527982,gps_frame,$GPGGA,170155.20,4616.73375441,N,11940.88649580,W,4,8,1.1,323.857,M,-17.561,M,0.2,0000*41
1627578115919705615,10025,1627578115919574975,gps_frame,$GPGGA,170155.25,4616.73367266,N,11940.88667564,W,4,8,1.1,323.859,M,-17.561,M,0.2,0000*4C
1627578115968660738,10026,1627578115968477964,gps_frame,$GPGGA,170155.30,4616.73360820,N,11940.88653281,W,4,8,1.1,323.865,M,-17.561,M,0.3,0000*42
1627578116019882672,10027,1627578116019660949,gps_frame,$GPGGA,170155.35,4616.73353741,N,11940.88673360,W,4,8,1.1,323.869,M,-17.561,M,0.3,0000*4F
1627578116069835178,10028,1627578116069677114,gps_frame,$GPGGA,170155.40,4616.73345809,N,11940.88654002,W,4,8,1.1,323.845,M,-17.561,M,0.4,0000*42
1627578116119740192,10029,1627578116119584083,gps_frame,$GPGGA,170155.45,4616.73338190,N,11940.88669327,W,4,8,1.1,323.831,M,-17.561,M,0.4,0000*4D
1627578116168452217,10030,1627578116168229103,gps_frame,$GPGGA,170155.50,4616.73328532,N,11940.88653743,W,4,8,1.1,323.872,M,-17.561,M,0.5,0000*4D
1627578116219854471,10031,1627578116219610929,gps_frame,$GPGGA,170155.55,4616.73319621,N,11940.88670258,W,4,8,1.1,323.893,M,-17.561,M,0.5,0000*4A
1627578116269750381,10032,1627578116269630908,gps_frame,$GPGGA,170155.60,4616.73316242,N,11940.88658316,W,4,8,1.1,323.864,M,-17.561,M,0.6,0000*48
1627578116319687510,10033,1627578116319531917,gps_frame,$GPGGA,170155.65,4616.73310838,N,11940.88680714,W,4,8,1.1,323.854,M,-17.561,M,0.6,0000*4C
1627578116368760348,10034,1627578116368566036,gps_frame,$GPGGA,170155.70,4616.73298021,N,11940.88657687,W,4,8,1.1,323.870,M,-17.561,M,0.7,0000*4F
1627578116419855282,10035,1627578116419622898,gps_frame,$GPGGA,170155.75,4616.73287917,N,11940.88668305,W,4,8,1.1,323.876,M,-17.561,M,0.7,0000*4D
1627578116469661603,10036,1627578116469500064,gps_frame,$GPGGA,170155.80,4616.73284329,N,11940.88662051,W,4,8,1.1,323.875,M,-17.561,M,0.8,0000*47
1627578116519768784,10037,1627578116519602060,gps_frame,$GPGGA,170155.85,4616.73278356,N,11940.88687204,W,4,8,1.1,323.877,M,-17.561,M,0.8,0000*42
1627578116568530502,10038,1627578116568274021,gps_frame,$GPGGA,170155.90,4616.73268074,N,11940.88660712,W,4,8,1.1,323.873,M,-17.561,M,0.9,0000*4A
1627578116619789375,10039,1627578116619577884,gps_frame,$GPGGA,170155.95,4616.73259370,N,11940.88672084,W,4,8,1.1,323.870,M,-17.561,M,0.9,0000*42
1627578116676722888,10040,1627578116676506996,gps_frame,$GPGGA,170156.00,4616.73254719,N,11940.88665006,W,4,8,1.1,323.862,M,-17.561,M,1.0,0000*4C
1627578116719759649,10041,1627578116719572067,gps_frame,$GPGGA,170156.05,4616.73248584,N,11940.88687190,W,4,8,1.1,323.856,M,-17.561,M,1.0,0000*47
1627578116780043701,10042,1627578116779850959,gps_frame,$GPGGA,170156.10,4616.73238318,N,11940.88665696,W,4,8,1.1,323.869,M,-17.561,M,1.1,0000*47
1627578116819741739,10043,1627578116819566965,gps_frame,$GPGGA,170156.15,4616.73229564,N,11940.88678684,W,4,8,1.1,323.874,M,-17.561,M,1.1,0000*4C
1627578116870708660,10044,1627578116870521068,gps_frame,$GPGGA,170156.20,4616.73219796,N,11940.88667375,W,4,8,1.1,323.887,M,-17.561,M,0.2,0000*4D
1627578116919731020,10045,1627578116919579982,gps_frame,$GPGGA,170156.25,4616.73210400,N,11940.88687671,W,4,8,1.1,323.898,M,-17.561,M,0.2,0000*4C
1627578116968659972,10046,1627578116968470096,gps_frame,$GPGGA,170156.30,4616.73209018,N,11940.88672180,W,4,8,1.1,323.850,M,-17.561,M,0.3,0000*4B
1627578117019807570,10047,1627578117019618034,gps_frame,$GPGGA,170156.35,4616.73204702,N,11940.88695435,W,4,8,1.1,323.823,M,-17.561,M,0.3,0000*49
1627578117070034861,10048,1627578117069888114,gps_frame,$GPGGA,170156.40,4616.73190085,N,11940.88670568,W,4,8,1.1,323.877,M,-17.561,M,0.4,0000*49
1627578117119762040,10049,1627578117119575977,gps_frame,$GPGGA,170156.45,4616.73179239,N,11940.88678241,W,4,8,1.1,323.901,M,-17.561,M,0.4,0000*4A
1627578117168387196,10050,1627578117168186902,gps_frame,$GPGGA,170156.50,4616.73174903,N,11940.88673344,W,4,8,1.1,323.895,M,-17.561,M,0.5,0000*43
1627578117219767219,10051,1627578117219568014,gps_frame,$GPGGA,170156.55,4616.73168184,N,11940.88699264,W,4,8,1.1,323.900,M,-17.561,M,0.5,0000*46
1627578117271680745,10052,1627578117271527051,gps_frame,$GPGGA,170156.60,4616.73160935,N,11940.88677027,W,4,8,1.1,323.896,M,-17.561,M,0.6,0000*42
1627578117319724264,10053,1627578117319560050,gps_frame,$GPGGA,170156.65,4616.73153881,N,11940.88693441,W,4,8,1.1,323.895,M,-17.561,M,0.6,0000*44
1627578117368639573,10054,1627578117368496894,gps_frame,$GPGGA,170156.70,4616.73145223,N,11940.88676580,W,4,8,1.1,323.877,M,-17.561,M,0.7,0000*4F
1627578117419722114,10055,1627578117419558048,gps_frame,$GPGGA,170156.75,4616.73137153,N,11940.88691240,W,4,8,1.1,323.866,M,-17.561,M,0.7,0000*49
1627578117469644284,10056,1627578117469485044,gps_frame,$GPGGA,170156.80,4616.73128087,N,11940.88679380,W,4,8,1.1,323.887,M,-17.561,M,0.8,0000*4E
1627578117519747681,10057,1627578117519612073,gps_frame,$GPGGA,170156.85,4616.73119386,N,11940.88698985,W,4,8,1.1,323.897,M,-17.561,M,0.8,0000*4A
1627578117568422409,10058,1627578117568284034,gps_frame,$GPGGA,170156.90,4616.73115535,N,11940.88682184,W,4,8,1.1,323.872,M,-17.561,M,0.9,0000*44
1627578117619760778,10059,1627578117619597911,gps_frame,$GPGGA,170156.95,4616.73109909,N,11940.88702436,W,4,8,1.1,323.860,M,-17.561,M,0.9,0000*49
1627578117676698112,10060,1627578117676543951,gps_frame,$GPGGA,170157.00,4616.73098311,N,11940.88682261,W,4,8,1.1,323.900,M,-17.561,M,1.0,0000*4C
1627578117719716795,10061,1627578117719561100,gps_frame,$GPGGA,170157.05,4616.73088898,N,11940.88694265,W,4,8,1.1,323.921,M,-17.561,M,1.0,0000*42
1627578117780123340,10062,1627578117779992103,gps_frame,$GPGGA,170157.10,4616.73083824,N,11940.88684950,W,4,8,1.1,323.900,M,-17.561,M,1.1,0000*44
1627578117819716102,10063,1627578117819555997,gps_frame,$GPGGA,170157.15,4616.73077161,N,11940.88707289,W,4,8,1.1,323.895,M,-17.561,M,1.1,0000*4A
1627578117870713425,10064,1627578117870585918,gps_frame,$GPGGA,170157.20,4616.73069664,N,11940.88684711,W,4,8,1.1,323.895,M,-17.561,M,0.2,0000*4D
1627578117919738664,10065,1627578117919586896,gps_frame,$GPGGA,170157.25,4616.73062473,N,11940.88698635,W,4,8,1.1,323.894,M,-17.561,M,0.2,0000*4C
1627578117968749721,10066,1627578117968610048,gps_frame,$GPGGA,170157.30,4616.73051556,N,11940.88688788,W,4,8,1.1,323.905,M,-17.561,M,0.3,0000*40
1627578118019896988,10067,1627578118019660949,gps_frame,$GPGGA,170157.35,4616.73042003,N,11940.88707249,W,4,8,1.1,323.911,M,-17.561,M,0.3,0000*49
1627578118069814671,10068,1627578118069677114,gps_frame,$GPGGA,170157.40,4616.73038572,N,11940.88687873,W,4,8,1.1,323.896,M,-17.561,M,0.4,0000*46
1627578118119721972,10069,1627578118119565963,gps_frame,$GPGGA,170157.45,4616.73032899,N,11940.88707422,W,4,8,1.1,323.889,M,-17.561,M,0.4,0000*4E
1627578118168613270,10070,1627578118168436050,gps_frame,$GPGGA,170157.50,4616.73020829,N,11940.88689142,W,4,8,1.1,323.909,M,-17.561,M,0.5,0000*4E
1627578118219755300,10071,1627578118219599008,gps_frame,$GPGGA,170157.55,4616.73011101,N,11940.88702689,W,4,8,1.1,323.918,M,-17.561,M,0.5,0000*48
1627578118269659185,10072,1627578118269537925,gps_frame,$GPGGA,170157.60,4616.73006618,N,11940.88692838,W,4,8,1.1,323.908,M,-17.561,M,0.6,0000*49
1627578118319726742,10073,1627578118319574117,gps_frame,$GPGGA,170157.65,4616.73000215,N,11940.88716120,W,4,8,1.1,323.905,M,-17.561,M,0.6,0000*43
1627578118368873444,10074,1627578118368657112,gps_frame,$GPGGA,170157.70,4616.72991223,N,11940.88692586,W,4,8,1.1,323.905,M,-17.561,M,0.7,0000*46
1627578118419935838,10075,1627578118419796943,gps_frame,$GPGGA,170157.75,4616.72983179,N,11940.88705868,W,4,8,1.1,323.903,M,-17.561,M,0.7,0000*48
1627578118469659728,10076,1627578118469507932,gps_frame,$GPGGA,170157.80,4616.72974785,N,11940.88695527,W,4,8,1.1,323.908,M,-17.561,M,0.8,0000*45
1627578118519788371,10077,1627578118519633054,gps_frame,$GPGGA,170157.85,4616.72966519,N,11940.88715151,W,4,8,1.1,323.910,M,-17.561,M,0.8,0000*41
1627578118568633519,10078,1627578118568361997,gps_frame,$GPGGA,170157.90,4616.72959247,N,11940.88696485,W,4,8,1.1,323.921,M,-17.561,M,0.9,0000*40
1627578118619777001,10079,1627578118619656085,gps_frame,$GPGGA,170157.95,4616.72951612,N,11940.88714596,W,4,8,1.1,323.928,M,-17.561,M,0.9,0000*48
1627578118676973566,10080,1627578118676749944,gps_frame,$GPGGA,170158.00,4616.72946560,N,11940.88697943,W,4,8,1.1,323.901,M,-17.561,M,1.0,0000*46
1627578118719760841,10081,1627578118719600915,gps_frame,$GPGGA,170158.05,4616.72940562,N,11940.88715530,W,4,8,1.1,323.887,M,-17.561,M,1.0,0000*4B
1627578118780009645,10082,1627578118779828071,gps_frame,$GPGGA,170158.10,4616.72927458,N,11940.88698086,W,4,8,1.1,323.917,M,-17.561,M,1.1,0000*43
1627578118819742721,10083,1627578118819552898,gps_frame,$GPGGA,170158.15,4616.72916955,N,11940.88711034,W,4,8,1.1,323.931,M,-17.561,M,1.1,0000*49
1627578118870659866,10084,1627578118870534896,gps_frame,$GPGGA,170158.20,4616.72914483,N,11940.88698820,W,4,8,1.1,323.913,M,-17.561,M,0.2,0000*44
1627578118919725727,10085,1627578118919568061,gps_frame,$GPGGA,170158.25,4616.72909071,N,11940.88722266,W,4,8,1.1,323.906,M,-17.561,M,0.2,0000*48
1627578118968819758,10086,1627578118968604087,gps_frame,$GPGGA,170158.30,4616.72898579,N,11940.88699806,W,4,8,1.1,323.920,M,-17.561,M,0.3,0000*40
1627578119019846882,10087,1627578119019599914,gps_frame,$GPGGA,170158.35,4616.72889947,N,11940.88712117,W,4,8,1.1,323.925,M,-17.561,M,0.3,0000*4A
1627578119069666390,10088,1627578119069502115,gps_frame,$GPGGA,170158.40,4616.72881737,N,11940.88700749,W,4,8,1.1,323.933,M,-17.561,M,0.4,0000*47
1627578119119775868,10089,1627578119119570970,gps_frame,$GPGGA,170158.45,4616.72873372,N,11940.88720069,W,4,8,1.1,323.940,M,-17.561,M,0.4,0000*49
1627578119168503034,10090,1627578119168307065,gps_frame,$GPGGA,170158.50,4616.72868521,N,11940.88704110,W,4,8,1.1,323.896,M,-17.561,M,0.5,0000*45
1627578119219768451,10091,1627578119219587087,gps_frame,$GPGGA,170158.55,4616.72862384,N,11940.88724386,W,4,8,1.1,323.870,M,-17.561,M,0.5,0000*44
1627578119270648328,10092,1627578119270490884,gps_frame,$GPGGA,170158.60,4616.72850658,N,11940.88705859,W,4,8,1.1,323.932,M,-17.561,M,0.6,0000*49
1627578119319723581,10093,1627578119319567918,gps_frame,$GPGGA,170158.65,4616.72840977,N,11940.88719835,W,4,8,1.1,323.962,M,-17.561,M,0.6,0000*4D
1627578119368685326,10094,1627578119368516921,gps_frame,$GPGGA,170158.70,4616.72837232,N,11940.88707208,W,4,8,1.1,323.925,M,-17.561,M,0.7,0000*4A
1627578119419739346,10095,1627578119419605016,gps_frame,$GPGGA,170158.75,4616.72831314,N,11940.88729054,W,4,8,1.1,323.912,M,-17.561,M,0.7,0000*4F
1627578119469654795,10096,1627578119469489097,gps_frame,$GPGGA,170158.80,4616.72820578,N,11940.88707759,W,4,8,1.1,323.923,M,-17.561,M,0.8,0000*42
1627578119519887530,10097,1627578119519618988,gps_frame,$GPGGA,170158.85,4616.72811606,N,11940.88720846,W,4,8,1.1,323.925,M,-17.561,M,0.8,0000*4D
1627578119568457393,10098,1627578119568248987,gps_frame,$GPGGA,170158.90,4616.72806156,N,11940.88708195,W,4,8,1.1,323.922,M,-17.561,M,0.9,0000*46
1627578119619804076,10099,1627578119619586944,gps_frame,$GPGGA,170158.95,4616.72799416,N,11940.88728025,W,4,8,1.1,323.921,M,-17.561,M,0.9,0000*40
1627578119676825589,10100,1627578119676672935,gps_frame,$GPGGA,170159.00,4616.72789232,N,11940.88707586,W,4,8,1.1,323.933,M,-17.561,M,1.0,0000*46
1627578119719783743,10101,1627578119719587087,gps_frame,$GPGGA,170159.05,4616.72780308,N,11940.88721858,W,4,8,1.1,323.941,M,-17.561,M,1.0,0000*4D
1627578119780348539,10102,1627578119780136108,gps_frame,$GPGGA,170159.10,4616.72776614,N,11940.88710143,W,4,8,1.1,323.909,M,-17.561,M,1.1,0000*44
1627578119819751083,10103,1627578119819603919,gps_frame,$GPGGA,170159.15,4616.72771005,N,11940.88731374,W,4,8,1.1,323.892,M,-17.561,M,1.1,0000*46
1627578119870701198,10104,1627578119870524883,gps_frame,$GPGGA,170159.20,4616.72758191,N,11940.88709365,W,4,8,1.1,323.937,M,-17.561,M,0.2,0000*40
1627578119919767328,10105,1627578119919620990,gps_frame,$GPGGA,170159.25,4616.72748014,N,11940.88720656,W,4,8,1.1,323.959,M,-17.561,M,0.2,0000*4E
1627578119968569431,10106,1627578119968430042,gps_frame,$GPGGA,170159.30,4616.72745227,N,11940.88713541,W,4,8,1.1,323.916,M,-17.561,M,0.3,0000*4A
1627578120020227173,10107,1627578120019999980,gps_frame,$GPGGA,170159.35,4616.72739735,N,11940.88738674,W,4,8,1.1,323.896,M,-17.561,M,0.3,0000*47
1627578120069788435,10108,1627578120069663047,gps_frame,$GPGGA,170159.40,4616.72727504,N,11940.88711945,W,4,8,1.1,323.931,M,-17.561,M,0.4,0000*47
1627578120119708521,10109,1627578120119580984,gps_frame,$GPGGA,170159.45,4616.72717739,N,11940.88722151,W,4,8,1.1,323.946,M,-17.561,M,0.4,0000*40
1627578120168476459,10110,1627578120168335914,gps_frame,$GPGGA,170159.50,4616.72714627,N,11940.88713962,W,4,8,1.1,323.930,M,-17.561,M,0.5,0000*43
1627578120219771947,10111,1627578120219563007,gps_frame,$GPGGA,170159.55,4616.72709079,N,11940.88737047,W,4,8,1.1,323.926,M,-17.561,M,0.5,0000*48
1627578120269860470,10112,1627578120269735097,gps_frame,$GPGGA,170159.60,4616.72697714,N,11940.88715540,W,4,8,1.1,323.926,M,-17.561,M,0.6,0000*45
1627578120319648411,10113,1627578120319555044,gps_frame,$GPGGA,170159.65,4616.72688478,N,11940.88728187,W,4,8,1.1,323.924,M,-17.561,M,0.6,0000*44
1627578120368671180,10114,1627578120368562936,gps_frame,$GPGGA,170159.70,4616.72682866,N,11940.88714156,W,4,8,1.1,323.951,M,-17.561,M,0.7,0000*49
1627578120419708916,10115,1627578120419560909,gps_frame,$GPGGA,170159.75,4616.72675928,N,11940.88733310,W,4,8,1.1,323.967,M,-17.561,M,0.7,0000*4F
1627578120469636443,10116,1627578120469515085,gps_frame,$GPGGA,170159.80,4616.72668965,N,11940.88716354,W,4,8,1.1,323.914,M,-17.561,M,0.8,0000*4C
1627578120519746632,10117,1627578120519593954,gps_frame,$GPGGA,170159.85,4616.72662010,N,11940.88733174,W,4,8,1.1,323.887,M,-17.561,M,0.8,0000*44
1627578120568610299,10118,1627578120568422079,gps_frame,$GPGGA,170159.90,4616.72652647,N,11940.88716344,W,4,8,1.1,323.944,M,-17.561,M,0.9,0000*4E
1627578120619713665,10119,1627578120619561910,gps_frame,$GPGGA,170159.95,4616.72644166,N,11940.88731082,W,4,8,1.1,323.970,M,-17.561,M,0.9,0000*43
1627578120676686908,10120,1627578120676537990,gps_frame,$GPGGA,170200.00,4616.72638983,N,11940.88716469,W,4,8,1.1,323.930,M,-17.561,M,1.0,0000*40
1627578120719719511,10121,1627578120719563007,gps_frame,$GPGGA,170200.05,4616.72632593,N,11940.88735195,W,4,8,1.1,323.914,M,-17.561,M,1.0,0000*43
1627578120780165810,10122,1627578120779948949,gps_frame,$GPGGA,170200.10,4616.72622266,N,11940.88717121,W,4,8,1.1,323.937,M,-17.561,M,1.1,0000*44
1627578120819677010,10123,1627578120819555997,gps_frame,$GPGGA,170200.15,4616.72613381,N,11940.88731438,W,4,8,1.1,323.945,M,-17.561,M,1.1,0000*47
1627578120870681893,10124,1627578120870515108,gps_frame,$GPGGA,170200.20,4616.72609795,N,11940.88715542,W,4,8,1.1,323.964,M,-17.561,M,0.2,0000*40
1627578120919694495,10125,1627578120919581890,gps_frame,$GPGGA,170200.25,4616.72604269,N,11940.88733854,W,4,8,1.1,323.979,M,-17.561,M,0.2,0000*4C
1627578120968692261,10126,1627578120968492984,gps_frame,$GPGGA,170200.30,4616.72593406,N,11940.88717308,W,4,8,1.1,323.949,M,-17.561,M,0.3,0000*4C
1627578121019761016,10127,1627578121019594907,gps_frame,$GPGGA,170200.35,4616.72584497,N,11940.88730791,W,4,8,1.1,323.935,M,-17.561,M,0.3,0000*4D
1627578121069673992,10128,1627578121069519996,gps_frame,$GPGGA,170200.40,4616.72579238,N,11940.88717964,W,4,8,1.1,323.964,M,-17.561,M,0.4,0000*4C
1627578121119840010,10129,1627578121119637012,gps_frame,$GPGGA,170200.45,4616.72572643,N,11940.88737461,W,4,8,1.1,323.978,M,-17.561,M,0.4,0000*4D
1627578121168565157,10130,1627578121168330907,gps_frame,$GPGGA,170200.50,4616.72564796,N,11940.88718780,W,4,8,1.1,323.955,M,-17.561,M,0.5,0000*48
1627578121219709148,10131,1627578121219582080,gps_frame,$GPGGA,170200.55,4616.72557408,N,11940.88733692,W,4,8,1.1,323.945,M,-17.561,M,0.5,0000*43
1627578121270606913,10132,1627578121270462036,gps_frame,$GPGGA,170200.60,4616.72550083,N,11940.88720734,W,4,8,1.1,323.953,M,-17.561,M,0.6,0000*4E
1627578121319705221,10133,1627578121319559097,gps_frame,$GPGGA,170200.65,4616.72542734,N,11940.88737975,W,4,8,1.1,323.954,M,-17.561,M,0.6,0000*49
1627578121369223045,10134,1627578121369026899,gps_frame,$GPGGA,170200.70,4616.72535708,N,11940.88720198,W,4,8,1.1,323.938,M,-17.561,M,0.7,0000*44
1627578121419727448,10135,1627578121419567108,gps_frame,$GPGGA,170200.75,4616.72528563,N,11940.88735613,W,4,8,1.1,323.928,M,-17.561,M,0.7,0000*43
1627578121469727115,10136,1627578121469563961,gps_frame,$GPGGA,170200.80,4616.72520078,N,11940.88721689,W,4,8,1.1,323.938,M,-17.561,M,0.8,0000*46
1627578121519772610,10137,1627578121519615888,gps_frame,$GPGGA,170200.85,4616.72512083,N,11940.88738409,W,4,8,1.1,323.940,M,-17.561,M,0.8,0000*4B
1627578121568375243,10138,1627578121568253040,gps_frame,$GPGGA,170200.90,4616.72505031,N,11940.88716915,W,4,8,1.1,323.977,M,-17.561,M,0.9,0000*49
1627578121619705348,10139,1627578121619580030,gps_frame,$GPGGA,170200.95,4616.72497635,N,11940.88731053,W,4,8,1.1,324.002,M,-17.561,M,0.9,0000*46
1627578121676685830,10140,1627578121676523923,gps_frame,$GPGGA,170201.00,4616.72492031,N,11940.88718786,W,4,8,1.1,323.953,M,-17.561,M,1.0,0000*4A
1627578121719742376,10141,1627578121719569921,gps_frame,$GPGGA,170201.05,4616.72485771,N,11940.88737018,W,4,8,1.1,323.931,M,-17.561,M,1.0,0000*43
1627578121780255177,10142,1627578121780055999,gps_frame,$GPGGA,170201.10,4616.72478484,N,11940.88719910,W,4,8,1.1,323.947,M,-17.561,M,1.1,0000*41
1627578121819734338,10143,1627578121819561004,gps_frame,$GPGGA,170201.15,4616.72471572,N,11940.88733740,W,4,8,1.1,323.949,M,-17.561,M,1.1,0000*48
1627578121870645399,10144,1627578121870512962,gps_frame,$GPGGA,170201.20,4616.72460359,N,11940.88717875,W,4,8,1.1,323.977,M,-17.561,M,0.2,0000*41
1627578121919718139,10145,1627578121919552087,gps_frame,$GPGGA,170201.25,4616.72450721,N,11940.88731639,W,4,8,1.1,323.995,M,-17.561,M,0.2,0000*42
1627578121968884488,10146,1627578121968666076,gps_frame,$GPGGA,170201.30,4616.72449888,N,11940.88722975,W,4,8,1.1,323.938,M,-17.561,M,0.3,0000*41
1627578122019792311,10147,1627578122019610881,gps_frame,$GPGGA,170201.35,4616.72445832,N,11940.88747617,W,4,8,1.1,323.908,M,-17.561,M,0.3,0000*42
1627578122069834528,10148,1627578122069679021,gps_frame,$GPGGA,170201.40,4616.72434519,N,11940.88720856,W,4,8,1.1,323.944,M,-17.561,M,0.4,0000*47
1627578122119710965,10149,1627578122119575977,gps_frame,$GPGGA,170201.45,4616.72425862,N,11940.88727411,W,4,8,1.1,323.957,M,-17.561,M,0.4,0000*49
1627578122168537083,10150,1627578122168245077,gps_frame,$GPGGA,170201.50,4616.72418618,N,11940.88722142,W,4,8,1.1,323.954,M,-17.561,M,0.5,0000*44
1627578122219660925,10151,1627578122219521999,gps_frame,$GPGGA,170201.55,4616.72410857,N,11940.88742483,W,4,8,1.1,323.958,M,-17.561,M,0.5,0000*4E
1627578122269772215,10152,1627578122269610881,gps_frame,$GPGGA,170201.60,4616.72408551,N,11940.88723629,W,4,8,1.1,323.931,M,-17.561,M,0.6,0000*43
1627578122319766191,10153,1627578122319569110,gps_frame,$GPGGA,170201.65,4616.72404247,N,11940.88741139,W,4,8,1.1,323.916,M,-17.561,M,0.6,0000*4D
1627578122368695985,10154,1627578122368495941,gps_frame,$GPGGA,170201.70,4616.72391426,N,11940.88722162,W,4,8,1.1,323.966,M,-17.561,M,0.7,0000*4E
1627578122419756004,10155,1627578122419579982,gps_frame,$GPGGA,170201.75,4616.72381723,N,11940.88730482,W,4,8,1.1,323.993,M,-17.561,M,0.7,0000*4E
1627578122470053707,10156,1627578122469892978,gps_frame,$GPGGA,170201.80,4616.72376943,N,11940.88721863,W,4,8,1.1,323.962,M,-17.561,M,0.8,0000*46
1627578122519715725,10157,1627578122519614934,gps_frame,$GPGGA,170201.85,4616.72370361,N,11940.88743156,W,4,8,1.1,323.952,M,-17.561,M,0.8,0000*47
1627578122568586533,10158,1627578122568375110,gps_frame,$GPGGA,170201.90,4616.72365326,N,11940.88721800,W,4,8,1.1,323.938,M,-17.561,M,0.9,0000*47
1627578122619725901,10159,1627578122619556903,gps_frame,$GPGGA,170201.95,4616.72359724,N,11940.88736109,W,4,8,1.1,323.926,M,-17.561,M,0.9,0000*42
1627578122676666293,10160,1627578122676484107,gps_frame,$GPGGA,170202.00,4616.72349956,N,11940.88721825,W,4,8,1.1,323.948,M,-17.561,M,1.0,0000*46
1627578122719815533,10161,1627578122719602108,gps_frame,$GPGGA,170202.05,4616.72341714,N,11940.88734094,W,4,8,1.1,323.957,M,-17.561,M,1.0,0000*4B
1627578122780062822,10162,1627578122779885053,gps_frame,$GPGGA,170202.10,4616.72336812,N,11940.88722817,W,4,8,1.1,323.960,M,-17.561,M,1.1,0000*47
1627578122819764867,10163,1627578122819578886,gps_frame,$GPGGA,170202.15,4616.72330687,N,11940.88741441,W,4,8,1.1,323.965,M,-17.561,M,1.1,0000*49
1627578122870628945,10164,1627578122870476961,gps_frame,$GPGGA,170202.20,4616.72322175,N,11940.88721683,W,4,8,1.1,323.952,M,-17.561,M,0.2,0000*4A
1627578122919827349,10165,1627578122919553995,gps_frame,$GPGGA,170202.25,4616.72314537,N,11940.88734176,W,4,8,1.1,323.945,M,-17.561,M,0.2,0000*47
1627578122968652303,10166,1627578122968477964,gps_frame,$GPGGA,170202.30,4616.72310325,N,11940.88721547,W,4,8,1.1,323.955,M,-17.561,M,0.3,0000*40
1627578123019763112,10167,1627578123019587993,gps_frame,$GPGGA,170202.35,4616.72304859,N,11940.88738382,W,4,8,1.1,323.960,M,-17.561,M,0.3,0000*41
1627578123069660912,10168,1627578123069477081,gps_frame,$GPGGA,170202.40,4616.72295797,N,11940.88720234,W,4,8,1.1,323.954,M,-17.561,M,0.4,0000*42
1627578123119741858,10169,1627578123119566917,gps_frame,$GPGGA,170202.45,4616.72288052,N,11940.88731299,W,4,8,1.1,323.952,M,-17.561,M,0.4,0000*44
1627578123168417069,10170,1627578123168205976,gps_frame,$GPGGA,170202.50,4616.72282809,N,11940.88720377,W,4,8,1.1,323.965,M,-17.561,M,0.5,0000*48
1627578123219792792,10171,1627578123219554901,gps_frame,$GPGGA,170202.55,4616.72276650,N,11940.88737621,W,4,8,1.1,323.972,M,-17.561,M,0.5,0000*42
1627578123270654424,10172,1627578123270502090,gps_frame,$GPGGA,170202.60,4616.72270221,N,11940.88718938,W,4,8,1.1,323.944,M,-17.561,M,0.6,0000*4C
1627578123319733044,10173,1627578123319559097,gps_frame,$GPGGA,170202.65,4616.72263891,N,11940.88731392,W,4,8,1.1,323.929,M,-17.561,M,0.6,0000*40
1627578123368681225,10174,1627578123368498086,gps_frame,$GPGGA,170202.70,4616.72255379,N,11940.88719222,W,4,8,1.1,323.957,M,-17.561,M,0.7,0000*44
1627578123419737294,10175,1627578123419547080,gps_frame,$GPGGA,170202.75,4616.72247666,N,11940.88733496,W,4,8,1.1,323.969,M,-17.561,M,0.7,0000*45
1627578123469678084,10176,1627578123469471931,gps_frame,$GPGGA,170202.80,4616.72243636,N,11940.88718162,W,4,8,1.1,323.956,M,-17.561,M,0.8,0000*4A
1627578123519871684,10177,1627578123519635915,gps_frame,$GPGGA,170202.85,4616.72238258,N,11940.88734217,W,4,8,1.1,323.951,M,-17.561,M,0.8,0000*47
1627578123568465278,10178,1627578123568264007,gps_frame,$GPGGA,170202.90,4616.72229979,N,11940.88717871,W,4,8,1.1,323.959,M,-17.561,M,0.9,0000*49
1627578123619720922,10179,1627578123619565963,gps_frame,$GPGGA,170202.95,4616.72222762,N,11940.88729645,W,4,8,1.1,323.962,M,-17.561,M,0.9,0000*4F
1627578123676659647,10180,1627578123676506996,gps_frame,$GPGGA,170203.00,4616.72217264,N,11940.88717263,W,4,8,1.1,323.965,M,-17.561,M,1.0,0000*45
1627578123719720113,10181,1627578123719566106,gps_frame,$GPGGA,170203.05,4616.72211137,N,11940.88732634,W,4,8,1.1,323.968,M,-17.561,M,1.0,0000*4F
1627578123780061049,10182,1627578123779931068,gps_frame,$GPGGA,170203.10,4616.72203336,N,11940.88717131,W,4,8,1.1,323.950,M,-17.561,M,1.1,0000*44
1627578123819734326,10183,1627578123819566965,gps_frame,$GPGGA,170203.15,4616.72196148,N,11940.88730536,W,4,8,1.1,323.939,M,-17.561,M,1.1,0000*4C
1627578123870663934,10184,1627578123870506048,gps_frame,$GPGGA,170203.20,4616.72189872,N,11940.88718028,W,4,8,1.1,323.968,M,-17.561,M,0.2,0000*42
1627578123919809758,10185,1627578123919641017,gps_frame,$GPGGA,170203.25,4616.72183262,N,11940.88734291,W,4,8,1.1,323.983,M,-17.561,M,0.2,0000*4D
1627578123968568707,10186,1627578123968420028,gps_frame,$GPGGA,170203.30,4616.72178487,N,11940.88718548,W,4,8,1.1,323.945,M,-17.561,M,0.3,0000*46
1627578124019751807,10187,1627578124019603967,gps_frame,$GPGGA,170203.35,4616.72173041,N,11940.88733165,W,4,8,1.1,323.927,M,-17.561,M,0.3,0000*40
1627578124069779614,10188,1627578124069614887,gps_frame,$GPGGA,170203.40,4616.72165086,N,11940.88719101,W,4,8,1.1,323.955,M,-17.561,M,0.4,0000*46
1627578124119705456,10189,1627578124119529008,gps_frame,$GPGGA,170203.45,4616.72158049,N,11940.88731300,W,4,8,1.1,323.966,M,-17.561,M,0.4,0000*47
1627578124168364790,10190,1627578124168226957,gps_frame,$GPGGA,170203.50,4616.72152459,N,11940.88716576,W,4,8,1.1,323.962,M,-17.561,M,0.5,0000*4B
1627578124219744644,10191,1627578124219563007,gps_frame,$GPGGA,170203.55,4616.72146339,N,11940.88730265,W,4,8,1.1,323.964,M,-17.561,M,0.5,0000*4D
1627578124269768607,10192,1627578124269604921,gps_frame,$GPGGA,170203.60,4616.72139786,N,11940.88718932,W,4,8,1.1,323.960,M,-17.561,M,0.6,0000*47
1627578124319777948,10193,1627578124319603919,gps_frame,$GPGGA,170203.65,4616.72133391,N,11940.88734243,W,4,8,1.1,323.958,M,-17.561,M,0.6,0000*42
1627578124368695407,10194,1627578124368513107,gps_frame,$GPGGA,170203.70,4616.72126829,N,11940.88716224,W,4,8,1.1,323.954,M,-17.561,M,0.7,0000*46
1627578124419734385,10195,1627578124419554948,gps_frame,$GPGGA,170203.75,4616.72120329,N,11940.88727954,W,4,8,1.1,323.951,M,-17.561,M,0.7,0000*45
1627578124469597568,10196,1627578124469443082,gps_frame,$GPGGA,170203.80,4616.72114886,N,11940.88719510,W,4,8,1.1,323.959,M,-17.561,M,0.8,0000*40
1627578124519789856,10197,1627578124519603967,gps_frame,$GPGGA,170203.85,4616.72109057,N,11940.88736391,W,4,8,1.1,323.962,M,-17.561,M,0.8,0000*47
1627578124568662613,10198,1627578124568475961,gps_frame,$GPGGA,170203.90,4616.72102382,N,11940.88716644,W,4,8,1.1,323.954,M,-17.561,M,0.9,0000*48
1627578124619780632,10199,1627578124619565010,gps_frame,$GPGGA,170203.95,4616.72096017,N,11940.88726841,W,4,8,1.1,323.950,M,-17.561,M,0.9,0000*42
1627578124676724711,10200,1627578124676561117,gps_frame,$GPGGA,170204.00,4616.72090851,N,11940.88718695,W,4,8,1.1,323.967,M,-17.561,M,1.0,0000*43
1627578124719780410,10201,1627578124719575881,gps_frame,$GPGGA,170204.05,4616.72085246,N,11940.88734577,W,4,8,1.1,323.976,M,-17.561,M,1.0,0000*4F
1627578124780112643,10202,1627578124779907941,gps_frame,$GPGGA,170204.10,4616.72077289,N,11940.88718563,W,4,8,1.1,323.948,M,-17.561,M,1.1,0000*42
1627578124819759066,10203,1627578124819585084,gps_frame,$GPGGA,170204.15,4616.72070193,N,11940.88730192,W,4,8,1.1,323.934,M,-17.561,M,1.1,0000*43
1627578124870741951,10204,1627578124870543956,gps_frame,$GPGGA,170204.20,4616.72065522,N,11940.88720758,W,4,8,1.1,323.960,M,-17.561,M,0.2,0000*4D
1627578124919825388,10205,1627578124919589042,gps_frame,$GPGGA,170204.25,4616.72059963,N,11940.88737813,W,4,8,1.1,323.972,M,-17.561,M,0.2,0000*4B
1627578124968706637,10206,1627578124968548059,gps_frame,$GPGGA,170204.30,4616.72054609,N,11940.88722240,W,4,8,1.1,323.952,M,-17.561,M,0.3,0000*4A
1627578125019797983,10207,1627578125019623994,gps_frame,$GPGGA,170204.35,4616.72049180,N,11940.88734905,W,4,8,1.1,323.944,M,-17.561,M,0.3,0000*4F
1627578125069699561,10208,1627578125069509029,gps_frame,$GPGGA,170204.40,4616.72040557,N,11940.88723343,W,4,8,1.1,323.956,M,-17.561,M,0.4,0000*40
1627578125119743727,10209,1627578125119596004,gps_frame,$GPGGA,170204.45,4616.72033103,N,11940.88735760,W,4,8,1.1,323.961,M,-17.561,M,0.4,0000*42
1627578125168299297,10210,1627578125168195009,gps_frame,$GPGGA,170204.50,4616.72029675,N,11940.88722088,W,4,8,1.1,323.948,M,-17.561,M,0.5,0000*46
1627578125219756199,10211,1627578125219584941,gps_frame,$GPGGA,170204.55,4616.72024774,N,11940.88737423,W,4,8,1.1,323.942,M,-17.561,M,0.5,0000*45
1627578125270718273,10212,1627578125270590066,gps_frame,$GPGGA,170204.60,4616.72017466,N,11940.88723881,W,4,8,1.1,323.948,M,-17.561,M,0.6,0000*4B
1627578125319717167,10213,1627578125319554090,gps_frame,$GPGGA,170204.65,4616.72011040,N,11940.88735977,W,4,8,1.1,323.949,M,-17.561,M,0.6,0000*46
1627578125368723182,10214,1627578125368539094,gps_frame,$GPGGA,170204.70,4616.72003670,N,11940.88722587,W,4,8,1.1,323.977,M,-17.561,M,0.7,0000*4D
1627578125419742677,10215,1627578125419565916,gps_frame,$GPGGA,170204.75,4616.71996646,N,11940.88735432,W,4,8,1.1,323.995,M,-17.561,M,0.7,0000*4E
1627578125469660692,10216,1627578125469500064,gps_frame,$GPGGA,170204.80,4616.71993996,N,11940.88723677,W,4,8,1.1,323.960,M,-17.561,M,0.8,0000*42
1627578125519739638,10217,1627578125519614934,gps_frame,$GPGGA,170204.85,4616.71989744,N,11940.88740029,W,4,8,1.1,323.945,M,-17.561,M,0.8,0000*42
1627578125568495676,10218,1627578125568327903,gps_frame,$GPGGA,170204.90,4616.71980795,N,11940.88724302,W,4,8,1.1,323.958,M,-17.561,M,0.9,0000*46
1627578125619738821,10219,1627578125619573116,gps_frame,$GPGGA,170204.95,4616.71973566,N,11940.88733714,W,4,8,1.1,323.961,M,-17.561,M,0.9,0000*4E
1627578125676721830,10220,1627578125676583051,gps_frame,$GPGGA,170205.00,4616.71968157,N,11940.88725652,W,4,8,1.1,323.963,M,-17.561,M,1.0,0000*41
1627578125719726320,10221,1627578125719562053,gps_frame,$GPGGA,170205.05,4616.71962081,N,11940.88742264,W,4,8,1.1,323.966,M,-17.561,M,1.0,0000*41
1627578125780195187,10222,1627578125780044078,gps_frame,$GPGGA,170205.10,4616.71957031,N,11940.88729373,W,4,8,1.1,323.974,M,-17.561,M,1.1,0000*40
1627578125819709469,10223,1627578125819550991,gps_frame,$GPGGA,170205.15,4616.71951606,N,11940.88744783,W,4,8,1.1,323.981,M,-17.561,M,1.1,0000*4B
1627578125870623417,10224,1627578125870466947,gps_frame,$GPGGA,170205.20,4616.71943745,N,11940.88730995,W,4,8,1.1,323.955,M,-17.561,M,0.2,0000*49
1627578125919698143,10225,1627578125919543027,gps_frame,$GPGGA,170205.25,4616.71936775,N,11940.88743300,W,4,8,1.1,323.942,M,-17.561,M,0.2,0000*49
1627578125968852892,10226,1627578125968586921,gps_frame,$GPGGA,170205.30,4616.71933750,N,11940.88732046,W,4,8,1.1,323.954,M,-17.561,M,0.3,0000*4E
1627578126019759221,10227,1627578126019582986,gps_frame,$GPGGA,170205.35,4616.71929281,N,11940.88747814,W,4,8,1.1,323.956,M,-17.561,M,0.3,0000*46
1627578126069796956,10228,1627578126069591999,gps_frame,$GPGGA,170205.40,4616.71918618,N,11940.88731382,W,4,8,1.1,323.960,M,-17.561,M,0.4,0000*45
1627578126119872842,10229,1627578126119663953,gps_frame,$GPGGA,170205.45,4616.71910223,N,11940.88740576,W,4,8,1.1,323.963,M,-17.561,M,0.4,0000*4C
1627578126168482595,10230,1627578126168270111,gps_frame,$GPGGA,170205.50,4616.71909849,N,11940.88732827,W,4,8,1.1,323.965,M,-17.561,M,0.5,0000*4D
1627578126219783077,10231,1627578126219594001,gps_frame,$GPGGA,170205.55,4616.71906539,N,11940.88752232,W,4,8,1.1,323.967,M,-17.561,M,0.5,0000*47
1627578126269898165,10232,1627578126269723892,gps_frame,$GPGGA,170205.60,4616.71895210,N,11940.88734540,W,4,8,1.1,323.961,M,-17.561,M,0.6,0000*41
1627578126319710636,10233,1627578126319581985,gps_frame,$GPGGA,170205.65,4616.71886817,N,11940.88742570,W,4,8,1.1,323.958,M,-17.561,M,0.6,0000*43
1627578126369096328,10234,1627578126368895053,gps_frame,$GPGGA,170205.70,4616.71883165,N,11940.88737247,W,4,8,1.1,323.977,M,-17.561,M,0.7,0000*43
1627578126419772260,10235,1627578126419576883,gps_frame,$GPGGA,170205.75,4616.71877777,N,11940.88757083,W,4,8,1.1,323.987,M,-17.561,M,0.7,0000*4B
1627578126469736347,10236,1627578126469512939,gps_frame,$GPGGA,170205.80,4616.71872550,N,11940.88738718,W,4,8,1.1,323.954,M,-17.561,M,0.8,0000*4E
1627578126519819898,10237,1627578126519644975,gps_frame,$GPGGA,170205.85,4616.71867264,N,11940.88751015,W,4,8,1.1,323.937,M,-17.561,M,0.8,0000*4F
1627578126568607947,10238,1627578126568381071,gps_frame,$GPGGA,170205.90,4616.71857900,N,11940.88741561,W,4,8,1.1,323.973,M,-17.561,M,0.9,0000*47
1627578126619767961,10239,1627578126619575023,gps_frame,$GPGGA,170205.95,4616.71850028,N,11940.88754767,W,4,8,1.1,323.990,M,-17.561,M,0.9,0000*4B
1627578126676658088,10240,1627578126676491975,gps_frame,$GPGGA,170206.00,4616.71847441,N,11940.88743490,W,4,8,1.1,323.962,M,-17.561,M,1.0,0000*41
1627578126719886947,10241,1627578126719566106,gps_frame,$GPGGA,170206.05,4616.71842919,N,11940.88761462,W,4,8,1.1,323.950,M,-17.561,M,1.0,0000*4D
1627578126780182066,10242,1627578126779938936,gps_frame,$GPGGA,170206.10,4616.71833066,N,11940.88744650,W,4,8,1.1,323.967,M,-17.561,M,1.1,0000*4F
1627578126819730749,10243,1627578126819601058,gps_frame,$GPGGA,170206.15,4616.71825164,N,11940.88755052,W,4,8,1.1,323.973,M,-17.561,M,1.1,0000*4F
1627578126870712491,10244,1627578126870557069,gps_frame,$GPGGA,170206.20,4616.71820183,N,11940.88747134,W,4,8,1.1,323.961,M,-17.561,M,0.2,0000*46
1627578126919756896,10245,1627578126919584989,gps_frame,$GPGGA,170206.25,4616.71814133,N,11940.88765827,W,4,8,1.1,323.956,M,-17.561,M,0.2,0000*40
1627578126968656103,10246,1627578126968461990,gps_frame,$GPGGA,170206.30,4616.71808899,N,11940.88749867,W,4,8,1.1,323.955,M,-17.561,M,0.3,0000*48
1627578127019777279,10247,1627578127019648075,gps_frame,$GPGGA,170206.35,4616.71803366,N,11940.88764430,W,4,8,1.1,323.952,M,-17.561,M,0.3,0000*4B
1627578127069604540,10248,1627578127069504022,gps_frame,$GPGGA,170206.40,4616.71795139,N,11940.88752490,W,4,8,1.1,323.948,M,-17.561,M,0.4,0000*42
1627578127120130706,10249,1627578127119987010,gps_frame,$GPGGA,170206.45,4616.71787898,N,11940.88765877,W,4,8,1.1,323.944,M,-17.561,M,0.4,0000*4B
1627578127168404562,10250,1627578127168180942,gps_frame,$GPGGA,170206.50,4616.71782581,N,11940.88756503,W,4,8,1.1,323.961,M,-17.561,M,0.5,0000*47
1627578127220161536,10251,1627578127219989061,gps_frame,$GPGGA,170206.55,4616.71776560,N,11940.88774513,W,4,8,1.1,323.971,M,-17.561,M,0.5,0000*46
1627578127270625715,10252,1627578127270452976,gps_frame,$GPGGA,170206.60,4616.71769906,N,11940.88758935,W,4,8,1.1,323.946,M,-17.561,M,0.6,0000*43
1627578127319751261,10253,1627578127319587945,gps_frame,$GPGGA,170206.65,4616.71763484,N,11940.88773041,W,4,8,1.1,323.933,M,-17.561,M,0.6,0000*4A
1627578127369172130,10254,1627578127369029998,gps_frame,$GPGGA,170206.70,4616.71756089,N,11940.88761610,W,4,8,1.1,323.952,M,-17.561,M,0.7,0000*46
1627578127419709745,10255,1627578127419563055,gps_frame,$GPGGA,170206.75,4616.71749050,N,11940.88777079,W,4,8,1.1,323.959,M,-17.561,M,0.7,0000*4C
1627578127469717055,10256,1627578127469527959,gps_frame,$GPGGA,170206.80,4616.71744374,N,11940.88764910,W,4,8,1.1,323.962,M,-17.561,M,0.8,0000*4D
1627578127519813047,10257,1627578127519628047,gps_frame,$GPGGA,170206.85,4616.71738834,N,11940.88781990,W,4,8,1.1,323.967,M,-17.561,M,0.8,0000*4A
1627578127568603845,10258,1627578127568386077,gps_frame,$GPGGA,170206.90,4616.71730128,N,11940.88768796,W,4,8,1.1,323.943,M,-17.561,M,0.9,0000*4A
1627578127619747791,10259,1627578127619570016,gps_frame,$GPGGA,170206.95,4616.71722580,N,11940.88782905,W,4,8,1.1,323.930,M,-17.561,M,0.9,0000*4E
1627578127676812653,10260,1627578127676589012,gps_frame,$GPGGA,170207.00,4616.71716968,N,11940.88771342,W,4,8,1.1,323.967,M,-17.561,M,1.0,0000*41
1627578127719782117,10261,1627578127719585895,gps_frame,$GPGGA,170207.05,4616.71710648,N,11940.88788903,W,4,8,1.1,323.985,M,-17.561,M,1.0,0000*4A
1627578127780564739,10262,1627578127780225992,gps_frame,$GPGGA,170207.10,4616.71704060,N,11940.88776449,W,4,8,1.1,323.955,M,-17.561,M,1.1,0000*49
1627578127819735359,10263,1627578127819556951,gps_frame,$GPGGA,170207.15,4616.71697570,N,11940.88793203,W,4,8,1.1,323.943,M,-17.561,M,1.1,0000*47
1627578127870696588,10264,1627578127870506048,gps_frame,$GPGGA,170207.20,4616.71689775,N,11940.88780456,W,4,8,1.1,323.938,M,-17.561,M,0.2,0000*43
1627578127919888773,10265,1627578127919668912,gps_frame,$GPGGA,170207.25,4616.71682457,N,11940.88796382,W,4,8,1.1,323.931,M,-17.561,M,0.2,0000*4E
1627578127969161760,10266,1627578127968816041,gps_frame,$GPGGA,170207.30,4616.71677434,N,11940.88785010,W,4,8,1.1,323.946,M,-17.561,M,0.3,0000*4E
1627578128019992506,10267,1627578128019758939,gps_frame,$GPGGA,170207.35,4616.71671571,N,11940.88803410,W,4,8,1.1,323.952,M,-17.561,M,0.3,0000*4D
1627578128069979293,10268,1627578128069776058,gps_frame,$GPGGA,170207.40,4616.71663314,N,11940.88787894,W,4,8,1.1,323.956,M,-17.561,M,0.4,0000*49
1627578128119829342,10269,1627578128119673967,gps_frame,$GPGGA,170207.45,4616.71655934,N,11940.88801881,W,4,8,1.1,323.961,M,-17.561,M,0.4,0000*40
1627578128168541769,10270,1627578128168226957,gps_frame,$GPGGA,170207.50,4616.71650547,N,11940.88790024,W,4,8,1.1,323.958,M,-17.561,M,0.5,0000*42
1627578128219768149,10271,1627578128219592094,gps_frame,$GPGGA,170207.55,4616.71644431,N,11940.88807178,W,4,8,1.1,323.958,M,-17.561,M,0.5,0000*4B
1627578128269727293,10272,1627578128269581079,gps_frame,$GPGGA,170207.60,4616.71637322,N,11940.88794174,W,4,8,1.1,323.952,M,-17.561,M,0.6,0000*4C
1627578128319798139,10273,1627578128319617986,gps_frame,$GPGGA,170207.65,4616.71630577,N,11940.88809888,W,4,8,1.1,323.948,M,-17.561,M,0.6,0000*42
1627578128368858187,10274,1627578128368640899,gps_frame,$GPGGA,170207.70,4616.71623351,N,11940.88798679,W,4,8,1.1,323.945,M,-17.561,M,0.7,0000*4D
1627578128419724377,10275,1627578128419552087,gps_frame,$GPGGA,170207.75,4616.71616301,N,11940.88815638,W,4,8,1.1,323.941,M,-17.561,M,0.7,0000*40
1627578128469832741,10276,1627578128469633102,gps_frame,$GPGGA,170207.80,4616.71609066,N,11940.88803709,W,4,8,1.1,323.945,M,-17.561,M,0.8,0000*49
1627578128519883563,10277,1627578128519629001,gps_frame,$GPGGA,170207.85,4616.71601899,N,11940.88821700,W,4,8,1.1,323.946,M,-17.561,M,0.8,0000*46
1627578128568769587,10278,1627578128568481922,gps_frame,$GPGGA,170207.90,4616.71595188,N,11940.88808853,W,4,8,1.1,323.939,M,-17.561,M,0.9,0000*4E
1627578128619806683,10279,1627578128619651079,gps_frame,$GPGGA,170207.95,4616.71588311,N,11940.88827074,W,4,8,1.1,323.935,M,-17.561,M,0.9,0000*49
1627578128676652409,10280,1627578128676493883,gps_frame,$GPGGA,170208.00,4616.71582247,N,11940.88812255,W,4,8,1.1,323.948,M,-17.561,M,1.0,0000*47
1627578128719707751,10281,1627578128719577074,gps_frame,$GPGGA,170208.05,4616.71575886,N,11940.88828746,W,4,8,1.1,323.955,M,-17.561,M,1.0,0000*4F
1627578128780059593,10282,1627578128779894113,gps_frame,$GPGGA,170208.10,4616.71566051,N,11940.88815166,W,4,8,1.1,323.943,M,-17.561,M,1.1,0000*47
1627578128819695669,10283,1627578128819570064,gps_frame,$GPGGA,170208.15,4616.71557488,N,11940.88830512,W,4,8,1.1,323.938,M,-17.561,M,1.1,0000*4C
1627578128870611950,10284,1627578128870490074,gps_frame,$GPGGA,170208.20,4616.71552321,N,11940.88818630,W,4,8,1.1,323.960,M,-17.561,M,0.2,0000*4D
1627578128919737844,10285,1627578128919569015,gps_frame,$GPGGA,170208.25,4616.71545911,N,11940.88839141,W,4,8,1.1,323.972,M,-17.561,M,0.2,0000*46
1627578128968624320,10286,1627578128968424081,gps_frame,$GPGGA,170208.30,4616.71539051,N,11940.88822487,W,4,8,1.1,323.941,M,-17.561,M,0.3,0000*40
1627578129019860335,10287,1627578129019623994,gps_frame,$GPGGA,170208.35,4616.71532355,N,11940.88838449,W,4,8,1.1,323.926,M,-17.561,M,0.3,0000*41
1627578129069675828,10288,1627578129069490909,gps_frame,$GPGGA,170208.40,4616.71522124,N,11940.88826289,W,4,8,1.1,323.951,M,-17.561,M,0.4,0000*44
1627578129119781793,10289,1627578129119600057,gps_frame,$GPGGA,170208.45,4616.71513187,N,11940.88842798,W,4,8,1.1,323.961,M,-17.561,M,0.4,0000*4E
1627578129168537999,10290,1627578129168328046,gps_frame,$GPGGA,170208.50,4616.71509575,N,11940.88831033,W,4,8,1.1,323.948,M,-17.561,M,0.5,0000*40
1627578129219834561,10291,1627578129219638109,gps_frame,$GPGGA,170208.55,4616.71504014,N,11940.88853057,W,4,8,1.1,323.943,M,-17.561,M,0.5,0000*47
1627578129271011193,10292,1627578129270889997,gps_frame,$GPGGA,170208.60,4616.71493737,N,11940.88834576,W,4,8,1.1,323.940,M,-17.561,M,0.6,0000*4F
1627578129319932611,10293,1627578129319736003,gps_frame,$GPGGA,170208.65,4616.71485186,N,11940.88848298,W,4,8,1.1,323.936,M,-17.561,M,0.6,0000*4C
1627578129368688627,10294,1627578129368532896,gps_frame,$GPGGA,170208.70,4616.71478467,N,11940.88839465,W,4,8,1.1,323.963,M,-17.561,M,0.7,0000*43
1627578129419855888,10295,1627578129419600009,gps_frame,$GPGGA,170208.75,4616.71471077,N,11940.88860819,W,4,8,1.1,323.978,M,-17.561,M,0.7,0000*4B
1627578129469788006,10296,1627578129469583988,gps_frame,$GPGGA,170208.80,4616.71464505,N,11940.88842234,W,4,8,1.1,323.951,M,-17.561,M,0.8,0000*44
1627578129519886927,10297,1627578129519716024,gps_frame,$GPGGA,170208.85,4616.71457633,N,11940.88859413,W,4,8,1.1,323.940,M,-17.561,M,0.8,0000*4E
1627578129568529654,10298,1627578129568335056,gps_frame,$GPGGA,170208.90,4616.71449842,N,11940.88845889,W,4,8,1.1,323.952,M,-17.561,M,0.9,0000*4D
1627578129619721009,10299,1627578129619570970,gps_frame,$GPGGA,170208.95,4616.71442388,N,11940.88862937,W,4,8,1.1,323.955,M,-17.561,M,0.9,0000*48
1627578129676706997,10300,1627578129676587104,gps_frame,$GPGGA,170209.00,4616.71433808,N,11940.88851232,W,4,8,1.1,323.953,M,-17.561,M,1.0,0000*40
1627578129719883511,10301,1627578129719680070,gps_frame,$GPGGA,170209.05,4616.71425640,N,11940.88870355,W,4,8,1.1,323.952,M,-17.561,M,1.0,0000*42
1627578129780316273,10302,1627578129780054092,gps_frame,$GPGGA,170209.10,4616.71421121,N,11940.88852357,W,4,8,1.1,323.954,M,-17.561,M,1.1,0000*47
1627578129819776393,10303,1627578129819581985,gps_frame,$GPGGA,170209.15,4616.71415266,N,11940.88870150,W,4,8,1.1,323.956,M,-17.561,M,1.1,0000*42
1627578129870671386,10304,1627578129870493888,gps_frame,$GPGGA,170209.20,4616.71405214,N,11940.88855734,W,4,8,1.1,323.987,M,-17.561,M,0.2,0000*4D
1627578129919827784,10305,1627578129919622898,gps_frame,$GPGGA,170209.25,4616.71396699,N,11940.88870675,W,4,8,1.1,324.007,M,-17.561,M,0.2,0000*41
1627578129968778656,10306,1627578129968581914,gps_frame,$GPGGA,170209.30,4616.71390845,N,11940.88857093,W,4,8,1.1,323.960,M,-17.561,M,0.3,0000*49
1627578130019717036,10307,1627578130019587993,gps_frame,$GPGGA,170209.35,4616.71384017,N,11940.88875978,W,4,8,1.1,323.937,M,-17.561,M,0.3,0000*48
1627578130069823056,10308,1627578130069679021,gps_frame,$GPGGA,170209.40,4616.71376506,N,11940.88861144,W,4,8,1.1,323.949,M,-17.561,M,0.4,0000*4E
1627578130119659070,10309,1627578130119537115,gps_frame,$GPGGA,170209.45,4616.71369245,N,11940.88878550,W,4,8,1.1,323.948,M,-17.561,M,0.4,0000*4D
1627578130168400397,10310,1627578130168252944,gps_frame,$GPGGA,170209.50,4616.71359670,N,11940.88863977,W,4,8,1.1,323.976,M,-17.561,M,0.5,0000*47
1627578130219774336,10311,1627578130219569921,gps_frame,$GPGGA,170209.55,4616.71350941,N,11940.88880964,W,4,8,1.1,323.994,M,-17.561,M,0.5,0000*45
1627578130269733949,10312,1627578130269603967,gps_frame,$GPGGA,170209.60,4616.71346769,N,11940.88866230,W,4,8,1.1,323.974,M,-17.561,M,0.6,0000*4F
1627578130319670302,10313,1627578130319541931,gps_frame,$GPGGA,170209.65,4616.71340929,N,11940.88886420,W,4,8,1.1,323.968,M,-17.561,M,0.6,0000*42
1627578130369012988,10314,1627578130368871927,gps_frame,$GPGGA,170209.70,4616.71331076,N,11940.88871319,W,4,8,1.1,323.942,M,-17.561,M,0.7,0000*4F
1627578130419737546,10315,1627578130419569015,gps_frame,$GPGGA,170209.75,4616.71322693,N,11940.88887000,W,4,8,1.1,323.923,M,-17.561,M,0.7,0000*40
1627578130469616791,10316,1627578130469489097,gps_frame,$GPGGA,170209.80,4616.71314155,N,11940.88871923,W,4,8,1.1,323.990,M,-17.561,M,0.8,0000*44
1627578130519712241,10317,1627578130519589900,gps_frame,$GPGGA,170209.85,4616.71305673,N,11940.88889833,W,4,8,1.1,324.025,M,-17.561,M,0.8,0000*45
1627578130568729015,10318,1627578130568401098,gps_frame,$GPGGA,170209.90,4616.71302243,N,11940.88874793,W,4,8,1.1,323.953,M,-17.561,M,0.9,0000*48
1627578130619718396,10319,1627578130619549989,gps_frame,$GPGGA,170209.95,4616.71296964,N,11940.88895246,W,4,8,1.1,323.919,M,-17.561,M,0.9,0000*43
1627578130676571147,10320,1627578130676476001,gps_frame,$GPGGA,170210.00,4616.71285737,N,11940.88876007,W,4,8,1.1,323.970,M,-17.561,M,1.0,0000*40
1627578130719918217,10321,1627578130719650983,gps_frame,$GPGGA,170210.05,4616.71276688,N,11940.88887790,W,4,8,1.1,323.990,M,-17.561,M,1.0,0000*45
1627578130780454829,10322,1627578130780292034,gps_frame,$GPGGA,170210.10,4616.71270456,N,11940.88881458,W,4,8,1.1,323.974,M,-17.561,M,1.1,0000*4C
1627578130819661395,10323,1627578130819541931,gps_frame,$GPGGA,170210.15,4616.71263192,N,11940.88904613,W,4,8,1.1,323.972,M,-17.561,M,1.1,0000*41
1627578130870638163,10324,1627578130870512962,gps_frame,$GPGGA,170210.20,4616.71256820,N,11940.88882079,W,4,8,1.1,323.954,M,-17.561,M,0.2,0000*42
1627578130919710713,10325,1627578130919559001,gps_frame,$GPGGA,170210.25,4616.71250122,N,11940.88897429,W,4,8,1.1,323.942,M,-17.561,M,0.2,0000*48
1627578130969136009,10326,1627578130968748092,gps_frame,$GPGGA,170210.30,4616.71238609,N,11940.88884758,W,4,8,1.1,323.950,M,-17.561,M,0.3,0000*49
1627578131019715295,10327,1627578131019591093,gps_frame,$GPGGA,170210.35,4616.71228859,N,11940.88901226,W,4,8,1.1,323.950,M,-17.561,M,0.3,0000*46
1627578131069703519,10328,1627578131069535017,gps_frame,$GPGGA,170210.40,4616.71227836,N,11940.88886951,W,4,8,1.1,323.947,M,-17.561,M,0.4,0000*46
1627578131119701064,10329,1627578131119540929,gps_frame,$GPGGA,170210.45,4616.71223618,N,11940.88909146,W,4,8,1.1,323.945,M,-17.561,M,0.4,0000*4F
1627578131169250411,10330,1627578131169008016,gps_frame,$GPGGA,170210.50,4616.71210193,N,11940.88884975,W,4,8,1.1,323.973,M,-17.561,M,0.5,0000*47
1627578131220152685,10331,1627578131219783067,gps_frame,$GPGGA,170210.55,4616.71200138,N,11940.88892694,W,4,8,1.1,323.991,M,-17.561,M,0.5,0000*49
1627578131270790021,10332,1627578131270538091,gps_frame,$GPGGA,170210.60,4616.71196842,N,11940.88889895,W,4,8,1.1,323.956,M,-17.561,M,0.6,0000*4A
1627578131320014085,10333,1627578131319745063,gps_frame,$GPGGA,170210.65,4616.71191071,N,11940.88915376,W,4,8,1.1,323.940,M,-17.561,M,0.6,0000*45
1627578131368658246,10334,1627578131368505001,gps_frame,$GPGGA,170210.70,4616.71180425,N,11940.88888828,W,4,8,1.1,323.961,M,-17.561,M,0.7,0000*43
1627578131419899872,10335,1627578131419737100,gps_frame,$GPGGA,170210.75,4616.71171563,N,11940.88899813,W,4,8,1.1,323.968,M,-17.561,M,0.7,0000*4A
1627578131470116438,10336,1627578131469774007,gps_frame,$GPGGA,170210.80,4616.71167700,N,11940.88895711,W,4,8,1.1,323.938,M,-17.561,M,0.8,0000*4B
1627578131519895330,10337,1627578131519728899,gps_frame,$GPGGA,170210.85,4616.71162007,N,11940.88919863,W,4,8,1.1,323.922,M,-17.561,M,0.8,0000*4F
1627578131568491928,10338,1627578131568331003,gps_frame,$GPGGA,170210.90,4616.71150719,N,11940.88894697,W,4,8,1.1,323.964,M,-17.561,M,0.9,0000*40
1627578131619705879,10339,1627578131619546890,gps_frame,$GPGGA,170210.95,4616.71141479,N,11940.88905204,W,4,8,1.1,323.985,M,-17.561,M,0.9,0000*48
1627578131676703516,10340,1627578131676549911,gps_frame,$GPGGA,170211.00,4616.71136412,N,11940.88896068,W,4,8,1.1,323.975,M,-17.561,M,1.0,0000*4C
1627578131719755311,10341,1627578131719568014,gps_frame,$GPGGA,170211.05,4616.71129817,N,11940.88917636,W,4,8,1.1,323.977,M,-17.561,M,1.0,0000*49
1627578131780357089,10342,1627578131780155897,gps_frame,$GPGGA,170211.10,4616.71124897,N,11940.88898747,W,4,8,1.1,323.937,M,-17.561,M,1.1,0000*4C
1627578131819742253,10343,1627578131819587945,gps_frame,$GPGGA,170211.15,4616.71119365,N,11940.88914479,W,4,8,1.1,323.912,M,-17.561,M,1.1,0000*4D
1627578131870870998,10344,1627578131870688915,gps_frame,$GPGGA,170211.20,4616.71105016,N,11940.88896517,W,4,8,1.1,323.971,M,-17.561,M,0.2,0000*44
1627578131919749599,10345,1627578131919564962,gps_frame,$GPGGA,170211.25,4616.71093895,N,11940.88906833,W,4,8,1.1,323.998,M,-17.561,M,0.2,0000*48
