,heading,dd,field.header.stamp
0,1.0229422775245434,0.0039366873056981165,1627577631820246934
1,4.041195656966271,0.0015137356206982578,1627577631871196031
2,0.2577635858410008,0.0018201657549641503,1627577631920262098
3,1.6583169040124581,0.0028033208882574196,1627577631969203948
4,1.0938749447302514,0.0021663389706730106,1627577632020314931
5,2.6331895717820633,0.0015067100890182577,1627577632070573091
6,1.3386589678850815,0.0011746943643680982,1627577632120304107
7,1.060204805497937,0.0038564140078295416,1627577632169115066
8,0.9313122729320957,0.003172814461530214,1627577632220232009
9,3.726870941754817,0.002143906217232007,1627577632270466089
10,0.26305853497099196,0.0006187517052024817,1627577632320240020
11,1.2822436743367773,0.0033704362330157014,1627577632369204998
12,1.0742976174661472,0.0023844666784566164,1627577632420245885
13,1.5014333411620124,0.005304326877262347,1627577632470336914
14,1.2363385436289582,0.004337068325601312,1627577632520282030
15,4.311762349163814,0.002178561257504836,1627577632569013118
16,0.10398094571088423,0.0016758906209927758,1627577632620218038
17,2.38772150405735,0.002045761829139379,1627577632677453994
18,1.4209895642711476,0.0009425271389122834,1627577632720351934
19,1.1027549698551495,0.002674805606229741,1627577632780488014
20,1.0020507269238403,0.002186401284823863,1627577632820489883
21,4.349564003882744,0.0027469783438415015,1627577632871155023
22,5.244314343234081,0.001123990299571236,1627577632920392990
23,1.3867307252175807,0.0037887110563584207,1627577632969300985
24,1.3340902553005816,0.0020726665862721197,1627577633020333051
25,1.9667733915479029,0.0014936408287229742,1627577633070409059
26,1.30103896789916,0.0016669401487474558,1627577633120312929
27,4.854454072426167,0.003950778661212984,1627577633169095039
28,5.302683756174566,0.0023128434428561994,1627577633220336914
29,1.7175704809829904,0.007967204209764656,1627577633271116971
30,1.751324332542451,0.004377350128981271,1627577633320203065
31,5.048698733530608,0.005371564487005319,1627577633369304895
32,5.6315789274309385,0.0027545299861828293,1627577633420281887
33,1.8440021051456565,0.006520354777549731,1627577633470406055
34,1.7125617978780852,0.0034172530725388663,1627577633520385980
35,5.0827512613943835,0.0039251856581613625,1627577633569202899
36,5.7291062489888285,0.002081526446865808,1627577633620313882
37,1.9665283128362512,0.0039043749519554667,1627577633677571058
38,1.7615303675116556,0.0019142726499764733,1627577633720227003
39,5.449013226408949,0.0011566551167836113,1627577633780518054
40,0.16368782455426478,0.0009385131249664686,1627577633820267915
41,1.5298019110144576,0.0041890749683216365,1627577633871231079
42,1.3222992403667402,0.0027974407034557754,1627577633920497894
43,1.18964040454406,0.0030771667425056265,1627577633969213008
44,0.9524564596179244,0.003385395943119342,1627577634020318984
45,4.0329333060973305,0.005675497454258851,1627577634070568084
46,4.561653900892346,0.001846000010437278,1627577634120359897
47,1.2536221173346354,0.006816643859170919,1627577634169800996
48,1.3248616105412232,0.003554678556734615,1627577634220197916
49,4.48214408856489,0.003244053368359153,1627577634270900964
50,5.574769557673796,0.0012021065709232348,1627577634320247888
51,1.3384499543027275,0.003783082862734049,1627577634369230985
52,1.1356884954388904,0.002252488596392197,1627577634420214891
53,1.5938838991472903,0.003978651506996333,1627577634470448017
54,1.283157620583185,0.003369603151718142,1627577634520335912
55,1.3797102674327155,0.0034770028452948197,1627577634569241046
56,0.9997958825409716,0.003945476657634943,1627577634620243072
57,1.526089895549427,0.003741202629864349,1627577634677505970
58,0.9753673581062148,0.004284119033867902,1627577634720376968
59,1.398116310447506,0.013611304917018494,1627577634780428886
60,1.1849564676631197,0.01055993976326082,1627577634820242881
61,5.108793315730791,0.002625043597416858,1627577634871251106
62,0.31442527078021376,0.006274344922326878,1627577634920294046
63,1.5389740223312334,0.0155660491773324,1627577634969216108
64,1.1926079743094402,0.011339759580923538,1627577635020334005
65,1.3364358866027002,0.0017130743305540938,1627577635070318937
66,0.6930909328218959,0.007527308600081988,1627577635120229959
67,1.7523945317932519,0.0063684708311858365,1627577635169097900
68,0.9335955217709775,0.007026122607681401,1627577635220243930
69,1.5316710347988993,0.00621524011278022,1627577635271533966
70,0.9545838819738979,0.007301040826129411,1627577635320254087
71,1.4605960784859444,0.010441597905253919,1627577635369688034
72,1.0498744082600222,0.010015802383301468,1627577635420212030
73,3.9427642277338637,0.0011665045661060501,1627577635470462083
74,0.46827266588849836,0.005644495365333897,1627577635520368099
75,1.4657858016855767,0.0085802881618859,1627577635569089889
76,0.9800377079251965,0.007572979812250765,1627577635620340108
77,1.852770994615877,0.005005791239895501,1627577635678222894
78,1.0270000120362517,0.006194257139573877,1627577635720405101
79,1.1694422878243267,0.004505058752164878,1627577635781100988
80,0.7513197197471033,0.006594742303637402,1627577635820305109
81,2.4869052249013794,0.003238602140172651,1627577635871239900
82,0.8907900469681387,0.003662364714789726,1627577635920327901
83,1.356692545976025,0.013946005684391716,1627577635969296932
84,1.1596575716127013,0.010518150603912504,1627577636020358085
85,1.0071197472377165,0.004155122031175668,1627577636070544004
86,0.7012131318986707,0.008779438531810208,1627577636120287895
87,1.5585183480956752,0.011202578100059288,1627577636169166088
88,1.0224731290246836,0.010665687147365108,1627577636220288991
89,1.2365242642072354,0.007957639745843953,1627577636270514011
90,0.8156251602627331,0.011015542362281451,1627577636320395946
91,1.3903430291717862,0.013923379989027115,1627577636369328975
92,0.9543533600216163,0.014111267403100805,1627577636420257091
93,1.5449156510649702,0.0077730743685969755,1627577636470529079
94,0.8388336130212024,0.012101432716166767,1627577636520356893
95,0.718507486206855,0.006106706173808729,1627577636569034099
96,0.5081682913429604,0.011782257708593286,1627577636620206117
97,1.44126048275398,0.01441813206516718,1627577636677377939
98,0.9476897229780032,0.013656243389499485,1627577636720253944
99,1.7419106997407834,0.010008985371531779,1627577636780690908
100,1.007766874628906,0.012074704205377887,1627577636820261955
101,1.2626904428408545,0.023966635935109195,1627577636871439933
102,0.9947312929927841,0.02157303526175053,1627577636920394897
103,1.6275354344567412,0.00220863175828718,1627577636969266891
104,0.5859692724700603,0.014142590378816947,1627577637020360946
105,3.434301786075733,0.0029378180518867454,1627577637070367097
106,0.2996950072848934,0.007528175102095378,1627577637120357990
107,1.2588501045049905,0.017370545065833968,1627577637169190883
108,0.974297848329778,0.0136027515535084,1627577637220307111
109,1.1887156926184872,0.015848732746341392,1627577637271164894
110,0.8879851643783163,0.01721841474891011,1627577637320286989
111,1.5152152639321814,0.022804386955524506,1627577637369266986
112,1.0600621336561806,0.02197219441706269,1627577637420285940
113,1.6412999569641047,0.013894074754511185,1627577637470343112
114,0.9325280958547069,0.019401914514272752,1627577637520322084
115,1.6581297460317828,0.01905435309409747,1627577637569075107
116,1.0226069382459806,0.020564725609321623,1627577637620259046
117,6.028263750863274,0.0012780605950872335,1627577637677403926
118,0.44762170847989413,0.013972059852507681,1627577637720298051
119,1.7700780881414522,0.014464334570200452,1627577637780563116
120,1.023873935925259,0.013017808123638317,1627577637820329904
121,1.383173370506979,0.02661531839597184,1627577637871148109
122,1.107130358713222,0.02294722004643756,1627577637920345067
123,1.5036976070432229,0.021741671983149993,1627577637969343900
124,1.0108344212613067,0.024830301145875946,1627577638020540952
125,1.7225480556496355,0.016581502071105203,1627577638070703029
126,0.9461496787003378,0.022005220483383135,1627577638120367050
127,1.5655290671167628,0.03598854136339905,1627577638169140100
128,1.1408999140476674,0.032078704779211445,1627577638220760107
129,1.2036737088630973,0.010921931633516247,1627577638270683050
130,0.7086467712373019,0.02588712008601144,1627577638320457935
131,2.0410006802100726,0.01394318649088361,1627577638369436979
132,0.8477458107678615,0.01844808523093729,1627577638420253038
133,1.5016159704706658,0.034653359655568435,1627577638470500946
134,1.128714596063039,0.02967072800627413,1627577638520443916
135,0.7163122780919058,0.007045336721223354,1627577638568942070
136,0.5788325242852697,0.022772775219006346,1627577638620455026
137,1.704416488660395,0.02893897470287808,1627577638677376031
138,1.0909216767420986,0.025469475932741157,1627577638720602989
139,1.3791980768406777,0.03747979603710603,1627577638780543088
140,1.0439598838256523,0.036280195349281494,1627577638820449113
141,1.608416876564614,0.02420317408265454,1627577638871457099
142,0.9320821914497959,0.032974555988176266,1627577638920399904
143,1.6370293678735934,0.020656792577819542,1627577638969208002
144,0.8677594724213145,0.029409965611174056,1627577639020418882
145,1.6392791480473001,0.03807427415654629,1627577639070540904
146,1.105566887427194,0.035846431788419966,1627577639120475053
147,1.613754990168528,0.027081762982904812,1627577639169020891
148,0.9849596816599191,0.03424867976828551,1627577639220354080
149,2.0018967195535042,0.01750500404608888,1627577639271404981
150,0.9080716412452894,0.025619350427565333,1627577639320521116
151,1.6017970387417737,0.05408481991609144,1627577639369235038
152,1.226601228710188,0.043980603271640134,1627577639420430898
153,1.577986710440801,0.03015255084595641,1627577639470546960
154,0.990124823292656,0.040470276260317926,1627577639520549058
155,2.07167139334376,0.009793961345619573,1627577639569011926
156,0.6830020048160068,0.0276446642085201,1627577639620459079
157,1.5929311033812004,0.08003753622497185,1627577639677750110
158,1.2893846596396576,0.0592027148260546,1627577639720355987
159,4.925392850898541,0.0170764313352514,1627577639780505895
160,0.30807874196976437,0.03200768344936142,1627577639820314884
161,1.8165319063658516,0.06015548204632898,1627577639871432065
162,1.3019811473084026,0.04180428660271365,1627577639920351028
163,4.918847381431076,0.017510080891930645,1627577639969197034
164,0.15905181639046262,0.022125050209480433,1627577640020730972
165,1.682812607037674,0.05134167708836041,1627577640070607900
166,1.28897400879795,0.03485259437835293,1627577640120357036
167,1.437336005950162,0.022067501006981276,1627577640169172048
168,0.9657972304073468,0.031387504727579486,1627577640220437049
169,2.9508005922792537,0.004347885976987907,1627577640270656108
170,0.5319053374790421,0.01907856572836075,1627577640320502042
171,1.5933657053008126,0.042613438317348006,1627577640369358062
172,1.2086058489321476,0.0325227655829988,1627577640420358896
173,1.4266330416337007,0.0010399798124918346,1627577640470454931
174,0.615858553351162,0.01989646804192108,1627577640520368099
175,1.8588907366866214,0.017421498394254904,1627577640569072961
176,0.970718783663338,0.017699014559239487,1627577640620318889
177,1.3866948409473505,0.028198414312438372,1627577640677532911
178,1.039470993581007,0.02640858801776336,1627577640720424890
179,2.002165986617306,0.008265532864079137,1627577640780555009
180,0.804003800111524,0.0178486918430724,1627577640820353984
181,1.7166660650798822,0.01980619480017148,1627577640871419906
182,1.0551221590184103,0.019511049586639007,1627577640920376062
183,1.524806571072007,0.018628585405037826,1627577640969451904
184,0.9990092961422969,0.02119712633593549,1627577641020477056
185,3.0605770005770676,0.005492920019550719,1627577641070485115
186,0.6426110125900424,0.011055462809663201,1627577641120276927
187,1.5115742973257724,0.05116987380896375,1627577641169040918
188,1.3080570233702622,0.03594763148534724,1627577641220551967
189,4.612258278236023,0.016704641137534625,1627577641271481037
190,0.11849618141490925,0.015612420144718524,1627577641320523977
191,1.6673251629233439,0.03956257060888102,1627577641369827985
192,1.2887938449578824,0.026593992938172304,1627577641420317888
193,1.4336368726372488,0.023782351439053377,1627577641470670938
194,1.038541224958165,0.027938462964998863,1627577641520404100
195,1.6784090495302053,0.03472496093510235,1627577641569003105
196,1.1392464666983995,0.033501882741841196,1627577641620372056
197,1.8629345575628082,0.022835582343900623,1627577641677247047
198,1.0457153674898567,0.028516506860118942,1627577641720402002
199,1.6650580098290186,0.03629504696999806,1627577641780296087
200,1.1293412753694767,0.03501111220839721,1627577641820461034
201,1.5650984228429727,0.04801031464970784,1627577641871386051
202,1.1335968402520673,0.046026832996430074,1627577641920490980
203,4.3930398941400135,0.024087760957257256,1627577641968988895
204,0.016670801594557805,0.02048269151284353,1627577642020385026
205,1.7282477658146616,0.0481121586887168,1627577642070398092
206,1.3409860876704265,0.030945076071502466,1627577642120234966
207,1.365235391239897,0.01905342494876516,1627577642168884992
208,0.9557439930625224,0.027656667387810505,1627577642220328092
209,1.6636412242371208,0.01977258197698573,1627577642270360946
210,0.9140125370503269,0.02586965708622152,1627577642320292949
211,1.8965639499629057,0.02752030118042173,1627577642369030952
212,1.1781407663934733,0.02576914375800252,1627577642420248985
213,1.4972968944697185,0.033236547787692715,1627577642470324993
214,1.080056575878178,0.033416032610690795,1627577642520674943
215,1.6958183121668613,0.020252010502310742,1627577642568766117
216,0.9350198373408367,0.028861593431886857,1627577642620426893
217,1.9285492091618084,0.012092867172652575,1627577642677148103
218,0.802248606684894,0.02142653294788348,1627577642720196962
219,1.8124707729857832,0.03285077234732482,1627577642780277967
220,1.2556672418060566,0.026985453566704513,1627577642820359945
221,1.5022004761253511,0.009496766334347541,1627577642871865034
222,0.8158784925494231,0.020770453668693487,1627577642920547008
223,1.7151140962728515,0.03432558114051892,1627577642969166994
224,1.211675213909057,0.028713091607651887,1627577643020546913
225,1.5526666456296445,0.05431503640076713,1627577643070296049
226,1.2321938017262795,0.046644976257610195,1627577643120460033
227,3.1556211359682482,0.009165957608305856,1627577643168814897
228,0.7046069315971848,0.024044249132748524,1627577643220451116
229,1.678840355506811,0.04518237545478686,1627577643271102905
230,1.1897253573249418,0.03655063045019479,1627577643320372104
231,1.632296453282751,0.032262747841006675,1627577643369422912
232,1.0766430070436606,0.036904176648783336,1627577643420499086
233,1.7413061335109925,0.027382414048667328,1627577643470477104
234,0.9967131320223395,0.03409101157367543,1627577643520332098
235,2.973923077101031,0.010630651072286564,1627577643568871974
236,0.6887147643271496,0.017721958683720937,1627577643620518922
237,1.642634482471187,0.060261009091628175,1627577643677417039
238,1.355572378162477,0.04305743282390296,1627577643720474004
239,1.5856648827412805,0.016727795223643094,1627577643780250072
240,0.9217428567836752,0.03216183132995085,1627577643820374011
241,1.996850061021686,0.03063977284659072,1627577643871202945
242,1.1348584122421403,0.029505547590436044,1627577643920232057
243,1.5754574842944586,0.021750276629404743,1627577643969265937
244,0.9493994789099931,0.02862353623425516,1627577644020612955
245,1.9273359124887013,0.028937407912194076,1627577644070709943
246,1.170962486953644,0.0276214180615205,1627577644120410919
247,1.5050838859600186,0.024314160127967395,1627577644169238090
248,0.9795281132012796,0.029424128616459582,1627577644220546960
249,1.9622360317801613,0.007410575612547867,1627577644270479917
250,0.6977469141675003,0.020280928034922457,1627577644320306062
251,1.6966364401939449,0.047326194638734324,1627577644369225978
252,1.3122672951653926,0.03555068484849025,1627577644420325994
253,1.3391255487494444,0.021082707959326624,1627577644470515966
254,0.9000506929731582,0.03224143108024792,1627577644520492076
255,1.9353917552189757,0.0353267988813547,1627577644569128990
256,1.1925790397999407,0.03212967282502061,1627577644620280981
257,1.547020483187625,0.027605082300340002,1627577644677364110
258,1.0011907377589493,0.03338280951576646,1627577644720247983
259,1.7589553962639262,0.04962370225729875,1627577644780213117
260,1.2452346122798035,0.04312668602500346,1627577644820390939
261,1.805600487949199,0.01815854704187521,1627577644871149063
262,0.9141303522269113,0.03248524208389234,1627577644920361042
263,1.7042242635188347,0.03586191978244026,1627577644969032049
264,1.0642617724197594,0.036173013312430564,1627577645020440101
265,1.7496038913566243,0.03440962573806401,1627577645070131063
266,1.103196851805111,0.03664151818775055,1627577645120362997
267,1.9362942928155318,0.02304041842498503,1627577645168765068
268,1.0139246694463369,0.02976004297521463,1627577645220417022
269,1.5883267468651603,0.04866791838487537,1627577645271059989
270,1.1553960814197248,0.04349483611095242,1627577645320327043
271,1.7221746001197538,0.04972141001874806,1627577645369426012
272,1.1832159321317057,0.0489579696079938,1627577645420509099
273,2.2539904519985083,0.004049897024358523,1627577645470588922
274,0.6200905487075161,0.031168255260974928,1627577645520368099
275,1.76372486332578,0.06202438059904039,1627577645568883895
276,1.292892091460022,0.04673116057781148,1627577645620460987
277,4.492669719597923,0.006077039768363028,1627577645677310943
278,0.5122897787624106,0.025039877379460618,1627577645721133947
279,1.6754589222852767,0.08480457078599032,1627577645780165910
280,1.3778690185154052,0.05881130925994089,1627577645820472002
281,5.870385467867496,0.001234110109683617,1627577645871026992
282,0.6476565421943712,0.03361283587933852,1627577645920540094
283,1.777967637673954,0.06434780637679896,1627577645969176054
284,1.2724618820340934,0.04919564686398415,1627577646020291090
285,2.1064395088130348,0.013059332077096687,1627577646070559978
286,0.872907881341523,0.031133299107697514,1627577646120321035
287,1.6008427453753646,0.07279216895869454,1627577646168737888
288,1.232514838601058,0.057803424691839515,1627577646220366954
289,4.046306197096937,0.014228090388362043,1627577646270603895
290,0.48429490343706627,0.026487485914781513,1627577646320338010
291,1.6758758353507208,0.08205880844958575,1627577646369102001
292,1.342718307848727,0.057491397580250105,1627577646420398950
293,1.5650412478532796,0.025719787310251183,1627577646470204114
294,0.9450721194873339,0.04477546897297059,1627577646520555973
295,2.120783987075132,0.03944471766573547,1627577646568859100
296,1.1539832078658947,0.03734221801936516,1627577646620357036
297,1.3133799439604263,0.03121624558795978,1627577646677154064
298,0.8688362415301025,0.04096321329197022,1627577646720390081
299,2.1413395232151275,0.04647651826323154,1627577646780025959
300,1.3389930990167196,0.03689079364072891,1627577646820318937
301,1.4061293860863036,0.05926121722667293,1627577646871265888
302,1.1022194012368747,0.05584010357753657,1627577646920562028
303,2.3501875481208807,0.012293402432931103,1627577646968733072
304,0.7446927850571612,0.03431950867894155,1627577647020317077
305,1.7027358338902452,0.09586565257372508,1627577647070441007
306,1.3605720018282297,0.06997597353259273,1627577647120364904
307,1.9126257480795363,0.0018360105988033603,1627577647168824911
308,0.6753027686815392,0.04078621631493049,1627577647220240116
309,1.8096519245769038,0.06768912981664892,1627577647270730972
310,1.2385941306434023,0.05358150554635505,1627577647320265054
311,2.1365441164000236,0.018802668661083467,1627577647369250059
312,0.9345119472169094,0.034965209549728225,1627577647420444011
313,1.5434398865745351,0.048080223146547835,1627577647470002889
314,1.0428034101243635,0.046758311210141866,1627577647520778894
315,2.081290000617588,0.03604616763556344,1627577647568732976
316,1.162438762964696,0.037381364730226185,1627577647620362997
317,1.5141135513348833,0.058318914152133326,1627577647677139997
318,1.1184764715472193,0.0545405568589208,1627577647720515012
319,1.6843260796744202,0.08028358447163227,1627577647779639005
320,1.2312688104208094,0.07215039889819948,1627577647820436000
321,3.7658442750534666,0.026706970995902163,1627577647871356010
322,0.5318093489977391,0.02823476022797097,1627577647920383930
323,1.5045685832178965,0.06535911550577768,1627577647968859910
324,1.1001707018165008,0.05192077554126868,1627577648020411014
325,2.1481412243536058,0.03792579488657075,1627577648070306062
326,1.2135356371781167,0.03910460658917695,1627577648120273113
327,1.373158407470181,0.05682204811741796,1627577648168636083
328,1.0183549583217224,0.056749231299150965,1627577648220393896
329,2.306409447858698,0.0387241473712343,1627577648269933938
330,1.1580148088600344,0.03862752076999965,1627577648320408105
331,1.5395430069902396,0.07048528402308339,1627577648369044065
332,1.1654018735644742,0.06222802108606025,1627577648420279026
333,1.8077736202146604,0.02413801962461844,1627577648469749927
334,0.8740605333211806,0.04592240242442912,1627577648520426034
335,2.013379416474673,0.053186289928800264,1627577648568732023
336,1.2402723947520666,0.04538008814268436,1627577648620229005
337,1.3899016078528084,0.04838021577074367,1627577648676594018
338,0.9895948341406937,0.05432245016285388,1627577648720320940
339,2.3895671955418805,0.03610915153409473,1627577648780011892
340,1.133631640807521,0.03505133596946196,1627577648820286989
341,1.5120181217750677,0.12610011182523329,1627577648871131896
342,1.2923190611916977,0.09466380979571286,1627577648920339107
343,3.915500608843321,0.02824004869219268,1627577648969214916
344,0.5494931731398878,0.03818964267586489,1627577649020468950
345,1.749902741617575,0.09042530755374911,1627577649070266962
346,1.295351843463719,0.06578841265823232,1627577649120397090
347,4.662921548705962,0.005943707077540647,1627577649168828964
348,0.5434500103733697,0.036376918204969216,1627577649220290899
349,1.7626386527449447,0.06749446971536258,1627577649270756959
350,1.2463198211846453,0.05124924183304879,1627577649320336103
351,1.5270913982335679,0.0717829194164849,1627577649368763923
352,1.1598959942457119,0.06846651346747089,1627577649420459032
353,2.403343214456688,0.02272777592154147,1627577649469769001
354,0.8752610101599871,0.04169874994671656,1627577649520355939
355,1.6008011559828137,0.10991963418516755,1627577649568829059
356,1.2662584106337722,0.08484060546229842,1627577649620373010
357,2.716979103612956,0.018093613999075782,1627577649676747083
358,0.8227680586254795,0.04578490747648036,1627577649720417976
359,1.7470411746171224,0.09307597016281072,1627577649779582977
360,1.2771651262156347,0.0729995754894004,1627577649820394992
361,2.0134230907409423,0.008966381320886306,1627577649871015071
362,0.7273975979243321,0.045191747532310624,1627577649920241117
363,1.6462852064573053,0.07504490310515996,1627577649968713045
364,1.1417043008019605,0.06377499623850229,1627577650020382881
365,1.7316049186176763,0.05388982810015703,1627577650070194959
366,1.0927205280028325,0.061211759750311207,1627577650120352983
367,1.6735972184941694,0.055874730814766814,1627577650168780088
368,1.0404125281711072,0.06319161760411349,1627577650220365047
369,1.8362725560882673,0.07027574473897731,1627577650270087957
370,1.1887014547658077,0.06718071763541049,1627577650320369958
371,1.918071490324698,0.0284553732993213,1627577650368923902
372,0.9033896750731714,0.049811172814320875,1627577650420341968
373,1.6929334418224184,0.09123273855601781,1627577650470032930
374,1.2393880770666321,0.07533447378399091,1627577650520555019
375,1.625612223367008,0.05231498029763074,1627577650568747043
376,1.010869040049931,0.06900693186012118,1627577650620383024
377,2.188887243719404,0.04496241571615259,1627577650676589012
378,1.0537265186929021,0.050572136435122594,1627577650720536947
379,1.6143718437831174,0.07763631625357849,1627577650780297994
380,1.1545577373987206,0.07078791477305195,1627577650820221900
381,1.729016687554238,0.06347185983530253,1627577650870935916
382,1.1018807113391285,0.07035090792482676,1627577650920315027
383,1.7939834005544,0.04844487250192752,1627577650969126939
384,0.9961233391656599,0.06221806375785165,1627577651020390033
385,1.651994396407271,0.09879309840166325,1627577651070018053
386,1.1904788801848245,0.08713157276129772,1627577651120196104
387,3.737170884184262,0.01794250281026702,1627577651168768882
388,0.5477571863329462,0.04300717286545089,1627577651220232963
389,1.779261677352822,0.11115653463366976,1627577651270900964
390,1.37767852117305,0.07820024207667267,1627577651320204973
391,1.3383361535530471,0.04480075961475989,1627577651369946956
392,0.9206456885341328,0.06911023455795959,1627577651420449972
393,1.7764040168021664,0.0965362900907298,1627577651469979047
394,1.2069205606700826,0.08494004579227966,1627577651520904064
395,2.092149202208826,0.033524057635162294,1627577651568802118
396,0.9345011810627759,0.05802986016110219,1627577651620151042
397,1.868124395371969,0.05993841287659871,1627577651676985979
398,1.1111475892022624,0.05893632408702549,1627577651720341920
399,1.5887233563139644,0.10156866354555408,1627577651779891967
400,1.2026308626244446,0.08912563202083348,1627577651820348978
401,1.8553375369645821,0.049035402628535,1627577651871892929
402,1.0002964945410482,0.07060940367225801,1627577651920315980
403,1.796433182998365,0.08601248644784804,1627577651969321966
404,1.1707713918561522,0.08054588761933822,1627577652020454883
405,2.733775079749576,0.010306961474241027,1627577652070270061
406,0.6503649629693569,0.047815490894142706,1627577652120198011
407,1.6689332240196662,0.13733812260033307,1627577652168747901
408,1.3350210473577815,0.09956779437271854,1627577652220319986
409,2.5459459756461023,0.014841068358040572,1627577652270231008
410,0.8034949643050968,0.055317186229934534,1627577652320461988
411,1.6708573098276622,0.08895633418496726,1627577652369100093
412,1.1389698350021051,0.0771972461909278,1627577652420269012
413,1.8104660827268948,0.08620906957373464,1627577652470396995
414,1.225227756151652,0.08295043913923085,1627577652520715951
415,2.5806693078798535,0.014707486207921824,1627577652568844079
416,0.7193941826260963,0.04961239757046441,1627577652620354890
417,1.6040109854823996,0.15128857405217974,1627577652676583051
418,1.2980746570361736,0.11146718294991645,1627577652720252990
419,4.338503419600179,0.04126469636545466,1627577652779737949
420,0.3110822277478431,0.045466468790039107,1627577652820355892
421,1.6854749403555245,0.1368304467507084,1627577652870949029
422,1.3372487015571393,0.09342612637631512,1627577652920373916
423,1.7082471267484407,0.044984748856236344,1627577652968925952
424,1.010109009397953,0.07168994113562954,1627577653020711898
425,1.7930566700976254,0.06605122893665097,1627577653069672107
426,1.0529377032643175,0.07172034226623217,1627577653120295047
427,2.1216134323290525,0.04675547240952964,1627577653168768882
428,1.0692947252804403,0.05401894117314188,1627577653220285892
429,1.5813397048979583,0.11376199988926823,1627577653270965099
430,1.225687408642952,0.09445461680126695,1627577653320314884
431,2.494375007962252,0.022905161283443606,1627577653369848966
432,0.8325343102329117,0.05462385004319327,1627577653420403957
433,1.7635787188571017,0.08925315060292216,1627577653469947099
434,1.2143668172067115,0.07441550906421388,1627577653520422935
435,1.6807916891351635,0.061549804522515406,1627577653568873882
436,1.0758534916444908,0.07228607805036033,1627577653620217084
437,1.8026038586457278,0.053284789704062085,1627577653676486015
438,1.0131084609409453,0.06534077926580273,1627577653720482110
439,1.7961482870062164,0.04547594725626294,1627577653779438972
440,0.9732142064074467,0.0577652368919434,1627577653820458889
441,1.7378551251730834,0.09225161696189431,1627577653871056079
442,1.248403019506042,0.07864855656763585,1627577653920492887
443,1.5775878891389323,0.06036281844543172,1627577653968841075
444,1.0133919574330652,0.07636896305326286,1627577654020361900
445,2.151888791367213,0.04650518988623839,1627577654070221900
446,1.0188870535898618,0.05591991042589564,1627577654120227098
447,1.7821039072375084,0.06953997204066893,1627577654168808937
448,1.1747264573466119,0.06496832016188711,1627577654220489978
449,1.5944022005269873,0.08111577838018581,1627577654269916057
450,1.1306834288288385,0.08037345312082665,1627577654320182085
451,2.040321558883381,0.024690304774916818,1627577654369046926
452,0.8145657024149262,0.05471118757513179,1627577654420344114
453,1.7432344160473547,0.10824060624109812,1627577654469902038
454,1.2898491262786291,0.08497648938203349,1627577654520471096
455,1.5617980564330722,0.05757409587439152,1627577654568645000
456,0.9984473024324889,0.07799301203731224,1627577654620320081
457,2.244245107311041,0.04408104514965221,1627577654676460981
458,0.988152284915432,0.054003844623870326,1627577654720319986
459,1.63094066882479,0.10719769081025521,1627577654779367923
460,1.2316918991749803,0.08881821954332021,1627577654820276021
461,2.2139221628812282,0.019767661597188436,1627577654870851039
462,0.8108102540158861,0.0550019384151637,1627577654920286893
463,1.7613505369081326,0.09267901953360623,1627577654968801021
464,1.2303324873980173,0.07608756619717462,1627577655020490884
465,1.7925631719004353,0.03408607709780577,1627577655069643974
466,0.936076224559633,0.057870758281147856,1627577655120388031
467,1.6893524802795408,0.08256460439055176,1627577655168842077
468,1.154587380035494,0.07483445378609421,1627577655220369100
469,1.945628971457002,0.03518142839254253,1627577655270661115
470,0.951099659035417,0.05541625287120304,1627577655320194959
471,1.7984224453350448,0.06847493681900348,1627577655368712902
472,1.1653141911343388,0.06340557323330669,1627577655420469045
473,1.618904592882388,0.07225053257979691,1627577655469734907
474,1.11726882275034,0.07391790682974674,1627577655520378112
475,1.7418087780622242,0.08471714643771704,1627577655568543910
476,1.170449513097491,0.08311148362972362,1627577655620462894
477,2.943989121435396,0.019086119704566074,1627577655676029920
478,0.7149045558909517,0.04511357453007324,1627577655721673011
479,1.652875646192532,0.11812003647114473,1627577655779421091
480,1.2890586177959498,0.08847933917348605,1627577655820235013
481,3.055534751199209,0.014504958919796038,1627577655870829105
482,0.7503003932149181,0.04559858677503359,1627577655920488119
483,1.8132166986931428,0.061635473235283844,1627577655968753099
484,1.1401463215045649,0.053722244645146,1627577656020359039
485,1.5163585432716644,0.10776156796215215,1627577656070024013
486,1.2065208910730874,0.09160606443502875,1627577656120441913
487,3.446928910640859,0.02907406343681573,1627577656168700933
488,0.6940151620678132,0.03898820864070482,1627577656220657110
489,1.6760593844367775,0.1331792826974071,1627577656269773960
490,1.3628964072916088,0.09469404504973272,1627577656320236921
491,6.085656561910878,0.006892025189472726,1627577656369277000
492,0.5987946339318606,0.05712533204439461,1627577656420461893
493,1.9585722547694167,0.08574361421104437,1627577656469757080
494,1.2931404308593544,0.06405502879868394,1627577656520462989
495,1.542822454789706,0.05121684624045486,1627577656568548917
496,1.0293650238876313,0.06345042578565557,1627577656620206117
497,1.6936705687184672,0.07101684692835998,1627577656676208972
498,1.105401614514523,0.07156927634008663,1627577656720789909
499,2.193806950707427,0.04766876969513251,1627577656768861055
500,1.1256774618367937,0.052378374208190505,1627577656820426940
501,1.5427163453587425,0.05063242283494548,1627577656871134996
502,0.9840961340304726,0.0586091537711032,1627577656920212030
503,1.8162702259765136,0.07278363275608701,1627577656968794107
504,1.216362663554037,0.06620929432590884,1627577657020936965
505,3.7257982958892675,0.010497485735130053,1627577657069652080
506,0.5502933366109537,0.035202940245985775,1627577657120424985
507,1.636432892703645,0.1273571119895963,1627577657168625116
508,1.3609086508924688,0.08892137410282466,1627577657220231056
509,4.437794795866222,0.005549878990071228,1627577657270792961
510,0.6182931270724468,0.047758738748102686,1627577657320292949
511,1.8380476804685026,0.09417106985250746,1627577657368819952
512,1.3221884517981346,0.06939828053765056,1627577657420367002
513,1.412597939834611,0.023097536196083894,1627577657470751047
514,0.8251142832101106,0.052306488250373734,1627577657520457029
515,2.0602480214727468,0.049366715867716356,1627577657568732023
516,1.142624031796665,0.04527536994766913,1627577657620799064
517,1.6060735367207322,0.05690838771595712,1627577657675983905
518,1.124515518157125,0.056206897046108935,1627577657720752954
519,1.8621025362170347,0.040945297012865416,1627577657779431104
520,1.064962299331075,0.048997065371215655,1627577657820507049
521,1.7189425034116426,0.07538015267419587,1627577657870798110
522,1.2310157590381554,0.06625435990815638,1627577657920737981
523,1.6636963049190332,0.0663601747569924,1627577657968961000
524,1.1220486222878328,0.07112777144000665,1627577658020350933
525,2.073803107699283,0.041726562851841884,1627577658070818901
526,1.0271218724696975,0.05365743426179514,1627577658120316982
527,1.6663753494269469,0.05794386529226439,1627577658168642997
528,1.0610948619092255,0.06050630697820896,1627577658220339059
529,2.6727572933592945,0.014675705205130148,1627577658270070075
530,0.721452998230594,0.03477181603716155,1627577658320324897
531,1.6822605470522014,0.06435409973033406,1627577658369194030
532,1.2057624021840865,0.052047389172623346,1627577658420460939
533,1.6451231909623598,0.06522846620739892,1627577658469726085
534,1.1886306238953728,0.06310581508409902,1627577658520566940
535,2.1732809700483195,0.028453980432922035,1627577658568552970
536,0.9742682362986499,0.043126493900217444,1627577658620476961
537,1.6102542844720045,0.07868891509418624,1627577658675769090
538,1.1828594355389765,0.06747490572367217,1627577658720792055
539,2.699542624266524,0.016660035513231992,1627577658768897056
540,0.8032705594468821,0.03717682558420146,1627577658820514917
541,1.543144023991625,0.05976915430831051,1627577658870712041
542,1.062604101345856,0.05409768965538606,1627577658920355081
543,1.8977121707145326,0.06371534540935125,1627577658968908071
544,1.28119117600554,0.057475301312638116,1627577659020384073
545,1.594337888698699,0.03867566482633031,1627577659070056915
546,0.9754801803299635,0.05323511047734541,1627577659120253086
547,1.7654884620721332,0.08791381632454257,1627577659168850898
548,1.2744410795368613,0.07352001262403794,1627577659220264911
549,2.890044846882754,0.005186727127179115,1627577659270742893
550,0.6456886396301531,0.04292049972928064,1627577659320657014
551,1.7260609390273376,0.0996705638121715,1627577659369127035
552,1.3097964367883173,0.07398931531777651,1627577659420403003
553,1.6784750592845994,0.022992953403498922,1627577659469921112
554,0.8701508022087214,0.05226169197473631,1627577659520498991
555,2.0243223292406087,0.04216448836311565,1627577659568603038
556,1.0456529503339698,0.04406445586534905,1627577659620259046
557,1.7063312605904828,0.04205033649533463,1627577659677017927
558,1.0634215773236568,0.045714708934510496,1627577659720432043
559,1.7311501342905726,0.06064318441870679,1627577659779833078
560,1.201628249140558,0.05589177553432324,1627577659820437908
561,1.6503234113550607,0.04863379300369038,1627577659871026992
562,1.0599072668811695,0.05648890122975064,1627577659920507907
563,1.7808964302937669,0.06024654159906322,1627577659969408988
564,1.1424802181184797,0.06027906591570066,1627577660020884990
565,1.781485434396619,0.03571632392990562,1627577660070611953
566,0.9616074168973334,0.05072818880746585,1627577660120439052
567,2.0438690871238694,0.04014331378094411,1627577660168963909
568,1.0908025866489566,0.04215514874521767,1627577660220768928
569,1.6145999373879512,0.07019790170040606,1627577660270311117
570,1.1950009948426834,0.06202331528833795,1627577660320403099
571,1.7132418280263322,0.07501029949226169,1627577660368961095
572,1.2031394562375293,0.07243375709222362,1627577660420473098
573,1.6546098186470886,0.03975953878041001,1627577660470683097
574,0.9205358655093487,0.06175946508806403,1627577660520740985
575,2.7666028806710345,0.034755169306328666,1627577660568871974
576,0.9659685266340028,0.030964647299204864,1627577660620325088
577,1.5089742217223319,0.09092526573663072,1627577660675997018
578,1.22371191868247,0.07072845965606271,1627577660720997095
579,2.168070270760727,0.027844197030150813,1627577660779438972
580,0.986466541625151,0.045943705144957804,1627577660820513963
581,1.6508024081089274,0.06791050521382509,1627577660870832920
582,1.1365564689162886,0.06221752463608811,1627577660920624017
583,2.005187057167987,0.03315471825902945,1627577660968969106
584,1.0049307585422156,0.04638041223678007,1627577661020647048
585,1.7139165932958775,0.06371760169983846,1627577661069734096
586,1.1669065559390237,0.058561974658160154,1627577661120466947
587,1.6579121247043513,0.06316009238465203,1627577661168857097
588,1.1252091672689377,0.0654120030675209,1627577661220366001
589,2.301985863710791,0.024512931092459337,1627577661270772933
590,0.8874095417701784,0.041968653880710347,1627577661320314884
591,1.6520897510147114,0.060240296146393355,1627577661368788957
592,1.1168754207599365,0.055137714216409756,1627577661420381069
593,1.744270940812734,0.06423459104389542,1627577661469984054
594,1.1928547866860115,0.06211385978442396,1627577661520409107
595,1.6338427590097326,0.0535046683850091,1627577661568763017
596,1.0403442401316916,0.06303814531565119,1627577661620410919
597,2.189348527379301,0.020128091835261798,1627577661676564931
598,0.7872941204314641,0.041898784904606086,1627577661720489025
599,1.6722348607062145,0.0821579476681201,1627577661779588937
600,1.2355726896475214,0.06595201668079698,1627577661820385932
601,1.7840623221475542,0.02854268104333706,1627577661871176004
602,0.9342031916454876,0.04959049078653513,1627577661920356988
603,1.683159417417342,0.09317056527020677,1627577661969013929
604,1.2437832261186348,0.0768631381267973,1627577662020499944
605,3.1225743882015125,0.011200973042629942,1627577662070477962
606,0.6824941877603106,0.04131178311846181,1627577662120382070
607,1.8535214222357905,0.06290398686522497,1627577662168911933
608,1.2223651673688145,0.05045506869041907,1627577662220508098
609,1.6382520156740803,0.06473574926674255,1627577662270114898
610,1.188964195350315,0.06228687924942467,1627577662320333957
611,1.5975721685448194,0.08114800284803016,1627577662369731903
612,1.145778788788234,0.07898279569568094,1627577662420371055
613,2.2685315060374442,0.03467945742414907,1627577662469965934
614,0.9649013487668423,0.05162062081707284,1627577662520811080
615,1.7610943775875614,0.04777248393573488,1627577662568794012
616,1.0208155117923434,0.052456284643968,1627577662620410919
617,2.018059432880733,0.040082827045681814,1627577662676788091
618,1.1070178935745605,0.04337819295207547,1627577662720338106
619,1.653048891315658,0.07509743285146447,1627577662779665946
620,1.2318323291414093,0.0648845517042413,1627577662820548057
621,1.500411637732909,0.06700928547598557,1627577662871292114
622,1.051009440775097,0.07389881861316033,1627577662920506000
623,2.6948861153304993,0.03359220344494354,1627577662969166994
624,0.9392408145757982,0.03961841611327618,1627577663020445108
625,1.5136826056681396,0.05531799037776648,1627577663070257902
626,1.0200533599448036,0.05430469023454607,1627577663120271921
627,1.923921032233234,0.05488323138530214,1627577663169164896
628,1.2144300489947826,0.052384427942146775,1627577663220565080
629,1.5084032101993132,0.04072620305880734,1627577663271219015
630,0.9558072895307599,0.05287158432286575,1627577663320518970
631,1.8864768743964275,0.06203236562872948,1627577663369031906
632,1.2179664094282043,0.056169884274705144,1627577663420443058
633,1.6339379141228807,0.047012535459870414,1627577663470189094
634,1.0400602879618672,0.05618630849326829,1627577663520503044
635,1.7211906671120494,0.08795178104740961,1627577663568934917
636,1.2414020396026197,0.07643037471023757,1627577663620259046
637,1.7027043663600905,0.033664226165689815,1627577663676908969
638,0.9027030965408294,0.059750691577306,1627577663720472097
639,2.0864196701726394,0.04533183095531456,1627577663779784917
640,1.0574051718624884,0.04773620141981544,1627577663820307970
641,1.631611785725668,0.07439547796523249,1627577663871210098
642,1.1814321891118351,0.06680255222073099,1627577663920367002
643,1.770715549508051,0.05191126522213842,1627577663969425916
644,1.0782435658920009,0.06154449606194964,1627577664020637989
645,1.8444278740299473,0.04864405988996321,1627577664070451974
646,1.051892435318368,0.05633289088344329,1627577664120604038
647,1.7445853826310957,0.07910114860002658,1627577664168993949
648,1.2183740912097902,0.07110297019950758,1627577664220582962
649,2.0116023329036494,0.021469090406662998,1627577664270371913
650,0.8449555585759301,0.04820558275579997,1627577664320576906
651,1.7032204005116214,0.09072526575092972,1627577664369126081
652,1.2427377288518053,0.07364208442064986,1627577664420443058
653,1.7970919181777198,0.016187866141779285,1627577664470467090
654,0.7824054746920219,0.049407189490744845,1627577664520394086
655,1.8940442948485634,0.0850544499368597,1627577664568898916
656,1.335798750079433,0.06520535960185173,1627577664620369911
657,1.432172321381344,0.020962569304186978,1627577664676996946
658,0.8161345221708873,0.04906365091831613,1627577664720519065
659,1.6889001949199987,0.11221757654957767,1627577664779994010
660,1.3002454582433614,0.08641708545697141,1627577664820429086
661,2.777384712643057,0.0059590120261605,1627577664871042966
662,0.6797646014742411,0.04936012866706777,1627577664920325040
663,1.7464742626410454,0.1215294232498771,1627577664969033956
664,1.3437677075387715,0.08900293851450432,1627577665020287036
665,1.567633022400922,0.04148501797156301,1627577665069801092
666,0.9413142090837447,0.07076060350235502,1627577665120292901
667,2.512605825296736,0.03690289522314093,1627577665168689966
668,0.9275363731466908,0.04250548230680911,1627577665220369100
669,1.7219835304325608,0.06821868439718931,1627577665271203041
670,1.2083149227290075,0.05856767765885143,1627577665320509910
671,1.483583017685129,0.09139289972878144,1627577665369394063
672,1.1374364361627611,0.08506257834365724,1627577665420427083
673,2.0477472552092926,0.046936702357857074,1627577665469954967
674,1.026669109519466,0.06300942076624871,1627577665520544052
675,1.9755916940287543,0.05051527049790893,1627577665568914890
676,1.0733800742724378,0.055218719798551016,1627577665620420932
677,1.5514754473005603,0.1032134746875253,1627577665677066087
678,1.1832518077344674,0.08922368382477176,1627577665720572948
679,2.5030860246864433,0.026803788412080233,1627577665780632972
680,0.8717517666522303,0.05164582260556236,1627577665820346117
681,1.6170972624833893,0.06966323151500402,1627577665871047973
682,1.0600091084118342,0.06653565361421995,1627577665920267105
683,1.8133494451634264,0.06735310884451563,1627577665969084024
684,1.1667083759814216,0.06752362148818387,1627577666021174907
685,1.6328050541731352,0.047887831734196716,1627577666071057081
686,0.9697725142406579,0.06347222614093945,1627577666120326995
687,1.7036800663340539,0.10844429992584523,1627577666168855905
688,1.2473042886396088,0.09141737437564933,1627577666220261096
689,3.9443638700425527,0.024910666618855826,1627577666269902944
690,0.49620634595003876,0.04094010748577393,1627577666320255041
691,1.6849407333741944,0.14022301710808538,1627577666368722915
692,1.3765449081183676,0.09689463935719192,1627577666420321941
693,2.5387952431091687,0.0028501228295226243,1627577666469825983
694,0.7007251255051128,0.054233558538644325,1627577666520461082
695,1.7219536994620974,0.10569091179787891,1627577666569031000
696,1.2385285705826488,0.0830418918809087,1627577666620529890
697,1.7933517338755265,0.0389546204109403,1627577666675776004
698,0.9630839022918956,0.06340092607354506,1627577666721065044
699,1.7825201547184681,0.09092590019542157,1627577666779299974
700,1.216745853132683,0.07970844439234788,1627577666820369958
701,1.6362353677779637,0.0500147940994453,1627577666870811939
702,0.968020917875247,0.07068800508517327,1627577666920476913
703,1.8132548479122343,0.07617671946278982,1627577666969010114
704,1.1347189287570214,0.07449126391524606,1627577667020395994
705,1.7911192435555525,0.07802627395521057,1627577667070039033
706,1.1681904031390544,0.0785528691904198,1627577667120368957
707,4.385531050630201,0.013980007267599955,1627577667169122934
708,0.39886938759138735,0.04455259963482149,1627577667220295906
709,1.6318688498103158,0.1892678118041923,1627577667270694017
710,1.4035778379416528,0.1275210293877208,1627577667320431947
711,4.6447196811504075,0.07310455474164879,1627577667368976116
712,6.257438413852055,0.05154396174556884,1627577667420408964
713,1.7493026491243424,0.16366421602125833,1627577667469764947
714,1.4480745329830709,0.10207042026565835,1627577667520374059
715,1.3388494849521013,0.0559849529986429,1627577667568650960
716,0.964523203349561,0.08607913741510038,1627577667620219945
717,2.9888743696714712,0.040443608555762456,1627577667676753044
718,0.8011843487575114,0.04032368213393511,1627577667720617055
719,1.5916184562041453,0.10199100823591763,1627577667779453992
720,1.2315494827521203,0.07933571186293169,1627577667820264101
721,1.5966969644385105,0.06473997532780952,1627577667870902061
722,1.054559365573875,0.07782472870002763,1627577667920416116
723,1.9988953288302211,0.04258294399028386,1627577667969023942
724,0.9518081116308093,0.05964687902819924,1627577668020493984
725,1.7762976216804507,0.06514282609499854,1627577668070002079
726,1.1118841409547295,0.0642859062255911,1627577668120532989
727,1.7101840803696056,0.09390760012639196,1627577668168688058
728,1.2349236139911635,0.08414068813978738,1627577668220380067
729,1.636278259672416,0.028342480036146717,1627577668269723892
730,0.8190982635861621,0.06325422670217742,1627577668320239067
731,1.7840207811353894,0.10643264299325446,1627577668369138956
732,1.2635577811539718,0.08626631508257859,1627577668420330047
733,2.3402918388871004,0.023365721858780462,1627577668469906091
734,0.8743664927906627,0.05206104663273541,1627577668520467042
735,1.5234816104194464,0.116256737135065,1627577668568676948
736,1.1598394517576296,0.09562405822876603,1627577668620285034
737,3.0540357597928542,0.033864693342493805,1627577668676551103
738,0.8657548869864944,0.043472115585726376,1627577668720357894
739,1.5871651862478218,0.0994953717903932,1627577668779596090
740,1.1904920212259136,0.08039684734281276,1627577668820225954
741,1.640359669075609,0.03848901970777635,1627577668871190071
742,0.9123337552170492,0.06442760206890114,1627577668920224905
743,1.85632774870425,0.08777202797769275,1627577668969347000
744,1.2398594978864501,0.07548676148460737,1627577669020443916
745,1.5796302290463542,0.05422678206444167,1627577669069679021
746,0.9881026082271993,0.07157866272284655,1627577669120341062
747,1.874792656925924,0.05634815681043103,1627577669168646097
748,1.0416610901068792,0.06403840959698547,1627577669220242023
749,1.7436255881935894,0.05083670645601364,1627577669270880937
750,1.011597549661304,0.06059851205318721,1627577669320312023
751,1.6558776657905594,0.08254821156253928,1627577669368846893
752,1.1519314569298507,0.07702737105640525,1627577669420272111
753,2.0031430037275015,0.05167883230492976,1627577669469865083
754,1.0958306434745984,0.06157391878535198,1627577669520396947
755,1.5762668048016033,0.0533829868528414,1627577669568492889
756,0.9667874550591873,0.06471380906547085,1627577669620491981
757,1.8085186790061547,0.08747485051003848,1627577669676129102
758,1.2391607629560324,0.07695469875650879,1627577669720784902
759,2.910508802959008,0.009485634146395144,1627577669779450893
760,0.6656162626653406,0.044171308365915166,1627577669820296049
761,1.5952977486186228,0.19239254844810277,1627577669870965957
762,1.3696499357473035,0.13415807382020278,1627577669920480012
763,4.568140642645578,0.07623341755689618,1627577669968616962
764,6.266329727242068,0.05280211498314849,1627577670020476102
765,1.7244288641804115,0.1593189732708119,1627577670069993019
766,1.404385660931751,0.1005250708271859,1627577670120395898
767,2.454719099611241,0.00889835025639138,1627577670168853998
768,0.8071322317161291,0.05402603037068574,1627577670220427036
769,2.101925533224276,0.042208797944512155,1627577670271222114
770,0.9940388859164653,0.043874088071364434,1627577670320225954
771,1.487788675635396,0.15869640789097575,1627577670368679046
772,1.276960759068491,0.11833804246942742,1627577670420239925
773,4.380010291920138,0.0823497376470081,1627577670469784021
774,6.062762312021409,0.040875095714978195,1627577670520385026
775,1.7227904698236889,0.1409685299745429,1627577670568494081
776,1.463487916474947,0.08534994669553891,1627577670620295047
777,1.0708261378593513,0.03778124138708097,1627577670676080942
778,0.8570609348562028,0.06794557198149899,1627577670720696926
779,1.975417941178773,0.074117422218779,1627577670779401063
780,1.1882258606933358,0.06611100550261233,1627577670820312023
781,1.598216663266086,0.0886025084410308,1627577670870939970
782,1.1523455709007646,0.085285201083123,1627577670920277118
783,3.676236617782158,0.02138322628859005,1627577670968903064
784,0.5347466312525371,0.04081248796216958,1627577671020401000
785,1.756383054742073,0.1064030235637155,1627577671069890975
786,1.3605399285230255,0.07517016025406018,1627577671120301961
787,1.3440251388326618,0.061851297695166806,1627577671168500900
788,0.9817489254768543,0.07749287950904293,1627577671220521926
789,2.2562785608606655,0.041785394200905934,1627577671270808935
790,0.9738923461122866,0.05243196245232239,1627577671320491075
791,1.9779819880372103,0.035772649395687195,1627577671369237899
792,0.9882898329718284,0.04331887237943157,1627577671420244932
793,1.5603903744707721,0.1132754433394569,1627577671470062017
794,1.2638079260797768,0.08877563554319251,1627577671521002054
795,2.2766629641602796,0.020811990661410686,1627577671568602085
796,0.8505498784608672,0.05346294161484565,1627577671620488882
797,1.9376655008119374,0.04083863991151317,1627577671676610946
798,0.9665504917653487,0.046580686870582,1627577671720429897
799,1.716561005119957,0.10201382342319984,1627577671779603004
800,1.340969989673208,0.07968142203415397,1627577671821130990
801,0.5114258769402795,0.005954227646657012,1627577671871427059
802,0.6171106210270092,0.05096049432504552,1627577671920244932
803,1.6996075741838916,0.1630359778692942,1627577671968988895
804,1.3927594677785693,0.1146570186269377,1627577672020359039
805,4.5253097100754225,0.07123111985784347,1627577672070528030
806,6.186748707041842,0.0426680820997085,1627577672120269060
807,1.7219365088527068,0.12414981876086714,1627577672168729066
808,1.3957033387544695,0.07722452470925893,1627577672220388889
809,1.3513077846036725,0.06156198639752372,1627577672269901037
810,1.0162832381349762,0.07678128941101198,1627577672320406913
811,3.7129835298062757,0.04323199331348773,1627577672368617057
812,0.35051565014621877,0.024215987445430614,1627577672420336961
813,1.4934287260120778,0.14662881322255578,1627577672469885110
814,1.314470505744026,0.09870921783018137,1627577672520335912
815,4.304052640401016,0.04721491176355177,1627577672568525075
816,0.20159354051315148,0.03314854218780303,1627577672620352029
817,1.6368597826635916,0.15024843103903782,1627577672676487922
818,1.3930811577008555,0.09872313687381334,1627577672720793008
819,1.9851131795291364,0.02295929540838465,1627577672779695987
820,0.9259414921676625,0.06010711960188099,1627577672820326089
821,1.8490395615455357,0.0655091788495908,1627577672870893001
822,1.1041360796525606,0.06367924918201179,1627577672920392990
823,1.8354593012053175,0.04097236756397194,1627577672968647003
824,1.0019725572890308,0.05375172156339891,1627577673020382881
825,1.8160345026917981,0.07771027020699472,1627577673069920063
826,1.258770659864485,0.06706618326577973,1627577673120321035
827,1.4750760295896619,0.051855445746500806,1627577673168539047
828,0.9687299374428044,0.06723654566382702,1627577673220382928
829,2.362915118335578,0.05134285140278649,1627577673270720958
830,1.1889574677758428,0.04581583089631981,1627577673320357084
831,1.374300821887456,0.05095764705552145,1627577673368772983
832,0.9518776242984255,0.05738628897402958,1627577673420288085
833,1.8660785241063975,0.07840662855204406,1627577673470031976
834,1.2852363244652962,0.06685038589747813,1627577673520370006
835,1.5531698941568133,0.03765828467719603,1627577673568511009
836,0.9279470725154124,0.05832338182252866,1627577673620378017
837,1.9994119187060249,0.06202723126261056,1627577673676542043
838,1.2117157271645027,0.05585781122256862,1627577673720268011
839,1.5591932022737047,0.11870938003999423,1627577673779520034
840,1.2471258628528517,0.09896621894542253,1627577673820291042
841,4.5418362753204296,0.08502907800921379,1627577673871000051
842,5.837340571352021,0.04570064033155673,1627577673920433998
843,1.6908756733993073,0.16528361626277602,1627577673968990087
844,1.520105311087896,0.09683675395588155,1627577674020602941
845,4.993008506180036,0.03384098617733828,1627577674070710897
846,0.33271203286686957,0.04293081920290679,1627577674120302915
847,1.751239278243092,0.14429062612871404,1627577674168632030
848,1.4337443504562912,0.09563805203655529,1627577674220323085
849,0.8951878008521534,0.008108539677923483,1627577674270174980
850,0.7168913629220155,0.05759697725505768,1627577674320369958
851,2.1154172157842783,0.06768035242896567,1627577674369215011
852,1.2489918881916806,0.052694629043631515,1627577674420227050
853,1.5234358834006505,0.09532828964585056,1627577674470252990
854,1.1964004109993844,0.08395517448639489,1627577674520397901
855,3.7008142113514886,0.01959058648520681,1627577674568779945
856,0.5615044145623678,0.03985676975981065,1627577674620378971
857,1.7199697348508858,0.12345412419581984,1627577674677073001
858,1.3826067962333397,0.08631049114620169,1627577674720381021
859,5.860578166300039,0.002661663098107221,1627577674779565095
860,0.636425040899693,0.049748090839782544,1627577674820369958
861,1.8513065597773908,0.10960671331357848,1627577674871043920
862,1.3852112984365783,0.07845747145399096,1627577674920305013
863,1.4598811495737658,0.03762338478250383,1627577674969216108
864,0.9252658405989065,0.06408937136061585,1627577675020812034
865,1.9565051869853365,0.06465863099789851,1627577675069839000
866,1.1551962406447598,0.06128567062652101,1627577675120237112
867,1.9095043668321006,0.03565531408049976,1627577675168431997
868,0.994610772174306,0.049189409916064616,1627577675220424890
869,1.6235875806033186,0.08374540506180436,1627577675271127939
870,1.1856710612377792,0.07296275377170512,1627577675320538997
871,2.846712247830943,0.014937774030081194,1627577675368870973
872,0.7393667443103076,0.039778174770060265,1627577675420280933
873,1.6673553205992604,0.09480524215804974,1627577675469959974
874,1.2717575712053977,0.0724419337312361,1627577675520716905
875,1.5232259634838883,0.06042814505779757,1627577675568568944
876,1.0369537864632021,0.07311070171321135,1627577675620469093
877,2.3668777023634675,0.03367863940834283,1627577675676498889
878,0.9287494911370895,0.04653171907056087,1627577675720498085
879,1.791416874667765,0.05200797786383481,1627577675779830932
880,1.1073269680438882,0.05069027168178241,1627577675820956945
881,1.6328707005951213,0.09063345002926151,1627577675870783090
882,1.2455164495697832,0.07749486628564754,1627577675920255899
883,1.6936145898238453,0.06951949265733577,1627577675968595027
884,1.1117178961539138,0.07793097338951868,1627577676020291090
885,2.3675772205245833,0.026385685397403977,1627577676070111989
886,0.8347986980486093,0.049217242413681875,1627577676120325088
887,1.7026638979716522,0.10844660024923244,1627577676168534040
888,1.2923668501912557,0.08423634018967477,1627577676220326900
889,1.8398820489545566,0.016219382517840067,1627577676270107030
890,0.7894328059729117,0.05462635774675814,1627577676320424079
891,1.9146758208908154,0.08673619663827152,1627577676368623018
892,1.3087410812766007,0.0677339773408788,1627577676420428037
893,1.3697896505160752,0.07969334404885411,1627577676469985961
894,1.028602143813147,0.08498126814147312,1627577676520515918
895,3.1549937469474902,0.0362435342177674,1627577676568530082
896,0.7808883326780203,0.03629201496549582,1627577676620224952
897,1.5812033843085005,0.15023295160926123,1627577676676517009
898,1.3364080444930304,0.10710777191805293,1627577676720402002
899,4.385187382810871,0.009858500395951453,1627577676779614925
900,0.5861705838093485,0.05648654299650487,1627577676820344924
901,1.9644423428371118,0.10885839908360305,1627577676870837926
902,1.406516141900387,0.07564643492907455,1627577676920567989
903,1.2724134486296252,0.05306166015891971,1627577676968683958
904,0.9246247426817802,0.07358682925246546,1627577677020457029
905,1.8447111952012776,0.10838352562761364,1627577677069916009
906,1.2782186693198998,0.09081899648681772,1627577677120208024
907,1.7222904000389108,0.020419224403148896,1627577677168601036
908,0.7747827914247347,0.06252123152534315,1627577677220375061
909,1.8943506873294529,0.07432984074716022,1627577677271126985
910,1.1655310795677754,0.0653938581773308,1627577677320225954
911,1.8280303027416098,0.02709324404769631,1627577677369640111
912,0.8853313239551337,0.049071388791492004,1627577677420471906
913,1.6808432256233097,0.12703208494806606,1627577677470081090
914,1.3377617192771343,0.09606457503179162,1627577677520531892
915,1.2853499507186492,0.006089958823980692,1627577677568676948
916,0.6720164709664904,0.05944540496418098,1627577677620381116
917,1.897017483256792,0.0976954491663693,1627577677676754951
918,1.3010551367514318,0.07436949939466317,1627577677720402002
919,1.4341171081627693,0.03707338237188739,1627577677779925107
920,0.8854655682232502,0.06303583414971078,1627577677820410966
921,1.7130409676830072,0.09902917718328058,1627577677871151924
922,1.2051816430028972,0.08505453130800684,1627577677920347929
923,2.01351586642164,0.03634711844598497,1627577677968691110
924,0.9557454451951934,0.060098854561163456,1627577678020363092
925,1.7602340284255829,0.08831068802749885,1627577678070600032
926,1.205235836193675,0.07742417979398963,1627577678120237112
927,1.671209635107283,0.07549151018912305,1627577678168303012
928,1.1122644336352145,0.08179818387831046,1627577678220616102
929,2.0704111900811775,0.041352017737730826,1627577678269731998
930,0.9617613866332957,0.05981168032116722,1627577678320358037
931,1.6719973957224243,0.10314594458292496,1627577678368983983
932,1.2124531063664952,0.08797209858347631,1627577678420521974
933,1.8543375139301146,0.029538576537235888,1627577678469752073
934,0.8621051816624505,0.062309201837634935,1627577678520370006
935,1.6970408380975914,0.12874607767468269,1627577678568311929
936,1.2747634154892327,0.10210989637379546,1627577678620255947
937,4.235701132923094,0.022614035761600218,1627577678675874948
938,0.46363241433980784,0.049332860140084436,1627577678720804929
939,1.683661397516432,0.17506573553640692,1627577678779599905
940,1.3917904006643387,0.11982046778425648,1627577678820374965
941,4.615566032486788,0.03998363414598808,1627577678870757102
942,0.3263614270418418,0.05269425613889593,1627577678920310974
943,1.7314812165783715,0.1610115877932862,1627577678968501091
944,1.3875060007150548,0.10828050504007064,1627577679020519971
945,5.231322483775452,0.011628604450289291,1627577679069792032
946,0.5562905136747731,0.05988667174982237,1627577679120464086
947,1.808180144625525,0.11307973719454263,1627577679168366909
948,1.2846894066685837,0.08412484443500869,1627577679220484972
949,1.7175016812543416,0.06861988722388267,1627577679270665884
950,1.1224636546018507,0.07966452256493232,1627577679320287942
951,1.7191942196279284,0.039056208240115284,1627577679368607044
