%time,field.header.seq,field.header.stamp,field.header.frame_id,field.orientation.x,field.orientation.y,field.orientation.z,field.orientation.w,field.orientation_covariance0,field.orientation_covariance1,field.orientation_covariance2,field.orientation_covariance3,field.orientation_covariance4,field.orientation_covariance5,field.orientation_covariance6,field.orientation_covariance7,field.orientation_covariance8,field.angular_velocity.x,field.angular_velocity.y,field.angular_velocity.z,field.angular_velocity_covariance0,field.angular_velocity_covariance1,field.angular_velocity_covariance2,field.angular_velocity_covariance3,field.angular_velocity_covariance4,field.angular_velocity_covariance5,field.angular_velocity_covariance6,field.angular_velocity_covariance7,field.angular_velocity_covariance8,field.linear_acceleration.x,field.linear_acceleration.y,field.linear_acceleration.z,field.linear_acceleration_covariance0,field.linear_acceleration_covariance1,field.linear_acceleration_covariance2,field.linear_acceleration_covariance3,field.linear_acceleration_covariance4,field.linear_acceleration_covariance5,field.linear_acceleration_covariance6,field.linear_acceleration_covariance7,field.linear_acceleration_covariance8
1461500,501629,1644544023646176815,1,0.0,0.0,0.0,0.0,0.0,0.0,0.0,0.0,0.0,0.0,0.0,0.0,0.0,0.0,0.0,0.0,0.0,0.0,0.0,0.0,0.0,0.0,0.0,0.0,0.0,-0.0392265990376,-0.0294199492782,9.81645679474,0.0,0.0,0.0,0.0,0.0,0.0,0.0,0.0,0.0
2934300,501630,1644544023648190975,1,0.0,0.0,0.0,0.0,0.0,0.0,0.0,0.0,0.0,0.0,0.0,0.0,0.0,0.0,0.0,0.0,0.0,0.0,0.0,0.0,0.0,0.0,0.0,0.0,0.0,-0.0294199492782,-0.0784531980753,9.88510322571,0.0,0.0,0.0,0.0,0.0,0.0,0.0,0.0,0.0
4713000,501631,1644544023650203228,1,0.0,0.0,0.0,0.0,0.0,0.0,0.0,0.0,0.0,0.0,0.0,0.0,0.0,0.0,0.0,0.0,0.0,0.0,0.0,0.0,0.0,0.0,0.0,0.0,0.0,-0.0392265990376,-0.0784531980753,9.88510322571,0.0,0.0,0.0,0.0,0.0,0.0,0.0,0.0,0.0
7360500,501632,1644544023652217388,1,0.0,0.0,0.0,0.0,0.0,0.0,0.0,0.0,0.0,0.0,0.0,0.0,0.0,0.0,0.0,0.0,0.0,0.0,0.0,0.0,0.0,0.0,0.0,0.0,0.0,-0.0784531980753,-0.0392265990376,9.91452312469,0.0,0.0,0.0,0.0,0.0,0.0,0.0,0.0,0.0
9354200,501633,1644544023654231548,1,0.0,0.0,0.0,0.0,0.0,0.0,0.0,0.0,0.0,0.0,0.0,0.0,0.0,0.0,0.0,0.0,0.0,0.0,0.0,0.0,0.0,0.0,0.0,0.0,0.0,-0.0980664938688,-0.0392265990376,9.91452312469,0.0,0.0,0.0,0.0,0.0,0.0,0.0,0.0,0.0
10940600,501634,1644544023656243563,1,0.0,0.0,0.0,0.0,0.0,0.0,0.0,0.0,0.0,0.0,0.0,0.0,0.0,0.0,0.0,0.0,0.0,0.0,0.0,0.0,0.0,0.0,0.0,0.0,0.0,-0.0392265990376,-0.0392265990376,9.8949098587,0.0,0.0,0.0,0.0,0.0,0.0,0.0,0.0,0.0
13211800,501635,1644544023658257723,1,0.0,0.0,0.0,0.0,0.0,0.0,0.0,0.0,0.0,0.0,0.0,0.0,0.0,0.0,0.0,0.0,0.0,0.0,0.0,0.0,0.0,0.0,0.0,0.0,0.0,-0.0784531980753,-0.0686465501785,9.91452312469,0.0,0.0,0.0,0.0,0.0,0.0,0.0,0.0,0.0
14851000,501636,1644544023660269976,1,0.0,0.0,0.0,0.0,0.0,0.0,0.0,0.0,0.0,0.0,0.0,0.0,0.0,0.0,0.0,0.0,0.0,0.0,0.0,0.0,0.0,0.0,0.0,0.0,0.0,-0.0686465501785,-0.0294199492782,9.94394302368,0.0,0.0,0.0,0.0,0.0,0.0,0.0,0.0,0.0
16823400,501637,1644544023662284136,1,0.0,0.0,0.0,0.0,0.0,0.0,0.0,0.0,0.0,0.0,0.0,0.0,0.0,0.0,0.0,0.0,0.0,0.0,0.0,0.0,0.0,0.0,0.0,0.0,0.0,-0.0784531980753,-0.00980664975941,9.8949098587,0.0,0.0,0.0,0.0,0.0,0.0,0.0,0.0,0.0
18758500,501638,1644544023664296389,1,0.0,0.0,0.0,0.0,0.0,0.0,0.0,0.0,0.0,0.0,0.0,0.0,0.0,0.0,0.0,0.0,0.0,0.0,0.0,0.0,0.0,0.0,0.0,0.0,0.0,-0.0294199492782,-0.0294199492782,9.96355628967,0.0,0.0,0.0,0.0,0.0,0.0,0.0,0.0,0.0
20793400,501639,1644544023666310787,1,0.0,0.0,0.0,0.0,0.0,0.0,0.0,0.0,0.0,0.0,0.0,0.0,0.0,0.0,0.0,0.0,0.0,0.0,0.0,0.0,0.0,0.0,0.0,0.0,0.0,-0.0294199492782,-0.0294199492782,9.99297618866,0.0,0.0,0.0,0.0,0.0,0.0,0.0,0.0,0.0
22741300,501640,1644544023668324947,1,0.0,0.0,0.0,0.0,0.0,0.0,0.0,0.0,0.0,0.0,0.0,0.0,0.0,0.0,0.0,0.0,0.0,0.0,0.0,0.0,0.0,0.0,0.0,0.0,0.0,-0.0392265990376,-0.0686465501785,9.94394302368,0.0,0.0,0.0,0.0,0.0,0.0,0.0,0.0,0.0
24761300,501641,1644544023670337200,1,0.0,0.0,0.0,0.0,0.0,0.0,0.0,0.0,0.0,0.0,0.0,0.0,0.0,0.0,0.0,0.0,0.0,0.0,0.0,0.0,0.0,0.0,0.0,0.0,0.0,-0.0294199492782,-0.0294199492782,9.91452312469,0.0,0.0,0.0,0.0,0.0,0.0,0.0,0.0,0.0
26817300,501642,1644544023672351360,1,0.0,0.0,0.0,0.0,0.0,0.0,0.0,0.0,0.0,0.0,0.0,0.0,0.0,0.0,0.0,0.0,0.0,0.0,0.0,0.0,0.0,0.0,0.0,0.0,0.0,-0.0392265990376,0.0,9.96355628967,0.0,0.0,0.0,0.0,0.0,0.0,0.0,0.0,0.0
28853000,501643,1644544023674365520,1,0.0,0.0,0.0,0.0,0.0,0.0,0.0,0.0,0.0,0.0,0.0,0.0,0.0,0.0,0.0,0.0,0.0,0.0,0.0,0.0,0.0,0.0,0.0,0.0,0.0,-0.0294199492782,-0.00980664975941,9.91452312469,0.0,0.0,0.0,0.0,0.0,0.0,0.0,0.0,0.0
30854200,501644,1644544023676377773,1,0.0,0.0,0.0,0.0,0.0,0.0,0.0,0.0,0.0,0.0,0.0,0.0,0.0,0.0,0.0,0.0,0.0,0.0,0.0,0.0,0.0,0.0,0.0,0.0,0.0,-0.0392265990376,-0.00980664975941,9.91452312469,0.0,0.0,0.0,0.0,0.0,0.0,0.0,0.0,0.0
757501100,502005,1644544024403189659,1,0.0,0.0,0.0,0.0,0.0,0.0,0.0,0.0,0.0,0.0,0.0,0.0,0.0,0.0,0.0,0.0,0.0,0.0,0.0,0.0,0.0,0.0,0.0,0.0,0.0,-0.0686465501785,0.00980664975941,9.8949098587,0.0,0.0,0.0,0.0,0.0,0.0,0.0,0.0,0.0
759801700,502006,1644544024405201674,1,0.0,0.0,0.0,0.0,0.0,0.0,0.0,0.0,0.0,0.0,0.0,0.0,0.0,0.0,0.0,0.0,0.0,0.0,0.0,0.0,0.0,0.0,0.0,0.0,0.0,-0.0392265990376,0.0392265990376,9.8949098587,0.0,0.0,0.0,0.0,0.0,0.0,0.0,0.0,0.0
761567600,502007,1644544024407215595,1,0.0,0.0,0.0,0.0,0.0,0.0,0.0,0.0,0.0,0.0,0.0,0.0,0.0,0.0,0.0,0.0,0.0,0.0,0.0,0.0,0.0,0.0,0.0,0.0,0.0,-0.0294199492782,0.00980664975941,9.88510322571,0.0,0.0,0.0,0.0,0.0,0.0,0.0,0.0,0.0
763613100,502008,1644544024409229517,1,0.0,0.0,0.0,0.0,0.0,0.0,0.0,0.0,0.0,0.0,0.0,0.0,0.0,0.0,0.0,0.0,0.0,0.0,0.0,0.0,0.0,0.0,0.0,0.0,0.0,-0.0686465501785,-0.00980664975941,9.8949098587,0.0,0.0,0.0,0.0,0.0,0.0,0.0,0.0,0.0
765622600,502009,1644544024411241531,1,0.0,0.0,0.0,0.0,0.0,0.0,0.0,0.0,0.0,0.0,0.0,0.0,0.0,0.0,0.0,0.0,0.0,0.0,0.0,0.0,0.0,0.0,0.0,0.0,0.0,-0.0392265990376,0.00980664975941,9.98316955566,0.0,0.0,0.0,0.0,0.0,0.0,0.0,0.0,0.0
767477800,502010,1644544024413255453,1,0.0,0.0,0.0,0.0,0.0,0.0,0.0,0.0,0.0,0.0,0.0,0.0,0.0,0.0,0.0,0.0,0.0,0.0,0.0,0.0,0.0,0.0,0.0,0.0,0.0,-0.0686465501785,0.0392265990376,9.8949098587,0.0,0.0,0.0,0.0,0.0,0.0,0.0,0.0,0.0
769496300,502011,1644544024415267229,1,0.0,0.0,0.0,0.0,0.0,0.0,0.0,0.0,0.0,0.0,0.0,0.0,0.0,0.0,0.0,0.0,0.0,0.0,0.0,0.0,0.0,0.0,0.0,0.0,0.0,-0.0392265990376,0.0,9.91452312469,0.0,0.0,0.0,0.0,0.0,0.0,0.0,0.0,0.0
771511400,502012,1644544024417283535,1,0.0,0.0,0.0,0.0,0.0,0.0,0.0,0.0,0.0,0.0,0.0,0.0,0.0,0.0,0.0,0.0,0.0,0.0,0.0,0.0,0.0,0.0,0.0,0.0,0.0,-0.0784531980753,-0.0392265990376,9.88510322571,0.0,0.0,0.0,0.0,0.0,0.0,0.0,0.0,0.0
773502900,502013,1644544024419295073,1,0.0,0.0,0.0,0.0,0.0,0.0,0.0,0.0,0.0,0.0,0.0,0.0,0.0,0.0,0.0,0.0,0.0,0.0,0.0,0.0,0.0,0.0,0.0,0.0,0.0,-0.0392265990376,0.00980664975941,9.91452312469,0.0,0.0,0.0,0.0,0.0,0.0,0.0,0.0,0.0
775511200,502014,1644544024421307087,1,0.0,0.0,0.0,0.0,0.0,0.0,0.0,0.0,0.0,0.0,0.0,0.0,0.0,0.0,0.0,0.0,0.0,0.0,0.0,0.0,0.0,0.0,0.0,0.0,0.0,-0.0392265990376,0.0294199492782,9.96355628967,0.0,0.0,0.0,0.0,0.0,0.0,0.0,0.0,0.0
778046100,502015,1644544024423321009,1,0.0,0.0,0.0,0.0,0.0,0.0,0.0,0.0,0.0,0.0,0.0,0.0,0.0,0.0,0.0,0.0,0.0,0.0,0.0,0.0,0.0,0.0,0.0,0.0,0.0,-0.0294199492782,0.0,9.91452312469,0.0,0.0,0.0,0.0,0.0,0.0,0.0,0.0,0.0
779586800,502016,1644544024425335169,1,0.0,0.0,0.0,0.0,0.0,0.0,0.0,0.0,0.0,0.0,0.0,0.0,0.0,0.0,0.0,0.0,0.0,0.0,0.0,0.0,0.0,0.0,0.0,0.0,0.0,-0.0392265990376,0.0,9.8949098587,0.0,0.0,0.0,0.0,0.0,0.0,0.0,0.0,0.0
781482400,502017,1644544024427349091,1,0.0,0.0,0.0,0.0,0.0,0.0,0.0,0.0,0.0,0.0,0.0,0.0,0.0,0.0,0.0,0.0,0.0,0.0,0.0,0.0,0.0,0.0,0.0,0.0,0.0,-0.0392265990376,0.00980664975941,9.96355628967,0.0,0.0,0.0,0.0,0.0,0.0,0.0,0.0,0.0
783537400,502018,1644544024429361105,1,0.0,0.0,0.0,0.0,0.0,0.0,0.0,0.0,0.0,0.0,0.0,0.0,0.0,0.0,0.0,0.0,0.0,0.0,0.0,0.0,0.0,0.0,0.0,0.0,0.0,-0.0686465501785,0.0294199492782,9.86548995972,0.0,0.0,0.0,0.0,0.0,0.0,0.0,0.0,0.0
785478400,502019,1644544024431375027,1,0.0,0.0,0.0,0.0,0.0,0.0,0.0,0.0,0.0,0.0,0.0,0.0,0.0,0.0,0.0,0.0,0.0,0.0,0.0,0.0,0.0,0.0,0.0,0.0,0.0,-0.0784531980753,0.00980664975941,9.91452312469,0.0,0.0,0.0,0.0,0.0,0.0,0.0,0.0,0.0
787454300,502020,1644544024433388948,1,0.0,0.0,0.0,0.0,0.0,0.0,0.0,0.0,0.0,0.0,0.0,0.0,0.0,0.0,0.0,0.0,0.0,0.0,0.0,0.0,0.0,0.0,0.0,0.0,0.0,-0.0686465501785,0.0,9.88510322571,0.0,0.0,0.0,0.0,0.0,0.0,0.0,0.0,0.0
789455000,502021,1644544024435400963,1,0.0,0.0,0.0,0.0,0.0,0.0,0.0,0.0,0.0,0.0,0.0,0.0,0.0,0.0,0.0,0.0,0.0,0.0,0.0,0.0,0.0,0.0,0.0,0.0,0.0,-0.0784531980753,0.0,9.88510322571,0.0,0.0,0.0,0.0,0.0,0.0,0.0,0.0,0.0
792113900,502022,1644544024437414885,1,0.0,0.0,0.0,0.0,0.0,0.0,0.0,0.0,0.0,0.0,0.0,0.0,0.0,0.0,0.0,0.0,0.0,0.0,0.0,0.0,0.0,0.0,0.0,0.0,0.0,-0.0392265990376,0.0392265990376,9.96355628967,0.0,0.0,0.0,0.0,0.0,0.0,0.0,0.0,0.0
793747100,502023,1644544024439428806,1,0.0,0.0,0.0,0.0,0.0,0.0,0.0,0.0,0.0,0.0,0.0,0.0,0.0,0.0,0.0,0.0,0.0,0.0,0.0,0.0,0.0,0.0,0.0,0.0,0.0,-0.0686465501785,0.00980664975941,9.8949098587,0.0,0.0,0.0,0.0,0.0,0.0,0.0,0.0,0.0
795706300,502024,1644544024441442728,1,0.0,0.0,0.0,0.0,0.0,0.0,0.0,0.0,0.0,0.0,0.0,0.0,0.0,0.0,0.0,0.0,0.0,0.0,0.0,0.0,0.0,0.0,0.0,0.0,0.0,-0.0686465501785,0.0,9.94394302368,0.0,0.0,0.0,0.0,0.0,0.0,0.0,0.0,0.0
797743700,502025,1644544024443454504,1,0.0,0.0,0.0,0.0,0.0,0.0,0.0,0.0,0.0,0.0,0.0,0.0,0.0,0.0,0.0,0.0,0.0,0.0,0.0,0.0,0.0,0.0,0.0,0.0,0.0,-0.0784531980753,0.00980664975941,9.91452312469,0.0,0.0,0.0,0.0,0.0,0.0,0.0,0.0,0.0
799749900,502026,1644544024445468426,1,0.0,0.0,0.0,0.0,0.0,0.0,0.0,0.0,0.0,0.0,0.0,0.0,0.0,0.0,0.0,0.0,0.0,0.0,0.0,0.0,0.0,0.0,0.0,0.0,0.0,-0.0392265990376,0.0294199492782,9.88510322571,0.0,0.0,0.0,0.0,0.0,0.0,0.0,0.0,0.0
801708800,502027,1644544024447480440,1,0.0,0.0,0.0,0.0,0.0,0.0,0.0,0.0,0.0,0.0,0.0,0.0,0.0,0.0,0.0,0.0,0.0,0.0,0.0,0.0,0.0,0.0,0.0,0.0,0.0,-0.0784531980753,0.00980664975941,9.8949098587,0.0,0.0,0.0,0.0,0.0,0.0,0.0,0.0,0.0
803722700,502028,1644544024449494362,1,0.0,0.0,0.0,0.0,0.0,0.0,0.0,0.0,0.0,0.0,0.0,0.0,0.0,0.0,0.0,0.0,0.0,0.0,0.0,0.0,0.0,0.0,0.0,0.0,0.0,-0.0392265990376,0.00980664975941,9.8949098587,0.0,0.0,0.0,0.0,0.0,0.0,0.0,0.0,0.0
805712700,502029,1644544024451508284,1,0.0,0.0,0.0,0.0,0.0,0.0,0.0,0.0,0.0,0.0,0.0,0.0,0.0,0.0,0.0,0.0,0.0,0.0,0.0,0.0,0.0,0.0,0.0,0.0,0.0,-0.0686465501785,0.0392265990376,9.94394302368,0.0,0.0,0.0,0.0,0.0,0.0,0.0,0.0,0.0
807826500,502030,1644544024453520298,1,0.0,0.0,0.0,0.0,0.0,0.0,0.0,0.0,0.0,0.0,0.0,0.0,0.0,0.0,0.0,0.0,0.0,0.0,0.0,0.0,0.0,0.0,0.0,0.0,0.0,-0.0686465501785,0.00980664975941,9.88510322571,0.0,0.0,0.0,0.0,0.0,0.0,0.0,0.0,0.0
809707400,502031,1644544024455534220,1,0.0,0.0,0.0,0.0,0.0,0.0,0.0,0.0,0.0,0.0,0.0,0.0,0.0,0.0,0.0,0.0,0.0,0.0,0.0,0.0,0.0,0.0,0.0,0.0,0.0,-0.0686465501785,0.0294199492782,9.96355628967,0.0,0.0,0.0,0.0,0.0,0.0,0.0,0.0,0.0
811689800,502032,1644544024457548141,1,0.0,0.0,0.0,0.0,0.0,0.0,0.0,0.0,0.0,0.0,0.0,0.0,0.0,0.0,0.0,0.0,0.0,0.0,0.0,0.0,0.0,0.0,0.0,0.0,0.0,-0.0392265990376,0.00980664975941,9.96355628967,0.0,0.0,0.0,0.0,0.0,0.0,0.0,0.0,0.0
813760700,502033,1644544024459562063,1,0.0,0.0,0.0,0.0,0.0,0.0,0.0,0.0,0.0,0.0,0.0,0.0,0.0,0.0,0.0,0.0,0.0,0.0,0.0,0.0,0.0,0.0,0.0,0.0,0.0,-0.0392265990376,0.0,9.96355628967,0.0,0.0,0.0,0.0,0.0,0.0,0.0,0.0,0.0
815693000,502034,1644544024461574078,1,0.0,0.0,0.0,0.0,0.0,0.0,0.0,0.0,0.0,0.0,0.0,0.0,0.0,0.0,0.0,0.0,0.0,0.0,0.0,0.0,0.0,0.0,0.0,0.0,0.0,-0.0686465501785,0.0,9.94394302368,0.0,0.0,0.0,0.0,0.0,0.0,0.0,0.0,0.0
817688800,502035,1644544024463587999,1,0.0,0.0,0.0,0.0,0.0,0.0,0.0,0.0,0.0,0.0,0.0,0.0,0.0,0.0,0.0,0.0,0.0,0.0,0.0,0.0,0.0,0.0,0.0,0.0,0.0,-0.0392265990376,0.0686465501785,9.94394302368,0.0,0.0,0.0,0.0,0.0,0.0,0.0,0.0,0.0
819682100,502036,1644544024465601921,1,0.0,0.0,0.0,0.0,0.0,0.0,0.0,0.0,0.0,0.0,0.0,0.0,0.0,0.0,0.0,0.0,0.0,0.0,0.0,0.0,0.0,0.0,0.0,0.0,0.0,-0.0294199492782,0.00980664975941,9.99297618866,0.0,0.0,0.0,0.0,0.0,0.0,0.0,0.0,0.0
821684000,502037,1644544024467613697,1,0.0,0.0,0.0,0.0,0.0,0.0,0.0,0.0,0.0,0.0,0.0,0.0,0.0,0.0,0.0,0.0,0.0,0.0,0.0,0.0,0.0,0.0,0.0,0.0,0.0,-0.0980664938688,0.00980664975941,9.8949098587,0.0,0.0,0.0,0.0,0.0,0.0,0.0,0.0,0.0
823845400,502038,1644544024469627619,1,0.0,0.0,0.0,0.0,0.0,0.0,0.0,0.0,0.0,0.0,0.0,0.0,0.0,0.0,0.0,0.0,0.0,0.0,0.0,0.0,0.0,0.0,0.0,0.0,0.0,-0.0294199492782,0.00980664975941,9.88510322571,0.0,0.0,0.0,0.0,0.0,0.0,0.0,0.0,0.0
825965100,502039,1644544024471639633,1,0.0,0.0,0.0,0.0,0.0,0.0,0.0,0.0,0.0,0.0,0.0,0.0,0.0,0.0,0.0,0.0,0.0,0.0,0.0,0.0,0.0,0.0,0.0,0.0,0.0,-0.0686465501785,0.00980664975941,9.91452312469,0.0,0.0,0.0,0.0,0.0,0.0,0.0,0.0,0.0
828201900,502040,1644544024473653555,1,0.0,0.0,0.0,0.0,0.0,0.0,0.0,0.0,0.0,0.0,0.0,0.0,0.0,0.0,0.0,0.0,0.0,0.0,0.0,0.0,0.0,0.0,0.0,0.0,0.0,-0.0392265990376,0.00980664975941,9.94394302368,0.0,0.0,0.0,0.0,0.0,0.0,0.0,0.0,0.0
829996400,502041,1644544024475667477,1,0.0,0.0,0.0,0.0,0.0,0.0,0.0,0.0,0.0,0.0,0.0,0.0,0.0,0.0,0.0,0.0,0.0,0.0,0.0,0.0,0.0,0.0,0.0,0.0,0.0,-0.0294199492782,0.0294199492782,9.94394302368,0.0,0.0,0.0,0.0,0.0,0.0,0.0,0.0,0.0
832246900,502042,1644544024477681637,1,0.0,0.0,0.0,0.0,0.0,0.0,0.0,0.0,0.0,0.0,0.0,0.0,0.0,0.0,0.0,0.0,0.0,0.0,0.0,0.0,0.0,0.0,0.0,0.0,0.0,-0.0294199492782,0.0,9.96355628967,0.0,0.0,0.0,0.0,0.0,0.0,0.0,0.0,0.0
833989200,502043,1644544024479693413,1,0.0,0.0,0.0,0.0,0.0,0.0,0.0,0.0,0.0,0.0,0.0,0.0,0.0,0.0,0.0,0.0,0.0,0.0,0.0,0.0,0.0,0.0,0.0,0.0,0.0,-0.0686465501785,0.0392265990376,9.91452312469,0.0,0.0,0.0,0.0,0.0,0.0,0.0,0.0,0.0
835942700,502044,1644544024481707573,1,0.0,0.0,0.0,0.0,0.0,0.0,0.0,0.0,0.0,0.0,0.0,0.0,0.0,0.0,0.0,0.0,0.0,0.0,0.0,0.0,0.0,0.0,0.0,0.0,0.0,-0.0686465501785,0.00980664975941,9.88510322571,0.0,0.0,0.0,0.0,0.0,0.0,0.0,0.0,0.0
838530800,502045,1644544024483719587,1,0.0,0.0,0.0,0.0,0.0,0.0,0.0,0.0,0.0,0.0,0.0,0.0,0.0,0.0,0.0,0.0,0.0,0.0,0.0,0.0,0.0,0.0,0.0,0.0,0.0,-0.0294199492782,0.0,9.8949098587,0.0,0.0,0.0,0.0,0.0,0.0,0.0,0.0,0.0
840481300,502046,1644544024485733509,1,0.0,0.0,0.0,0.0,0.0,0.0,0.0,0.0,0.0,0.0,0.0,0.0,0.0,0.0,0.0,0.0,0.0,0.0,0.0,0.0,0.0,0.0,0.0,0.0,0.0,-0.0294199492782,0.00980664975941,9.8949098587,0.0,0.0,0.0,0.0,0.0,0.0,0.0,0.0,0.0
842363800,502047,1644544024487747431,1,0.0,0.0,0.0,0.0,0.0,0.0,0.0,0.0,0.0,0.0,0.0,0.0,0.0,0.0,0.0,0.0,0.0,0.0,0.0,0.0,0.0,0.0,0.0,0.0,0.0,-0.0294199492782,0.0686465501785,9.94394302368,0.0,0.0,0.0,0.0,0.0,0.0,0.0,0.0,0.0
844276600,502048,1644544024489759207,1,0.0,0.0,0.0,0.0,0.0,0.0,0.0,0.0,0.0,0.0,0.0,0.0,0.0,0.0,0.0,0.0,0.0,0.0,0.0,0.0,0.0,0.0,0.0,0.0,0.0,-0.0294199492782,0.00980664975941,9.94394302368,0.0,0.0,0.0,0.0,0.0,0.0,0.0,0.0,0.0
846310900,502049,1644544024491773129,1,0.0,0.0,0.0,0.0,0.0,0.0,0.0,0.0,0.0,0.0,0.0,0.0,0.0,0.0,0.0,0.0,0.0,0.0,0.0,0.0,0.0,0.0,0.0,0.0,0.0,-0.0392265990376,0.0294199492782,9.91452312469,0.0,0.0,0.0,0.0,0.0,0.0,0.0,0.0,0.0
848261900,502050,1644544024493787050,1,0.0,0.0,0.0,0.0,0.0,0.0,0.0,0.0,0.0,0.0,0.0,0.0,0.0,0.0,0.0,0.0,0.0,0.0,0.0,0.0,0.0,0.0,0.0,0.0,0.0,-0.0294199492782,0.0,9.91452312469,0.0,0.0,0.0,0.0,0.0,0.0,0.0,0.0,0.0
850263900,502051,1644544024495799065,1,0.0,0.0,0.0,0.0,0.0,0.0,0.0,0.0,0.0,0.0,0.0,0.0,0.0,0.0,0.0,0.0,0.0,0.0,0.0,0.0,0.0,0.0,0.0,0.0,0.0,-0.0686465501785,0.00980664975941,9.96355628967,0.0,0.0,0.0,0.0,0.0,0.0,0.0,0.0,0.0
852312400,502052,1644544024497812986,1,0.0,0.0,0.0,0.0,0.0,0.0,0.0,0.0,0.0,0.0,0.0,0.0,0.0,0.0,0.0,0.0,0.0,0.0,0.0,0.0,0.0,0.0,0.0,0.0,0.0,-0.0294199492782,0.00980664975941,9.99297618866,0.0,0.0,0.0,0.0,0.0,0.0,0.0,0.0,0.0
854466500,502053,1644544024499825001,1,0.0,0.0,0.0,0.0,0.0,0.0,0.0,0.0,0.0,0.0,0.0,0.0,0.0,0.0,0.0,0.0,0.0,0.0,0.0,0.0,0.0,0.0,0.0,0.0,0.0,-0.0294199492782,0.0,9.99297618866,0.0,0.0,0.0,0.0,0.0,0.0,0.0,0.0,0.0
856228800,502054,1644544024501838923,1,0.0,0.0,0.0,0.0,0.0,0.0,0.0,0.0,0.0,0.0,0.0,0.0,0.0,0.0,0.0,0.0,0.0,0.0,0.0,0.0,0.0,0.0,0.0,0.0,0.0,-0.0392265990376,0.0,9.94394302368,0.0,0.0,0.0,0.0,0.0,0.0,0.0,0.0,0.0
858239300,502055,1644544024503852844,1,0.0,0.0,0.0,0.0,0.0,0.0,0.0,0.0,0.0,0.0,0.0,0.0,0.0,0.0,0.0,0.0,0.0,0.0,0.0,0.0,0.0,0.0,0.0,0.0,0.0,-0.0392265990376,0.0294199492782,9.96355628967,0.0,0.0,0.0,0.0,0.0,0.0,0.0,0.0,0.0
860233600,502056,1644544024505864859,1,0.0,0.0,0.0,0.0,0.0,0.0,0.0,0.0,0.0,0.0,0.0,0.0,0.0,0.0,0.0,0.0,0.0,0.0,0.0,0.0,0.0,0.0,0.0,0.0,0.0,-0.0392265990376,0.0,9.98316955566,0.0,0.0,0.0,0.0,0.0,0.0,0.0,0.0,0.0
862234000,502057,1644544024507878780,1,0.0,0.0,0.0,0.0,0.0,0.0,0.0,0.0,0.0,0.0,0.0,0.0,0.0,0.0,0.0,0.0,0.0,0.0,0.0,0.0,0.0,0.0,0.0,0.0,0.0,-0.00980664975941,0.00980664975941,9.8949098587,0.0,0.0,0.0,0.0,0.0,0.0,0.0,0.0,0.0
864253600,502058,1644544024509890556,1,0.0,0.0,0.0,0.0,0.0,0.0,0.0,0.0,0.0,0.0,0.0,0.0,0.0,0.0,0.0,0.0,0.0,0.0,0.0,0.0,0.0,0.0,0.0,0.0,0.0,-0.0294199492782,0.00980664975941,9.91452312469,0.0,0.0,0.0,0.0,0.0,0.0,0.0,0.0,0.0
866237800,502059,1644544024511904478,1,0.0,0.0,0.0,0.0,0.0,0.0,0.0,0.0,0.0,0.0,0.0,0.0,0.0,0.0,0.0,0.0,0.0,0.0,0.0,0.0,0.0,0.0,0.0,0.0,0.0,-0.0392265990376,0.0,9.98316955566,0.0,0.0,0.0,0.0,0.0,0.0,0.0,0.0,0.0
868244400,502060,1644544024513916492,1,0.0,0.0,0.0,0.0,0.0,0.0,0.0,0.0,0.0,0.0,0.0,0.0,0.0,0.0,0.0,0.0,0.0,0.0,0.0,0.0,0.0,0.0,0.0,0.0,0.0,-0.0686465501785,0.0392265990376,9.96355628967,0.0,0.0,0.0,0.0,0.0,0.0,0.0,0.0,0.0
870264600,502061,1644544024515928507,1,0.0,0.0,0.0,0.0,0.0,0.0,0.0,0.0,0.0,0.0,0.0,0.0,0.0,0.0,0.0,0.0,0.0,0.0,0.0,0.0,0.0,0.0,0.0,0.0,0.0,-0.0294199492782,0.0,9.94394302368,0.0,0.0,0.0,0.0,0.0,0.0,0.0,0.0,0.0
872236600,502062,1644544024517942429,1,0.0,0.0,0.0,0.0,0.0,0.0,0.0,0.0,0.0,0.0,0.0,0.0,0.0,0.0,0.0,0.0,0.0,0.0,0.0,0.0,0.0,0.0,0.0,0.0,0.0,-0.0392265990376,0.0,9.96355628967,0.0,0.0,0.0,0.0,0.0,0.0,0.0,0.0,0.0
874236100,502063,1644544024519956350,1,0.0,0.0,0.0,0.0,0.0,0.0,0.0,0.0,0.0,0.0,0.0,0.0,0.0,0.0,0.0,0.0,0.0,0.0,0.0,0.0,0.0,0.0,0.0,0.0,0.0,-0.0686465501785,0.0,9.8949098587,0.0,0.0,0.0,0.0,0.0,0.0,0.0,0.0,0.0
876238700,502064,1644544024521968365,1,0.0,0.0,0.0,0.0,0.0,0.0,0.0,0.0,0.0,0.0,0.0,0.0,0.0,0.0,0.0,0.0,0.0,0.0,0.0,0.0,0.0,0.0,0.0,0.0,0.0,-0.0784531980753,0.0294199492782,9.91452312469,0.0,0.0,0.0,0.0,0.0,0.0,0.0,0.0,0.0
878314700,502065,1644544024523980141,1,0.0,0.0,0.0,0.0,0.0,0.0,0.0,0.0,0.0,0.0,0.0,0.0,0.0,0.0,0.0,0.0,0.0,0.0,0.0,0.0,0.0,0.0,0.0,0.0,0.0,-0.0392265990376,0.00980664975941,9.94394302368,0.0,0.0,0.0,0.0,0.0,0.0,0.0,0.0,0.0
880292000,502066,1644544024525994062,1,0.0,0.0,0.0,0.0,0.0,0.0,0.0,0.0,0.0,0.0,0.0,0.0,0.0,0.0,0.0,0.0,0.0,0.0,0.0,0.0,0.0,0.0,0.0,0.0,0.0,-0.0686465501785,0.0294199492782,9.8949098587,0.0,0.0,0.0,0.0,0.0,0.0,0.0,0.0,0.0
882322500,502067,1644544024528006077,1,0.0,0.0,0.0,0.0,0.0,0.0,0.0,0.0,0.0,0.0,0.0,0.0,0.0,0.0,0.0,0.0,0.0,0.0,0.0,0.0,0.0,0.0,0.0,0.0,0.0,-0.0980664938688,0.0,9.98316955566,0.0,0.0,0.0,0.0,0.0,0.0,0.0,0.0,0.0
884354200,502068,1644544024530019999,1,0.0,0.0,0.0,0.0,0.0,0.0,0.0,0.0,0.0,0.0,0.0,0.0,0.0,0.0,0.0,0.0,0.0,0.0,0.0,0.0,0.0,0.0,0.0,0.0,0.0,-0.0294199492782,0.0392265990376,9.91452312469,0.0,0.0,0.0,0.0,0.0,0.0,0.0,0.0,0.0
886232100,502069,1644544024532032013,1,0.0,0.0,0.0,0.0,0.0,0.0,0.0,0.0,0.0,0.0,0.0,0.0,0.0,0.0,0.0,0.0,0.0,0.0,0.0,0.0,0.0,0.0,0.0,0.0,0.0,-0.0686465501785,0.0294199492782,9.94394302368,0.0,0.0,0.0,0.0,0.0,0.0,0.0,0.0,0.0
888288200,502070,1644544024534045935,1,0.0,0.0,0.0,0.0,0.0,0.0,0.0,0.0,0.0,0.0,0.0,0.0,0.0,0.0,0.0,0.0,0.0,0.0,0.0,0.0,0.0,0.0,0.0,0.0,0.0,-0.0686465501785,0.00980664975941,9.96355628967,0.0,0.0,0.0,0.0,0.0,0.0,0.0,0.0,0.0
890367900,502071,1644544024536057949,1,0.0,0.0,0.0,0.0,0.0,0.0,0.0,0.0,0.0,0.0,0.0,0.0,0.0,0.0,0.0,0.0,0.0,0.0,0.0,0.0,0.0,0.0,0.0,0.0,0.0,-0.0392265990376,0.00980664975941,9.91452312469,0.0,0.0,0.0,0.0,0.0,0.0,0.0,0.0,0.0
892327200,502072,1644544024538071871,1,0.0,0.0,0.0,0.0,0.0,0.0,0.0,0.0,0.0,0.0,0.0,0.0,0.0,0.0,0.0,0.0,0.0,0.0,0.0,0.0,0.0,0.0,0.0,0.0,0.0,-0.0392265990376,0.0294199492782,9.91452312469,0.0,0.0,0.0,0.0,0.0,0.0,0.0,0.0,0.0
894281600,502073,1644544024540085793,1,0.0,0.0,0.0,0.0,0.0,0.0,0.0,0.0,0.0,0.0,0.0,0.0,0.0,0.0,0.0,0.0,0.0,0.0,0.0,0.0,0.0,0.0,0.0,0.0,0.0,-0.0686465501785,0.00980664975941,9.91452312469,0.0,0.0,0.0,0.0,0.0,0.0,0.0,0.0,0.0
896380100,502074,1644544024542097569,1,0.0,0.0,0.0,0.0,0.0,0.0,0.0,0.0,0.0,0.0,0.0,0.0,0.0,0.0,0.0,0.0,0.0,0.0,0.0,0.0,0.0,0.0,0.0,0.0,0.0,-0.0784531980753,0.00980664975941,9.99297618866,0.0,0.0,0.0,0.0,0.0,0.0,0.0,0.0,0.0
898429700,502075,1644544024544109583,1,0.0,0.0,0.0,0.0,0.0,0.0,0.0,0.0,0.0,0.0,0.0,0.0,0.0,0.0,0.0,0.0,0.0,0.0,0.0,0.0,0.0,0.0,0.0,0.0,0.0,-0.0686465501785,0.0,9.94394302368,0.0,0.0,0.0,0.0,0.0,0.0,0.0,0.0,0.0
900289200,502076,1644544024546123505,1,0.0,0.0,0.0,0.0,0.0,0.0,0.0,0.0,0.0,0.0,0.0,0.0,0.0,0.0,0.0,0.0,0.0,0.0,0.0,0.0,0.0,0.0,0.0,0.0,0.0,-0.0784531980753,0.00980664975941,9.91452312469,0.0,0.0,0.0,0.0,0.0,0.0,0.0,0.0,0.0
902330800,502077,1644544024548135519,1,0.0,0.0,0.0,0.0,0.0,0.0,0.0,0.0,0.0,0.0,0.0,0.0,0.0,0.0,0.0,0.0,0.0,0.0,0.0,0.0,0.0,0.0,0.0,0.0,0.0,-0.0686465501785,0.0294199492782,9.8949098587,0.0,0.0,0.0,0.0,0.0,0.0,0.0,0.0,0.0
904299400,502078,1644544024550149441,1,0.0,0.0,0.0,0.0,0.0,0.0,0.0,0.0,0.0,0.0,0.0,0.0,0.0,0.0,0.0,0.0,0.0,0.0,0.0,0.0,0.0,0.0,0.0,0.0,0.0,-0.00980664975941,0.0294199492782,9.99297618866,0.0,0.0,0.0,0.0,0.0,0.0,0.0,0.0,0.0
906272600,502079,1644544024552161455,1,0.0,0.0,0.0,0.0,0.0,0.0,0.0,0.0,0.0,0.0,0.0,0.0,0.0,0.0,0.0,0.0,0.0,0.0,0.0,0.0,0.0,0.0,0.0,0.0,0.0,-0.0980664938688,0.00980664975941,9.8949098587,0.0,0.0,0.0,0.0,0.0,0.0,0.0,0.0,0.0
908513000,502080,1644544024554175377,1,0.0,0.0,0.0,0.0,0.0,0.0,0.0,0.0,0.0,0.0,0.0,0.0,0.0,0.0,0.0,0.0,0.0,0.0,0.0,0.0,0.0,0.0,0.0,0.0,0.0,-0.0392265990376,0.0294199492782,9.8949098587,0.0,0.0,0.0,0.0,0.0,0.0,0.0,0.0,0.0
910483300,502081,1644544024556187153,1,0.0,0.0,0.0,0.0,0.0,0.0,0.0,0.0,0.0,0.0,0.0,0.0,0.0,0.0,0.0,0.0,0.0,0.0,0.0,0.0,0.0,0.0,0.0,0.0,0.0,-0.0784531980753,0.0294199492782,9.88510322571,0.0,0.0,0.0,0.0,0.0,0.0,0.0,0.0,0.0
912542800,502082,1644544024558199167,1,0.0,0.0,0.0,0.0,0.0,0.0,0.0,0.0,0.0,0.0,0.0,0.0,0.0,0.0,0.0,0.0,0.0,0.0,0.0,0.0,0.0,0.0,0.0,0.0,0.0,-0.0392265990376,0.00980664975941,9.88510322571,0.0,0.0,0.0,0.0,0.0,0.0,0.0,0.0,0.0
914544100,502083,1644544024560213089,1,0.0,0.0,0.0,0.0,0.0,0.0,0.0,0.0,0.0,0.0,0.0,0.0,0.0,0.0,0.0,0.0,0.0,0.0,0.0,0.0,0.0,0.0,0.0,0.0,0.0,-0.0980664938688,0.0294199492782,9.8949098587,0.0,0.0,0.0,0.0,0.0,0.0,0.0,0.0,0.0
916573300,502084,1644544024562225103,1,0.0,0.0,0.0,0.0,0.0,0.0,0.0,0.0,0.0,0.0,0.0,0.0,0.0,0.0,0.0,0.0,0.0,0.0,0.0,0.0,0.0,0.0,0.0,0.0,0.0,-0.0686465501785,0.00980664975941,9.96355628967,0.0,0.0,0.0,0.0,0.0,0.0,0.0,0.0,0.0
918496600,502085,1644544024564239025,1,0.0,0.0,0.0,0.0,0.0,0.0,0.0,0.0,0.0,0.0,0.0,0.0,0.0,0.0,0.0,0.0,0.0,0.0,0.0,0.0,0.0,0.0,0.0,0.0,0.0,-0.0294199492782,0.0294199492782,9.88510322571,0.0,0.0,0.0,0.0,0.0,0.0,0.0,0.0,0.0
920487300,502086,1644544024566251040,1,0.0,0.0,0.0,0.0,0.0,0.0,0.0,0.0,0.0,0.0,0.0,0.0,0.0,0.0,0.0,0.0,0.0,0.0,0.0,0.0,0.0,0.0,0.0,0.0,0.0,-0.0294199492782,0.0392265990376,9.8949098587,0.0,0.0,0.0,0.0,0.0,0.0,0.0,0.0,0.0
922515800,502087,1644544024568264961,1,0.0,0.0,0.0,0.0,0.0,0.0,0.0,0.0,0.0,0.0,0.0,0.0,0.0,0.0,0.0,0.0,0.0,0.0,0.0,0.0,0.0,0.0,0.0,0.0,0.0,-0.0784531980753,0.0686465501785,9.91452312469,0.0,0.0,0.0,0.0,0.0,0.0,0.0,0.0,0.0
924480700,502088,1644544024570276737,1,0.0,0.0,0.0,0.0,0.0,0.0,0.0,0.0,0.0,0.0,0.0,0.0,0.0,0.0,0.0,0.0,0.0,0.0,0.0,0.0,0.0,0.0,0.0,0.0,0.0,-0.0784531980753,0.0686465501785,9.8949098587,0.0,0.0,0.0,0.0,0.0,0.0,0.0,0.0,0.0
926607400,502089,1644544024572290659,1,0.0,0.0,0.0,0.0,0.0,0.0,0.0,0.0,0.0,0.0,0.0,0.0,0.0,0.0,0.0,0.0,0.0,0.0,0.0,0.0,0.0,0.0,0.0,0.0,0.0,-0.0784531980753,0.00980664975941,9.91452312469,0.0,0.0,0.0,0.0,0.0,0.0,0.0,0.0,0.0
928525700,502090,1644544024574302673,1,0.0,0.0,0.0,0.0,0.0,0.0,0.0,0.0,0.0,0.0,0.0,0.0,0.0,0.0,0.0,0.0,0.0,0.0,0.0,0.0,0.0,0.0,0.0,0.0,0.0,-0.0980664938688,0.0294199492782,9.91452312469,0.0,0.0,0.0,0.0,0.0,0.0,0.0,0.0,0.0
930628400,502091,1644544024576316595,1,0.0,0.0,0.0,0.0,0.0,0.0,0.0,0.0,0.0,0.0,0.0,0.0,0.0,0.0,0.0,0.0,0.0,0.0,0.0,0.0,0.0,0.0,0.0,0.0,0.0,-0.0392265990376,0.0392265990376,9.8949098587,0.0,0.0,0.0,0.0,0.0,0.0,0.0,0.0,0.0
932597800,502092,1644544024578328609,1,0.0,0.0,0.0,0.0,0.0,0.0,0.0,0.0,0.0,0.0,0.0,0.0,0.0,0.0,0.0,0.0,0.0,0.0,0.0,0.0,0.0,0.0,0.0,0.0,0.0,-0.0392265990376,0.00980664975941,9.8949098587,0.0,0.0,0.0,0.0,0.0,0.0,0.0,0.0,0.0
934449300,502093,1644544024580342770,1,0.0,0.0,0.0,0.0,0.0,0.0,0.0,0.0,0.0,0.0,0.0,0.0,0.0,0.0,0.0,0.0,0.0,0.0,0.0,0.0,0.0,0.0,0.0,0.0,0.0,-0.0784531980753,0.00980664975941,9.94394302368,0.0,0.0,0.0,0.0,0.0,0.0,0.0,0.0,0.0
936497100,502094,1644544024582354546,1,0.0,0.0,0.0,0.0,0.0,0.0,0.0,0.0,0.0,0.0,0.0,0.0,0.0,0.0,0.0,0.0,0.0,0.0,0.0,0.0,0.0,0.0,0.0,0.0,0.0,-0.0980664938688,0.0294199492782,9.94394302368,0.0,0.0,0.0,0.0,0.0,0.0,0.0,0.0,0.0
938437900,502095,1644544024584368706,1,0.0,0.0,0.0,0.0,0.0,0.0,0.0,0.0,0.0,0.0,0.0,0.0,0.0,0.0,0.0,0.0,0.0,0.0,0.0,0.0,0.0,0.0,0.0,0.0,0.0,-0.0686465501785,0.00980664975941,9.88510322571,0.0,0.0,0.0,0.0,0.0,0.0,0.0,0.0,0.0
940446900,502096,1644544024586380482,1,0.0,0.0,0.0,0.0,0.0,0.0,0.0,0.0,0.0,0.0,0.0,0.0,0.0,0.0,0.0,0.0,0.0,0.0,0.0,0.0,0.0,0.0,0.0,0.0,0.0,-0.00980664975941,0.0294199492782,9.8949098587,0.0,0.0,0.0,0.0,0.0,0.0,0.0,0.0,0.0
942523100,502097,1644544024588394642,1,0.0,0.0,0.0,0.0,0.0,0.0,0.0,0.0,0.0,0.0,0.0,0.0,0.0,0.0,0.0,0.0,0.0,0.0,0.0,0.0,0.0,0.0,0.0,0.0,0.0,-0.0392265990376,-0.00980664975941,9.94394302368,0.0,0.0,0.0,0.0,0.0,0.0,0.0,0.0,0.0
944665000,502098,1644544024590406418,1,0.0,0.0,0.0,0.0,0.0,0.0,0.0,0.0,0.0,0.0,0.0,0.0,0.0,0.0,0.0,0.0,0.0,0.0,0.0,0.0,0.0,0.0,0.0,0.0,0.0,-0.0784531980753,0.0,9.94394302368,0.0,0.0,0.0,0.0,0.0,0.0,0.0,0.0,0.0
946899400,502099,1644544024592420340,1,0.0,0.0,0.0,0.0,0.0,0.0,0.0,0.0,0.0,0.0,0.0,0.0,0.0,0.0,0.0,0.0,0.0,0.0,0.0,0.0,0.0,0.0,0.0,0.0,0.0,-0.0294199492782,0.0,9.94394302368,0.0,0.0,0.0,0.0,0.0,0.0,0.0,0.0,0.0
948779700,502100,1644544024594432354,1,0.0,0.0,0.0,0.0,0.0,0.0,0.0,0.0,0.0,0.0,0.0,0.0,0.0,0.0,0.0,0.0,0.0,0.0,0.0,0.0,0.0,0.0,0.0,0.0,0.0,-0.0686465501785,0.0,9.8949098587,0.0,0.0,0.0,0.0,0.0,0.0,0.0,0.0,0.0
951073300,502101,1644544024596446276,1,0.0,0.0,0.0,0.0,0.0,0.0,0.0,0.0,0.0,0.0,0.0,0.0,0.0,0.0,0.0,0.0,0.0,0.0,0.0,0.0,0.0,0.0,0.0,0.0,0.0,-0.0686465501785,-0.00980664975941,9.94394302368,0.0,0.0,0.0,0.0,0.0,0.0,0.0,0.0,0.0
953064500,502102,1644544024598458290,1,0.0,0.0,0.0,0.0,0.0,0.0,0.0,0.0,0.0,0.0,0.0,0.0,0.0,0.0,0.0,0.0,0.0,0.0,0.0,0.0,0.0,0.0,0.0,0.0,0.0,-0.0392265990376,0.0294199492782,9.91452312469,0.0,0.0,0.0,0.0,0.0,0.0,0.0,0.0,0.0
955000200,502103,1644544024600472212,1,0.0,0.0,0.0,0.0,0.0,0.0,0.0,0.0,0.0,0.0,0.0,0.0,0.0,0.0,0.0,0.0,0.0,0.0,0.0,0.0,0.0,0.0,0.0,0.0,0.0,-0.0392265990376,0.00980664975941,9.91452312469,0.0,0.0,0.0,0.0,0.0,0.0,0.0,0.0,0.0
957051300,502104,1644544024602484226,1,0.0,0.0,0.0,0.0,0.0,0.0,0.0,0.0,0.0,0.0,0.0,0.0,0.0,0.0,0.0,0.0,0.0,0.0,0.0,0.0,0.0,0.0,0.0,0.0,0.0,-0.0392265990376,0.0,9.91452312469,0.0,0.0,0.0,0.0,0.0,0.0,0.0,0.0,0.0
958707800,502105,1644544024604498148,1,0.0,0.0,0.0,0.0,0.0,0.0,0.0,0.0,0.0,0.0,0.0,0.0,0.0,0.0,0.0,0.0,0.0,0.0,0.0,0.0,0.0,0.0,0.0,0.0,0.0,-0.0294199492782,0.0294199492782,9.88510322571,0.0,0.0,0.0,0.0,0.0,0.0,0.0,0.0,0.0
961090900,502106,1644544024606509924,1,0.0,0.0,0.0,0.0,0.0,0.0,0.0,0.0,0.0,0.0,0.0,0.0,0.0,0.0,0.0,0.0,0.0,0.0,0.0,0.0,0.0,0.0,0.0,0.0,0.0,-0.00980664975941,0.00980664975941,9.96355628967,0.0,0.0,0.0,0.0,0.0,0.0,0.0,0.0,0.0
963256600,502107,1644544024608523846,1,0.0,0.0,0.0,0.0,0.0,0.0,0.0,0.0,0.0,0.0,0.0,0.0,0.0,0.0,0.0,0.0,0.0,0.0,0.0,0.0,0.0,0.0,0.0,0.0,0.0,-0.0686465501785,0.0,9.8949098587,0.0,0.0,0.0,0.0,0.0,0.0,0.0,0.0,0.0
965017100,502108,1644544024610535860,1,0.0,0.0,0.0,0.0,0.0,0.0,0.0,0.0,0.0,0.0,0.0,0.0,0.0,0.0,0.0,0.0,0.0,0.0,0.0,0.0,0.0,0.0,0.0,0.0,0.0,-0.0784531980753,0.0294199492782,9.8949098587,0.0,0.0,0.0,0.0,0.0,0.0,0.0,0.0,0.0
967006300,502109,1644544024612547874,1,0.0,0.0,0.0,0.0,0.0,0.0,0.0,0.0,0.0,0.0,0.0,0.0,0.0,0.0,0.0,0.0,0.0,0.0,0.0,0.0,0.0,0.0,0.0,0.0,0.0,-0.00980664975941,0.00980664975941,9.8949098587,0.0,0.0,0.0,0.0,0.0,0.0,0.0,0.0,0.0
969078300,502110,1644544024614561796,1,0.0,0.0,0.0,0.0,0.0,0.0,0.0,0.0,0.0,0.0,0.0,0.0,0.0,0.0,0.0,0.0,0.0,0.0,0.0,0.0,0.0,0.0,0.0,0.0,0.0,-0.0392265990376,0.00980664975941,9.91452312469,0.0,0.0,0.0,0.0,0.0,0.0,0.0,0.0,0.0
971029300,502111,1644544024616575718,1,0.0,0.0,0.0,0.0,0.0,0.0,0.0,0.0,0.0,0.0,0.0,0.0,0.0,0.0,0.0,0.0,0.0,0.0,0.0,0.0,0.0,0.0,0.0,0.0,0.0,-0.0686465501785,0.00980664975941,9.94394302368,0.0,0.0,0.0,0.0,0.0,0.0,0.0,0.0,0.0
973072200,502112,1644544024618587732,1,0.0,0.0,0.0,0.0,0.0,0.0,0.0,0.0,0.0,0.0,0.0,0.0,0.0,0.0,0.0,0.0,0.0,0.0,0.0,0.0,0.0,0.0,0.0,0.0,0.0,-0.0686465501785,0.0294199492782,9.8949098587,0.0,0.0,0.0,0.0,0.0,0.0,0.0,0.0,0.0
975054400,502113,1644544024620599508,1,0.0,0.0,0.0,0.0,0.0,0.0,0.0,0.0,0.0,0.0,0.0,0.0,0.0,0.0,0.0,0.0,0.0,0.0,0.0,0.0,0.0,0.0,0.0,0.0,0.0,-0.00980664975941,0.00980664975941,9.94394302368,0.0,0.0,0.0,0.0,0.0,0.0,0.0,0.0,0.0
977287900,502114,1644544024622613430,1,0.0,0.0,0.0,0.0,0.0,0.0,0.0,0.0,0.0,0.0,0.0,0.0,0.0,0.0,0.0,0.0,0.0,0.0,0.0,0.0,0.0,0.0,0.0,0.0,0.0,-0.00980664975941,-0.00980664975941,9.96355628967,0.0,0.0,0.0,0.0,0.0,0.0,0.0,0.0,0.0
979226000,502115,1644544024624625444,1,0.0,0.0,0.0,0.0,0.0,0.0,0.0,0.0,0.0,0.0,0.0,0.0,0.0,0.0,0.0,0.0,0.0,0.0,0.0,0.0,0.0,0.0,0.0,0.0,0.0,-0.00980664975941,0.0686465501785,9.86548995972,0.0,0.0,0.0,0.0,0.0,0.0,0.0,0.0,0.0
981045800,502116,1644544024626639366,1,0.0,0.0,0.0,0.0,0.0,0.0,0.0,0.0,0.0,0.0,0.0,0.0,0.0,0.0,0.0,0.0,0.0,0.0,0.0,0.0,0.0,0.0,0.0,0.0,0.0,-0.0686465501785,0.0294199492782,9.88510322571,0.0,0.0,0.0,0.0,0.0,0.0,0.0,0.0,0.0
983048300,502117,1644544024628651381,1,0.0,0.0,0.0,0.0,0.0,0.0,0.0,0.0,0.0,0.0,0.0,0.0,0.0,0.0,0.0,0.0,0.0,0.0,0.0,0.0,0.0,0.0,0.0,0.0,0.0,-0.0294199492782,0.0392265990376,9.96355628967,0.0,0.0,0.0,0.0,0.0,0.0,0.0,0.0,0.0
985007000,502118,1644544024630665302,1,0.0,0.0,0.0,0.0,0.0,0.0,0.0,0.0,0.0,0.0,0.0,0.0,0.0,0.0,0.0,0.0,0.0,0.0,0.0,0.0,0.0,0.0,0.0,0.0,0.0,-0.0686465501785,0.0392265990376,9.91452312469,0.0,0.0,0.0,0.0,0.0,0.0,0.0,0.0,0.0
987008700,502119,1644544024632679224,1,0.0,0.0,0.0,0.0,0.0,0.0,0.0,0.0,0.0,0.0,0.0,0.0,0.0,0.0,0.0,0.0,0.0,0.0,0.0,0.0,0.0,0.0,0.0,0.0,0.0,-0.00980664975941,0.0294199492782,9.96355628967,0.0,0.0,0.0,0.0,0.0,0.0,0.0,0.0,0.0
989006500,502120,1644544024634691238,1,0.0,0.0,0.0,0.0,0.0,0.0,0.0,0.0,0.0,0.0,0.0,0.0,0.0,0.0,0.0,0.0,0.0,0.0,0.0,0.0,0.0,0.0,0.0,0.0,0.0,-0.00980664975941,0.0392265990376,9.94394302368,0.0,0.0,0.0,0.0,0.0,0.0,0.0,0.0,0.0
990966500,502121,1644544024636705160,1,0.0,0.0,0.0,0.0,0.0,0.0,0.0,0.0,0.0,0.0,0.0,0.0,0.0,0.0,0.0,0.0,0.0,0.0,0.0,0.0,0.0,0.0,0.0,0.0,0.0,-0.0294199492782,-0.00980664975941,9.91452312469,0.0,0.0,0.0,0.0,0.0,0.0,0.0,0.0,0.0
993023500,502122,1644544024638716936,1,0.0,0.0,0.0,0.0,0.0,0.0,0.0,0.0,0.0,0.0,0.0,0.0,0.0,0.0,0.0,0.0,0.0,0.0,0.0,0.0,0.0,0.0,0.0,0.0,0.0,-0.00980664975941,0.0294199492782,9.94394302368,0.0,0.0,0.0,0.0,0.0,0.0,0.0,0.0,0.0
995034900,502123,1644544024640728951,1,0.0,0.0,0.0,0.0,0.0,0.0,0.0,0.0,0.0,0.0,0.0,0.0,0.0,0.0,0.0,0.0,0.0,0.0,0.0,0.0,0.0,0.0,0.0,0.0,0.0,-0.0392265990376,0.0392265990376,9.91452312469,0.0,0.0,0.0,0.0,0.0,0.0,0.0,0.0,0.0
997025300,502124,1644544024642742872,1,0.0,0.0,0.0,0.0,0.0,0.0,0.0,0.0,0.0,0.0,0.0,0.0,0.0,0.0,0.0,0.0,0.0,0.0,0.0,0.0,0.0,0.0,0.0,0.0,0.0,-0.0392265990376,0.00980664975941,9.91452312469,0.0,0.0,0.0,0.0,0.0,0.0,0.0,0.0,0.0
999073200,502125,1644544024644754887,1,0.0,0.0,0.0,0.0,0.0,0.0,0.0,0.0,0.0,0.0,0.0,0.0,0.0,0.0,0.0,0.0,0.0,0.0,0.0,0.0,0.0,0.0,0.0,0.0,0.0,-0.0686465501785,0.0784531980753,9.88510322571,0.0,0.0,0.0,0.0,0.0,0.0,0.0,0.0,0.0
1001212000,502126,1644544024646768808,1,0.0,0.0,0.0,0.0,0.0,0.0,0.0,0.0,0.0,0.0,0.0,0.0,0.0,0.0,0.0,0.0,0.0,0.0,0.0,0.0,0.0,0.0,0.0,0.0,0.0,-0.0294199492782,0.0980664938688,9.99297618866,0.0,0.0,0.0,0.0,0.0,0.0,0.0,0.0,0.0
1003101000,502127,1644544024648780823,1,0.0,0.0,0.0,0.0,0.0,0.0,0.0,0.0,0.0,0.0,0.0,0.0,0.0,0.0,0.0,0.0,0.0,0.0,0.0,0.0,0.0,0.0,0.0,0.0,0.0,-0.0392265990376,0.0294199492782,9.8949098587,0.0,0.0,0.0,0.0,0.0,0.0,0.0,0.0,0.0
1005136500,502128,1644544024650794983,1,0.0,0.0,0.0,0.0,0.0,0.0,0.0,0.0,0.0,0.0,0.0,0.0,0.0,0.0,0.0,0.0,0.0,0.0,0.0,0.0,0.0,0.0,0.0,0.0,0.0,-0.0294199492782,0.0392265990376,9.94394302368,0.0,0.0,0.0,0.0,0.0,0.0,0.0,0.0,0.0
1007102000,502129,1644544024652806759,1,0.0,0.0,0.0,0.0,0.0,0.0,0.0,0.0,0.0,0.0,0.0,0.0,0.0,0.0,0.0,0.0,0.0,0.0,0.0,0.0,0.0,0.0,0.0,0.0,0.0,-0.0294199492782,0.0784531980753,9.91452312469,0.0,0.0,0.0,0.0,0.0,0.0,0.0,0.0,0.0
1009077500,502130,1644544024654820919,1,0.0,0.0,0.0,0.0,0.0,0.0,0.0,0.0,0.0,0.0,0.0,0.0,0.0,0.0,0.0,0.0,0.0,0.0,0.0,0.0,0.0,0.0,0.0,0.0,0.0,-0.0294199492782,0.0784531980753,9.8949098587,0.0,0.0,0.0,0.0,0.0,0.0,0.0,0.0,0.0
1011035400,502131,1644544024656832695,1,0.0,0.0,0.0,0.0,0.0,0.0,0.0,0.0,0.0,0.0,0.0,0.0,0.0,0.0,0.0,0.0,0.0,0.0,0.0,0.0,0.0,0.0,0.0,0.0,0.0,-0.0686465501785,0.0686465501785,9.94394302368,0.0,0.0,0.0,0.0,0.0,0.0,0.0,0.0,0.0
1013078800,502132,1644544024658846617,1,0.0,0.0,0.0,0.0,0.0,0.0,0.0,0.0,0.0,0.0,0.0,0.0,0.0,0.0,0.0,0.0,0.0,0.0,0.0,0.0,0.0,0.0,0.0,0.0,0.0,-0.00980664975941,0.0392265990376,9.96355628967,0.0,0.0,0.0,0.0,0.0,0.0,0.0,0.0,0.0
1015022400,502133,1644544024660858631,1,0.0,0.0,0.0,0.0,0.0,0.0,0.0,0.0,0.0,0.0,0.0,0.0,0.0,0.0,0.0,0.0,0.0,0.0,0.0,0.0,0.0,0.0,0.0,0.0,0.0,-0.0392265990376,0.0686465501785,9.91452312469,0.0,0.0,0.0,0.0,0.0,0.0,0.0,0.0,0.0
1017007100,502134,1644544024662872553,1,0.0,0.0,0.0,0.0,0.0,0.0,0.0,0.0,0.0,0.0,0.0,0.0,0.0,0.0,0.0,0.0,0.0,0.0,0.0,0.0,0.0,0.0,0.0,0.0,0.0,-0.0686465501785,0.0686465501785,9.91452312469,0.0,0.0,0.0,0.0,0.0,0.0,0.0,0.0,0.0
1019012500,502135,1644544024664884567,1,0.0,0.0,0.0,0.0,0.0,0.0,0.0,0.0,0.0,0.0,0.0,0.0,0.0,0.0,0.0,0.0,0.0,0.0,0.0,0.0,0.0,0.0,0.0,0.0,0.0,-0.0686465501785,0.0980664938688,9.96355628967,0.0,0.0,0.0,0.0,0.0,0.0,0.0,0.0,0.0
1021058300,502136,1644544024666898489,1,0.0,0.0,0.0,0.0,0.0,0.0,0.0,0.0,0.0,0.0,0.0,0.0,0.0,0.0,0.0,0.0,0.0,0.0,0.0,0.0,0.0,0.0,0.0,0.0,0.0,-0.0686465501785,0.0784531980753,9.91452312469,0.0,0.0,0.0,0.0,0.0,0.0,0.0,0.0,0.0
1023222400,502137,1644544024668910503,1,0.0,0.0,0.0,0.0,0.0,0.0,0.0,0.0,0.0,0.0,0.0,0.0,0.0,0.0,0.0,0.0,0.0,0.0,0.0,0.0,0.0,0.0,0.0,0.0,0.0,-0.0294199492782,0.0980664938688,9.8949098587,0.0,0.0,0.0,0.0,0.0,0.0,0.0,0.0,0.0
1025231700,502138,1644544024670924425,1,0.0,0.0,0.0,0.0,0.0,0.0,0.0,0.0,0.0,0.0,0.0,0.0,0.0,0.0,0.0,0.0,0.0,0.0,0.0,0.0,0.0,0.0,0.0,0.0,0.0,-0.0784531980753,0.0392265990376,9.96355628967,0.0,0.0,0.0,0.0,0.0,0.0,0.0,0.0,0.0
1027197000,502139,1644544024672936201,1,0.0,0.0,0.0,0.0,0.0,0.0,0.0,0.0,0.0,0.0,0.0,0.0,0.0,0.0,0.0,0.0,0.0,0.0,0.0,0.0,0.0,0.0,0.0,0.0,0.0,-0.0294199492782,0.0392265990376,9.96355628967,0.0,0.0,0.0,0.0,0.0,0.0,0.0,0.0,0.0
1029331800,502140,1644544024674950123,1,0.0,0.0,0.0,0.0,0.0,0.0,0.0,0.0,0.0,0.0,0.0,0.0,0.0,0.0,0.0,0.0,0.0,0.0,0.0,0.0,0.0,0.0,0.0,0.0,0.0,-0.0392265990376,0.0784531980753,9.8949098587,0.0,0.0,0.0,0.0,0.0,0.0,0.0,0.0,0.0
1031199300,502141,1644544024676962137,1,0.0,0.0,0.0,0.0,0.0,0.0,0.0,0.0,0.0,0.0,0.0,0.0,0.0,0.0,0.0,0.0,0.0,0.0,0.0,0.0,0.0,0.0,0.0,0.0,0.0,-0.0980664938688,0.0980664938688,9.94394302368,0.0,0.0,0.0,0.0,0.0,0.0,0.0,0.0,0.0
1033193600,502142,1644544024678976059,1,0.0,0.0,0.0,0.0,0.0,0.0,0.0,0.0,0.0,0.0,0.0,0.0,0.0,0.0,0.0,0.0,0.0,0.0,0.0,0.0,0.0,0.0,0.0,0.0,0.0,-0.0294199492782,0.0686465501785,9.94394302368,0.0,0.0,0.0,0.0,0.0,0.0,0.0,0.0,0.0
1035191300,502143,1644544024680988073,1,0.0,0.0,0.0,0.0,0.0,0.0,0.0,0.0,0.0,0.0,0.0,0.0,0.0,0.0,0.0,0.0,0.0,0.0,0.0,0.0,0.0,0.0,0.0,0.0,0.0,-0.0686465501785,0.0392265990376,9.98316955566,0.0,0.0,0.0,0.0,0.0,0.0,0.0,0.0,0.0
1037281000,502144,1644544024683001995,1,0.0,0.0,0.0,0.0,0.0,0.0,0.0,0.0,0.0,0.0,0.0,0.0,0.0,0.0,0.0,0.0,0.0,0.0,0.0,0.0,0.0,0.0,0.0,0.0,0.0,-0.0784531980753,0.0784531980753,9.96355628967,0.0,0.0,0.0,0.0,0.0,0.0,0.0,0.0,0.0
1039312000,502145,1644544024685014009,1,0.0,0.0,0.0,0.0,0.0,0.0,0.0,0.0,0.0,0.0,0.0,0.0,0.0,0.0,0.0,0.0,0.0,0.0,0.0,0.0,0.0,0.0,0.0,0.0,0.0,-0.0294199492782,0.0294199492782,9.98316955566,0.0,0.0,0.0,0.0,0.0,0.0,0.0,0.0,0.0
1041191700,502146,1644544024687027931,1,0.0,0.0,0.0,0.0,0.0,0.0,0.0,0.0,0.0,0.0,0.0,0.0,0.0,0.0,0.0,0.0,0.0,0.0,0.0,0.0,0.0,0.0,0.0,0.0,0.0,-0.0784531980753,0.0686465501785,9.98316955566,0.0,0.0,0.0,0.0,0.0,0.0,0.0,0.0,0.0
1043244400,502147,1644544024689039707,1,0.0,0.0,0.0,0.0,0.0,0.0,0.0,0.0,0.0,0.0,0.0,0.0,0.0,0.0,0.0,0.0,0.0,0.0,0.0,0.0,0.0,0.0,0.0,0.0,0.0,-0.0686465501785,0.0686465501785,9.98316955566,0.0,0.0,0.0,0.0,0.0,0.0,0.0,0.0,0.0
1045248500,502148,1644544024691053629,1,0.0,0.0,0.0,0.0,0.0,0.0,0.0,0.0,0.0,0.0,0.0,0.0,0.0,0.0,0.0,0.0,0.0,0.0,0.0,0.0,0.0,0.0,0.0,0.0,0.0,-0.0784531980753,0.0784531980753,10.0125894547,0.0,0.0,0.0,0.0,0.0,0.0,0.0,0.0,0.0
1047703900,502149,1644544024693065643,1,0.0,0.0,0.0,0.0,0.0,0.0,0.0,0.0,0.0,0.0,0.0,0.0,0.0,0.0,0.0,0.0,0.0,0.0,0.0,0.0,0.0,0.0,0.0,0.0,0.0,-0.0784531980753,0.0392265990376,9.99297618866,0.0,0.0,0.0,0.0,0.0,0.0,0.0,0.0,0.0
1049264600,502150,1644544024695079565,1,0.0,0.0,0.0,0.0,0.0,0.0,0.0,0.0,0.0,0.0,0.0,0.0,0.0,0.0,0.0,0.0,0.0,0.0,0.0,0.0,0.0,0.0,0.0,0.0,0.0,-0.0784531980753,0.0686465501785,9.91452312469,0.0,0.0,0.0,0.0,0.0,0.0,0.0,0.0,0.0
1051283900,502151,1644544024697093725,1,0.0,0.0,0.0,0.0,0.0,0.0,0.0,0.0,0.0,0.0,0.0,0.0,0.0,0.0,0.0,0.0,0.0,0.0,0.0,0.0,0.0,0.0,0.0,0.0,0.0,-0.0784531980753,0.00980664975941,9.91452312469,0.0,0.0,0.0,0.0,0.0,0.0,0.0,0.0,0.0
1053320200,502152,1644544024699105740,1,0.0,0.0,0.0,0.0,0.0,0.0,0.0,0.0,0.0,0.0,0.0,0.0,0.0,0.0,0.0,0.0,0.0,0.0,0.0,0.0,0.0,0.0,0.0,0.0,0.0,-0.0784531980753,0.0294199492782,9.8949098587,0.0,0.0,0.0,0.0,0.0,0.0,0.0,0.0,0.0
1055282000,502153,1644544024701119661,1,0.0,0.0,0.0,0.0,0.0,0.0,0.0,0.0,0.0,0.0,0.0,0.0,0.0,0.0,0.0,0.0,0.0,0.0,0.0,0.0,0.0,0.0,0.0,0.0,0.0,-0.0686465501785,0.0294199492782,9.94394302368,0.0,0.0,0.0,0.0,0.0,0.0,0.0,0.0,0.0
1057256100,502154,1644544024703131676,1,0.0,0.0,0.0,0.0,0.0,0.0,0.0,0.0,0.0,0.0,0.0,0.0,0.0,0.0,0.0,0.0,0.0,0.0,0.0,0.0,0.0,0.0,0.0,0.0,0.0,-0.0784531980753,0.0686465501785,9.94394302368,0.0,0.0,0.0,0.0,0.0,0.0,0.0,0.0,0.0
1059258300,502155,1644544024705145597,1,0.0,0.0,0.0,0.0,0.0,0.0,0.0,0.0,0.0,0.0,0.0,0.0,0.0,0.0,0.0,0.0,0.0,0.0,0.0,0.0,0.0,0.0,0.0,0.0,0.0,-0.0686465501785,0.0294199492782,9.98316955566,0.0,0.0,0.0,0.0,0.0,0.0,0.0,0.0,0.0
1061263900,502156,1644544024707157373,1,0.0,0.0,0.0,0.0,0.0,0.0,0.0,0.0,0.0,0.0,0.0,0.0,0.0,0.0,0.0,0.0,0.0,0.0,0.0,0.0,0.0,0.0,0.0,0.0,0.0,-0.0980664938688,0.0294199492782,9.8949098587,0.0,0.0,0.0,0.0,0.0,0.0,0.0,0.0,0.0
1063291900,502157,1644544024709171295,1,0.0,0.0,0.0,0.0,0.0,0.0,0.0,0.0,0.0,0.0,0.0,0.0,0.0,0.0,0.0,0.0,0.0,0.0,0.0,0.0,0.0,0.0,0.0,0.0,0.0,-0.0686465501785,0.00980664975941,9.94394302368,0.0,0.0,0.0,0.0,0.0,0.0,0.0,0.0,0.0
1065513700,502158,1644544024711183310,1,0.0,0.0,0.0,0.0,0.0,0.0,0.0,0.0,0.0,0.0,0.0,0.0,0.0,0.0,0.0,0.0,0.0,0.0,0.0,0.0,0.0,0.0,0.0,0.0,0.0,-0.0392265990376,0.0294199492782,9.96355628967,0.0,0.0,0.0,0.0,0.0,0.0,0.0,0.0,0.0
1067496700,502159,1644544024713197231,1,0.0,0.0,0.0,0.0,0.0,0.0,0.0,0.0,0.0,0.0,0.0,0.0,0.0,0.0,0.0,0.0,0.0,0.0,0.0,0.0,0.0,0.0,0.0,0.0,0.0,-0.0294199492782,0.0294199492782,9.98316955566,0.0,0.0,0.0,0.0,0.0,0.0,0.0,0.0,0.0
1069444600,502160,1644544024715209246,1,0.0,0.0,0.0,0.0,0.0,0.0,0.0,0.0,0.0,0.0,0.0,0.0,0.0,0.0,0.0,0.0,0.0,0.0,0.0,0.0,0.0,0.0,0.0,0.0,0.0,-0.0294199492782,0.0294199492782,9.8949098587,0.0,0.0,0.0,0.0,0.0,0.0,0.0,0.0,0.0
1071447600,502161,1644544024717223167,1,0.0,0.0,0.0,0.0,0.0,0.0,0.0,0.0,0.0,0.0,0.0,0.0,0.0,0.0,0.0,0.0,0.0,0.0,0.0,0.0,0.0,0.0,0.0,0.0,0.0,-0.0392265990376,0.0294199492782,9.91452312469,0.0,0.0,0.0,0.0,0.0,0.0,0.0,0.0,0.0
1073741300,502162,1644544024719235182,1,0.0,0.0,0.0,0.0,0.0,0.0,0.0,0.0,0.0,0.0,0.0,0.0,0.0,0.0,0.0,0.0,0.0,0.0,0.0,0.0,0.0,0.0,0.0,0.0,0.0,-0.0784531980753,0.00980664975941,9.8949098587,0.0,0.0,0.0,0.0,0.0,0.0,0.0,0.0,0.0
1075737100,502163,1644544024721249104,1,0.0,0.0,0.0,0.0,0.0,0.0,0.0,0.0,0.0,0.0,0.0,0.0,0.0,0.0,0.0,0.0,0.0,0.0,0.0,0.0,0.0,0.0,0.0,0.0,0.0,-0.0392265990376,0.00980664975941,9.91452312469,0.0,0.0,0.0,0.0,0.0,0.0,0.0,0.0,0.0
1077784000,502164,1644544024723263025,1,0.0,0.0,0.0,0.0,0.0,0.0,0.0,0.0,0.0,0.0,0.0,0.0,0.0,0.0,0.0,0.0,0.0,0.0,0.0,0.0,0.0,0.0,0.0,0.0,0.0,-0.0686465501785,0.00980664975941,9.91452312469,0.0,0.0,0.0,0.0,0.0,0.0,0.0,0.0,0.0
1079774100,502165,1644544024725274801,1,0.0,0.0,0.0,0.0,0.0,0.0,0.0,0.0,0.0,0.0,0.0,0.0,0.0,0.0,0.0,0.0,0.0,0.0,0.0,0.0,0.0,0.0,0.0,0.0,0.0,-0.0784531980753,0.0294199492782,9.91452312469,0.0,0.0,0.0,0.0,0.0,0.0,0.0,0.0,0.0
1081714700,502166,1644544024727288723,1,0.0,0.0,0.0,0.0,0.0,0.0,0.0,0.0,0.0,0.0,0.0,0.0,0.0,0.0,0.0,0.0,0.0,0.0,0.0,0.0,0.0,0.0,0.0,0.0,0.0,-0.0392265990376,0.00980664975941,9.94394302368,0.0,0.0,0.0,0.0,0.0,0.0,0.0,0.0,0.0
1083822400,502167,1644544024729300737,1,0.0,0.0,0.0,0.0,0.0,0.0,0.0,0.0,0.0,0.0,0.0,0.0,0.0,0.0,0.0,0.0,0.0,0.0,0.0,0.0,0.0,0.0,0.0,0.0,0.0,-0.0392265990376,0.00980664975941,9.88510322571,0.0,0.0,0.0,0.0,0.0,0.0,0.0,0.0,0.0
1085751200,502168,1644544024731314659,1,0.0,0.0,0.0,0.0,0.0,0.0,0.0,0.0,0.0,0.0,0.0,0.0,0.0,0.0,0.0,0.0,0.0,0.0,0.0,0.0,0.0,0.0,0.0,0.0,0.0,-0.0392265990376,0.00980664975941,9.91452312469,0.0,0.0,0.0,0.0,0.0,0.0,0.0,0.0,0.0
1087720700,502169,1644544024733326674,1,0.0,0.0,0.0,0.0,0.0,0.0,0.0,0.0,0.0,0.0,0.0,0.0,0.0,0.0,0.0,0.0,0.0,0.0,0.0,0.0,0.0,0.0,0.0,0.0,0.0,-0.0392265990376,0.0,9.8949098587,0.0,0.0,0.0,0.0,0.0,0.0,0.0,0.0,0.0
1089742900,502170,1644544024735340834,1,0.0,0.0,0.0,0.0,0.0,0.0,0.0,0.0,0.0,0.0,0.0,0.0,0.0,0.0,0.0,0.0,0.0,0.0,0.0,0.0,0.0,0.0,0.0,0.0,0.0,-0.0392265990376,0.00980664975941,9.91452312469,0.0,0.0,0.0,0.0,0.0,0.0,0.0,0.0,0.0
1091765200,502171,1644544024737354755,1,0.0,0.0,0.0,0.0,0.0,0.0,0.0,0.0,0.0,0.0,0.0,0.0,0.0,0.0,0.0,0.0,0.0,0.0,0.0,0.0,0.0,0.0,0.0,0.0,0.0,-0.0392265990376,0.0686465501785,9.91452312469,0.0,0.0,0.0,0.0,0.0,0.0,0.0,0.0,0.0
1093729200,502172,1644544024739366770,1,0.0,0.0,0.0,0.0,0.0,0.0,0.0,0.0,0.0,0.0,0.0,0.0,0.0,0.0,0.0,0.0,0.0,0.0,0.0,0.0,0.0,0.0,0.0,0.0,0.0,-0.00980664975941,0.00980664975941,9.94394302368,0.0,0.0,0.0,0.0,0.0,0.0,0.0,0.0,0.0
1096393100,502173,1644544024741380692,1,0.0,0.0,0.0,0.0,0.0,0.0,0.0,0.0,0.0,0.0,0.0,0.0,0.0,0.0,0.0,0.0,0.0,0.0,0.0,0.0,0.0,0.0,0.0,0.0,0.0,-0.0392265990376,0.0294199492782,9.98316955566,0.0,0.0,0.0,0.0,0.0,0.0,0.0,0.0,0.0
1098282900,502174,1644544024743394613,1,0.0,0.0,0.0,0.0,0.0,0.0,0.0,0.0,0.0,0.0,0.0,0.0,0.0,0.0,0.0,0.0,0.0,0.0,0.0,0.0,0.0,0.0,0.0,0.0,0.0,-0.0294199492782,0.0,9.8949098587,0.0,0.0,0.0,0.0,0.0,0.0,0.0,0.0,0.0
1099847900,502175,1644544024745406389,1,0.0,0.0,0.0,0.0,0.0,0.0,0.0,0.0,0.0,0.0,0.0,0.0,0.0,0.0,0.0,0.0,0.0,0.0,0.0,0.0,0.0,0.0,0.0,0.0,0.0,-0.0392265990376,0.0294199492782,9.88510322571,0.0,0.0,0.0,0.0,0.0,0.0,0.0,0.0,0.0
1101763000,502176,1644544024747420311,1,0.0,0.0,0.0,0.0,0.0,0.0,0.0,0.0,0.0,0.0,0.0,0.0,0.0,0.0,0.0,0.0,0.0,0.0,0.0,0.0,0.0,0.0,0.0,0.0,0.0,-0.0784531980753,-0.00980664975941,9.86548995972,0.0,0.0,0.0,0.0,0.0,0.0,0.0,0.0,0.0
1103778000,502177,1644544024749432325,1,0.0,0.0,0.0,0.0,0.0,0.0,0.0,0.0,0.0,0.0,0.0,0.0,0.0,0.0,0.0,0.0,0.0,0.0,0.0,0.0,0.0,0.0,0.0,0.0,0.0,-0.0686465501785,0.00980664975941,9.91452312469,0.0,0.0,0.0,0.0,0.0,0.0,0.0,0.0,0.0
1105754100,502178,1644544024751446247,1,0.0,0.0,0.0,0.0,0.0,0.0,0.0,0.0,0.0,0.0,0.0,0.0,0.0,0.0,0.0,0.0,0.0,0.0,0.0,0.0,0.0,0.0,0.0,0.0,0.0,-0.0686465501785,-0.0294199492782,9.8949098587,0.0,0.0,0.0,0.0,0.0,0.0,0.0,0.0,0.0
1107740500,502179,1644544024753458261,1,0.0,0.0,0.0,0.0,0.0,0.0,0.0,0.0,0.0,0.0,0.0,0.0,0.0,0.0,0.0,0.0,0.0,0.0,0.0,0.0,0.0,0.0,0.0,0.0,0.0,-0.0686465501785,0.00980664975941,9.88510322571,0.0,0.0,0.0,0.0,0.0,0.0,0.0,0.0,0.0
1109741400,502180,1644544024755472183,1,0.0,0.0,0.0,0.0,0.0,0.0,0.0,0.0,0.0,0.0,0.0,0.0,0.0,0.0,0.0,0.0,0.0,0.0,0.0,0.0,0.0,0.0,0.0,0.0,0.0,-0.0686465501785,-0.00980664975941,9.94394302368,0.0,0.0,0.0,0.0,0.0,0.0,0.0,0.0,0.0
1111853000,502181,1644544024757484198,1,0.0,0.0,0.0,0.0,0.0,0.0,0.0,0.0,0.0,0.0,0.0,0.0,0.0,0.0,0.0,0.0,0.0,0.0,0.0,0.0,0.0,0.0,0.0,0.0,0.0,-0.0784531980753,0.0294199492782,9.88510322571,0.0,0.0,0.0,0.0,0.0,0.0,0.0,0.0,0.0
1113991500,502182,1644544024759498119,1,0.0,0.0,0.0,0.0,0.0,0.0,0.0,0.0,0.0,0.0,0.0,0.0,0.0,0.0,0.0,0.0,0.0,0.0,0.0,0.0,0.0,0.0,0.0,0.0,0.0,-0.0686465501785,0.00980664975941,9.91452312469,0.0,0.0,0.0,0.0,0.0,0.0,0.0,0.0,0.0
1115776800,502183,1644544024761512280,1,0.0,0.0,0.0,0.0,0.0,0.0,0.0,0.0,0.0,0.0,0.0,0.0,0.0,0.0,0.0,0.0,0.0,0.0,0.0,0.0,0.0,0.0,0.0,0.0,0.0,-0.0686465501785,-0.0294199492782,9.94394302368,0.0,0.0,0.0,0.0,0.0,0.0,0.0,0.0,0.0
1117741500,502184,1644544024763524055,1,0.0,0.0,0.0,0.0,0.0,0.0,0.0,0.0,0.0,0.0,0.0,0.0,0.0,0.0,0.0,0.0,0.0,0.0,0.0,0.0,0.0,0.0,0.0,0.0,0.0,-0.0784531980753,-0.00980664975941,9.96355628967,0.0,0.0,0.0,0.0,0.0,0.0,0.0,0.0,0.0
1119736100,502185,1644544024765535831,1,0.0,0.0,0.0,0.0,0.0,0.0,0.0,0.0,0.0,0.0,0.0,0.0,0.0,0.0,0.0,0.0,0.0,0.0,0.0,0.0,0.0,0.0,0.0,0.0,0.0,-0.0294199492782,0.0,9.91452312469,0.0,0.0,0.0,0.0,0.0,0.0,0.0,0.0,0.0
1121736900,502186,1644544024767549992,1,0.0,0.0,0.0,0.0,0.0,0.0,0.0,0.0,0.0,0.0,0.0,0.0,0.0,0.0,0.0,0.0,0.0,0.0,0.0,0.0,0.0,0.0,0.0,0.0,0.0,-0.0392265990376,0.00980664975941,9.88510322571,0.0,0.0,0.0,0.0,0.0,0.0,0.0,0.0,0.0
1123728600,502187,1644544024769562006,1,0.0,0.0,0.0,0.0,0.0,0.0,0.0,0.0,0.0,0.0,0.0,0.0,0.0,0.0,0.0,0.0,0.0,0.0,0.0,0.0,0.0,0.0,0.0,0.0,0.0,-0.0784531980753,0.0294199492782,9.91452312469,0.0,0.0,0.0,0.0,0.0,0.0,0.0,0.0,0.0
1125733300,502188,1644544024771575928,1,0.0,0.0,0.0,0.0,0.0,0.0,0.0,0.0,0.0,0.0,0.0,0.0,0.0,0.0,0.0,0.0,0.0,0.0,0.0,0.0,0.0,0.0,0.0,0.0,0.0,-0.0294199492782,0.00980664975941,9.98316955566,0.0,0.0,0.0,0.0,0.0,0.0,0.0,0.0,0.0
1128308800,502189,1644544024773587942,1,0.0,0.0,0.0,0.0,0.0,0.0,0.0,0.0,0.0,0.0,0.0,0.0,0.0,0.0,0.0,0.0,0.0,0.0,0.0,0.0,0.0,0.0,0.0,0.0,0.0,-0.0392265990376,0.0392265990376,9.94394302368,0.0,0.0,0.0,0.0,0.0,0.0,0.0,0.0,0.0
1130351000,502190,1644544024775601864,1,0.0,0.0,0.0,0.0,0.0,0.0,0.0,0.0,0.0,0.0,0.0,0.0,0.0,0.0,0.0,0.0,0.0,0.0,0.0,0.0,0.0,0.0,0.0,0.0,0.0,-0.0784531980753,0.00980664975941,9.8949098587,0.0,0.0,0.0,0.0,0.0,0.0,0.0,0.0,0.0
1132280900,502191,1644544024777613878,1,0.0,0.0,0.0,0.0,0.0,0.0,0.0,0.0,0.0,0.0,0.0,0.0,0.0,0.0,0.0,0.0,0.0,0.0,0.0,0.0,0.0,0.0,0.0,0.0,0.0,-0.0294199492782,0.0,9.88510322571,0.0,0.0,0.0,0.0,0.0,0.0,0.0,0.0,0.0
1133892100,502192,1644544024779627800,1,0.0,0.0,0.0,0.0,0.0,0.0,0.0,0.0,0.0,0.0,0.0,0.0,0.0,0.0,0.0,0.0,0.0,0.0,0.0,0.0,0.0,0.0,0.0,0.0,0.0,-0.0392265990376,0.0294199492782,9.8949098587,0.0,0.0,0.0,0.0,0.0,0.0,0.0,0.0,0.0
1135900600,502193,1644544024781639576,1,0.0,0.0,0.0,0.0,0.0,0.0,0.0,0.0,0.0,0.0,0.0,0.0,0.0,0.0,0.0,0.0,0.0,0.0,0.0,0.0,0.0,0.0,0.0,0.0,0.0,-0.0392265990376,0.00980664975941,9.8949098587,0.0,0.0,0.0,0.0,0.0,0.0,0.0,0.0,0.0
1137861000,502194,1644544024783653498,1,0.0,0.0,0.0,0.0,0.0,0.0,0.0,0.0,0.0,0.0,0.0,0.0,0.0,0.0,0.0,0.0,0.0,0.0,0.0,0.0,0.0,0.0,0.0,0.0,0.0,-0.0294199492782,0.00980664975941,9.94394302368,0.0,0.0,0.0,0.0,0.0,0.0,0.0,0.0,0.0
1140008500,502195,1644544024785667419,1,0.0,0.0,0.0,0.0,0.0,0.0,0.0,0.0,0.0,0.0,0.0,0.0,0.0,0.0,0.0,0.0,0.0,0.0,0.0,0.0,0.0,0.0,0.0,0.0,0.0,-0.0392265990376,0.0,9.88510322571,0.0,0.0,0.0,0.0,0.0,0.0,0.0,0.0,0.0
1142261500,502196,1644544024787679434,1,0.0,0.0,0.0,0.0,0.0,0.0,0.0,0.0,0.0,0.0,0.0,0.0,0.0,0.0,0.0,0.0,0.0,0.0,0.0,0.0,0.0,0.0,0.0,0.0,0.0,-0.0392265990376,0.0294199492782,9.91452312469,0.0,0.0,0.0,0.0,0.0,0.0,0.0,0.0,0.0
1144100400,502197,1644544024789693356,1,0.0,0.0,0.0,0.0,0.0,0.0,0.0,0.0,0.0,0.0,0.0,0.0,0.0,0.0,0.0,0.0,0.0,0.0,0.0,0.0,0.0,0.0,0.0,0.0,0.0,-0.0686465501785,-0.00980664975941,9.91452312469,0.0,0.0,0.0,0.0,0.0,0.0,0.0,0.0,0.0
1146338000,502198,1644544024791705370,1,0.0,0.0,0.0,0.0,0.0,0.0,0.0,0.0,0.0,0.0,0.0,0.0,0.0,0.0,0.0,0.0,0.0,0.0,0.0,0.0,0.0,0.0,0.0,0.0,0.0,-0.0294199492782,0.0294199492782,9.8949098587,0.0,0.0,0.0,0.0,0.0,0.0,0.0,0.0,0.0
1148098900,502199,1644544024793719530,1,0.0,0.0,0.0,0.0,0.0,0.0,0.0,0.0,0.0,0.0,0.0,0.0,0.0,0.0,0.0,0.0,0.0,0.0,0.0,0.0,0.0,0.0,0.0,0.0,0.0,-0.0784531980753,-0.00980664975941,9.96355628967,0.0,0.0,0.0,0.0,0.0,0.0,0.0,0.0,0.0
1150320400,502200,1644544024795731306,1,0.0,0.0,0.0,0.0,0.0,0.0,0.0,0.0,0.0,0.0,0.0,0.0,0.0,0.0,0.0,0.0,0.0,0.0,0.0,0.0,0.0,0.0,0.0,0.0,0.0,-0.0294199492782,0.0294199492782,9.8949098587,0.0,0.0,0.0,0.0,0.0,0.0,0.0,0.0,0.0
1152110900,502201,1644544024797743082,1,0.0,0.0,0.0,0.0,0.0,0.0,0.0,0.0,0.0,0.0,0.0,0.0,0.0,0.0,0.0,0.0,0.0,0.0,0.0,0.0,0.0,0.0,0.0,0.0,0.0,-0.00980664975941,0.0,9.94394302368,0.0,0.0,0.0,0.0,0.0,0.0,0.0,0.0,0.0
1154098700,502202,1644544024799757242,1,0.0,0.0,0.0,0.0,0.0,0.0,0.0,0.0,0.0,0.0,0.0,0.0,0.0,0.0,0.0,0.0,0.0,0.0,0.0,0.0,0.0,0.0,0.0,0.0,0.0,-0.0294199492782,0.0294199492782,9.91452312469,0.0,0.0,0.0,0.0,0.0,0.0,0.0,0.0,0.0
1155964900,502203,1644544024801771164,1,0.0,0.0,0.0,0.0,0.0,0.0,0.0,0.0,0.0,0.0,0.0,0.0,0.0,0.0,0.0,0.0,0.0,0.0,0.0,0.0,0.0,0.0,0.0,0.0,0.0,-0.0784531980753,-0.00980664975941,9.91452312469,0.0,0.0,0.0,0.0,0.0,0.0,0.0,0.0,0.0
1158108000,502204,1644544024803783178,1,0.0,0.0,0.0,0.0,0.0,0.0,0.0,0.0,0.0,0.0,0.0,0.0,0.0,0.0,0.0,0.0,0.0,0.0,0.0,0.0,0.0,0.0,0.0,0.0,0.0,-0.0294199492782,0.0294199492782,9.8949098587,0.0,0.0,0.0,0.0,0.0,0.0,0.0,0.0,0.0
1160964500,502205,1644544024805797100,1,0.0,0.0,0.0,0.0,0.0,0.0,0.0,0.0,0.0,0.0,0.0,0.0,0.0,0.0,0.0,0.0,0.0,0.0,0.0,0.0,0.0,0.0,0.0,0.0,0.0,0.0,-0.00980664975941,9.8949098587,0.0,0.0,0.0,0.0,0.0,0.0,0.0,0.0,0.0
1162122400,502206,1644544024807809114,1,0.0,0.0,0.0,0.0,0.0,0.0,0.0,0.0,0.0,0.0,0.0,0.0,0.0,0.0,0.0,0.0,0.0,0.0,0.0,0.0,0.0,0.0,0.0,0.0,0.0,-0.00980664975941,0.00980664975941,9.8949098587,0.0,0.0,0.0,0.0,0.0,0.0,0.0,0.0,0.0
1164048700,502207,1644544024809823036,1,0.0,0.0,0.0,0.0,0.0,0.0,0.0,0.0,0.0,0.0,0.0,0.0,0.0,0.0,0.0,0.0,0.0,0.0,0.0,0.0,0.0,0.0,0.0,0.0,0.0,-0.00980664975941,0.0,9.91452312469,0.0,0.0,0.0,0.0,0.0,0.0,0.0,0.0,0.0
1166009600,502208,1644544024811836958,1,0.0,0.0,0.0,0.0,0.0,0.0,0.0,0.0,0.0,0.0,0.0,0.0,0.0,0.0,0.0,0.0,0.0,0.0,0.0,0.0,0.0,0.0,0.0,0.0,0.0,-0.0294199492782,0.00980664975941,9.91452312469,0.0,0.0,0.0,0.0,0.0,0.0,0.0,0.0,0.0
1167992500,502209,1644544024813848972,1,0.0,0.0,0.0,0.0,0.0,0.0,0.0,0.0,0.0,0.0,0.0,0.0,0.0,0.0,0.0,0.0,0.0,0.0,0.0,0.0,0.0,0.0,0.0,0.0,0.0,-0.0392265990376,0.00980664975941,9.96355628967,0.0,0.0,0.0,0.0,0.0,0.0,0.0,0.0,0.0
1169991500,502210,1644544024815862894,1,0.0,0.0,0.0,0.0,0.0,0.0,0.0,0.0,0.0,0.0,0.0,0.0,0.0,0.0,0.0,0.0,0.0,0.0,0.0,0.0,0.0,0.0,0.0,0.0,0.0,-0.0686465501785,-0.00980664975941,9.94394302368,0.0,0.0,0.0,0.0,0.0,0.0,0.0,0.0,0.0
1171991100,502211,1644544024817874670,1,0.0,0.0,0.0,0.0,0.0,0.0,0.0,0.0,0.0,0.0,0.0,0.0,0.0,0.0,0.0,0.0,0.0,0.0,0.0,0.0,0.0,0.0,0.0,0.0,0.0,-0.0784531980753,0.0,9.88510322571,0.0,0.0,0.0,0.0,0.0,0.0,0.0,0.0,0.0
1174013100,502212,1644544024819888592,1,0.0,0.0,0.0,0.0,0.0,0.0,0.0,0.0,0.0,0.0,0.0,0.0,0.0,0.0,0.0,0.0,0.0,0.0,0.0,0.0,0.0,0.0,0.0,0.0,0.0,-0.0392265990376,-0.00980664975941,9.98316955566,0.0,0.0,0.0,0.0,0.0,0.0,0.0,0.0,0.0
1176378700,502213,1644544024821900606,1,0.0,0.0,0.0,0.0,0.0,0.0,0.0,0.0,0.0,0.0,0.0,0.0,0.0,0.0,0.0,0.0,0.0,0.0,0.0,0.0,0.0,0.0,0.0,0.0,0.0,-0.0294199492782,0.00980664975941,9.88510322571,0.0,0.0,0.0,0.0,0.0,0.0,0.0,0.0,0.0
1178208700,502214,1644544024823914766,1,0.0,0.0,0.0,0.0,0.0,0.0,0.0,0.0,0.0,0.0,0.0,0.0,0.0,0.0,0.0,0.0,0.0,0.0,0.0,0.0,0.0,0.0,0.0,0.0,0.0,-0.0784531980753,0.00980664975941,9.8949098587,0.0,0.0,0.0,0.0,0.0,0.0,0.0,0.0,0.0
1180093700,502215,1644544024825928688,1,0.0,0.0,0.0,0.0,0.0,0.0,0.0,0.0,0.0,0.0,0.0,0.0,0.0,0.0,0.0,0.0,0.0,0.0,0.0,0.0,0.0,0.0,0.0,0.0,0.0,-0.0686465501785,-0.0294199492782,9.98316955566,0.0,0.0,0.0,0.0,0.0,0.0,0.0,0.0,0.0
1182275900,502216,1644544024827940702,1,0.0,0.0,0.0,0.0,0.0,0.0,0.0,0.0,0.0,0.0,0.0,0.0,0.0,0.0,0.0,0.0,0.0,0.0,0.0,0.0,0.0,0.0,0.0,0.0,0.0,-0.0686465501785,-0.00980664975941,9.91452312469,0.0,0.0,0.0,0.0,0.0,0.0,0.0,0.0,0.0
1184283200,502217,1644544024829952717,1,0.0,0.0,0.0,0.0,0.0,0.0,0.0,0.0,0.0,0.0,0.0,0.0,0.0,0.0,0.0,0.0,0.0,0.0,0.0,0.0,0.0,0.0,0.0,0.0,0.0,-0.0980664938688,0.0,9.8949098587,0.0,0.0,0.0,0.0,0.0,0.0,0.0,0.0,0.0
1186328100,502218,1644544024831966639,1,0.0,0.0,0.0,0.0,0.0,0.0,0.0,0.0,0.0,0.0,0.0,0.0,0.0,0.0,0.0,0.0,0.0,0.0,0.0,0.0,0.0,0.0,0.0,0.0,0.0,-0.00980664975941,0.00980664975941,9.8949098587,0.0,0.0,0.0,0.0,0.0,0.0,0.0,0.0,0.0
1188219500,502219,1644544024833978415,1,0.0,0.0,0.0,0.0,0.0,0.0,0.0,0.0,0.0,0.0,0.0,0.0,0.0,0.0,0.0,0.0,0.0,0.0,0.0,0.0,0.0,0.0,0.0,0.0,0.0,-0.0784531980753,0.00980664975941,9.8949098587,0.0,0.0,0.0,0.0,0.0,0.0,0.0,0.0,0.0
1190303500,502220,1644544024835992336,1,0.0,0.0,0.0,0.0,0.0,0.0,0.0,0.0,0.0,0.0,0.0,0.0,0.0,0.0,0.0,0.0,0.0,0.0,0.0,0.0,0.0,0.0,0.0,0.0,0.0,-0.0784531980753,-0.0294199492782,9.94394302368,0.0,0.0,0.0,0.0,0.0,0.0,0.0,0.0,0.0
1192226000,502221,1644544024838006258,1,0.0,0.0,0.0,0.0,0.0,0.0,0.0,0.0,0.0,0.0,0.0,0.0,0.0,0.0,0.0,0.0,0.0,0.0,0.0,0.0,0.0,0.0,0.0,0.0,0.0,-0.0686465501785,-0.00980664975941,9.8949098587,0.0,0.0,0.0,0.0,0.0,0.0,0.0,0.0,0.0
1194199000,502222,1644544024840018272,1,0.0,0.0,0.0,0.0,0.0,0.0,0.0,0.0,0.0,0.0,0.0,0.0,0.0,0.0,0.0,0.0,0.0,0.0,0.0,0.0,0.0,0.0,0.0,0.0,0.0,-0.0980664938688,0.0,9.88510322571,0.0,0.0,0.0,0.0,0.0,0.0,0.0,0.0,0.0
1196518800,502223,1644544024842032194,1,0.0,0.0,0.0,0.0,0.0,0.0,0.0,0.0,0.0,0.0,0.0,0.0,0.0,0.0,0.0,0.0,0.0,0.0,0.0,0.0,0.0,0.0,0.0,0.0,0.0,-0.0686465501785,-0.0392265990376,9.94394302368,0.0,0.0,0.0,0.0,0.0,0.0,0.0,0.0,0.0
1198525600,502224,1644544024844046116,1,0.0,0.0,0.0,0.0,0.0,0.0,0.0,0.0,0.0,0.0,0.0,0.0,0.0,0.0,0.0,0.0,0.0,0.0,0.0,0.0,0.0,0.0,0.0,0.0,0.0,-0.0686465501785,-0.0294199492782,9.91452312469,0.0,0.0,0.0,0.0,0.0,0.0,0.0,0.0,0.0
1200517600,502225,1644544024846058130,1,0.0,0.0,0.0,0.0,0.0,0.0,0.0,0.0,0.0,0.0,0.0,0.0,0.0,0.0,0.0,0.0,0.0,0.0,0.0,0.0,0.0,0.0,0.0,0.0,0.0,-0.0686465501785,-0.0294199492782,9.8949098587,0.0,0.0,0.0,0.0,0.0,0.0,0.0,0.0,0.0
1202556100,502226,1644544024848072290,1,0.0,0.0,0.0,0.0,0.0,0.0,0.0,0.0,0.0,0.0,0.0,0.0,0.0,0.0,0.0,0.0,0.0,0.0,0.0,0.0,0.0,0.0,0.0,0.0,0.0,-0.0686465501785,-0.0294199492782,9.94394302368,0.0,0.0,0.0,0.0,0.0,0.0,0.0,0.0,0.0
1204227200,502227,1644544024850084305,1,0.0,0.0,0.0,0.0,0.0,0.0,0.0,0.0,0.0,0.0,0.0,0.0,0.0,0.0,0.0,0.0,0.0,0.0,0.0,0.0,0.0,0.0,0.0,0.0,0.0,-0.0392265990376,-0.00980664975941,9.94394302368,0.0,0.0,0.0,0.0,0.0,0.0,0.0,0.0,0.0
1206558200,502228,1644544024852098227,1,0.0,0.0,0.0,0.0,0.0,0.0,0.0,0.0,0.0,0.0,0.0,0.0,0.0,0.0,0.0,0.0,0.0,0.0,0.0,0.0,0.0,0.0,0.0,0.0,0.0,-0.0784531980753,-0.0686465501785,9.96355628967,0.0,0.0,0.0,0.0,0.0,0.0,0.0,0.0,0.0
1208508800,502229,1644544024854110003,1,0.0,0.0,0.0,0.0,0.0,0.0,0.0,0.0,0.0,0.0,0.0,0.0,0.0,0.0,0.0,0.0,0.0,0.0,0.0,0.0,0.0,0.0,0.0,0.0,0.0,-0.0784531980753,-0.0392265990376,9.88510322571,0.0,0.0,0.0,0.0,0.0,0.0,0.0,0.0,0.0
1210617100,502230,1644544024856123924,1,0.0,0.0,0.0,0.0,0.0,0.0,0.0,0.0,0.0,0.0,0.0,0.0,0.0,0.0,0.0,0.0,0.0,0.0,0.0,0.0,0.0,0.0,0.0,0.0,0.0,-0.0784531980753,-0.0294199492782,9.91452312469,0.0,0.0,0.0,0.0,0.0,0.0,0.0,0.0,0.0
1212631400,502231,1644544024858137846,1,0.0,0.0,0.0,0.0,0.0,0.0,0.0,0.0,0.0,0.0,0.0,0.0,0.0,0.0,0.0,0.0,0.0,0.0,0.0,0.0,0.0,0.0,0.0,0.0,0.0,-0.0784531980753,-0.00980664975941,9.98316955566,0.0,0.0,0.0,0.0,0.0,0.0,0.0,0.0,0.0
1214609900,502232,1644544024860151768,1,0.0,0.0,0.0,0.0,0.0,0.0,0.0,0.0,0.0,0.0,0.0,0.0,0.0,0.0,0.0,0.0,0.0,0.0,0.0,0.0,0.0,0.0,0.0,0.0,0.0,-0.0980664938688,-0.0392265990376,9.88510322571,0.0,0.0,0.0,0.0,0.0,0.0,0.0,0.0,0.0
1216602800,502233,1644544024862163782,1,0.0,0.0,0.0,0.0,0.0,0.0,0.0,0.0,0.0,0.0,0.0,0.0,0.0,0.0,0.0,0.0,0.0,0.0,0.0,0.0,0.0,0.0,0.0,0.0,0.0,-0.0392265990376,-0.0392265990376,9.96355628967,0.0,0.0,0.0,0.0,0.0,0.0,0.0,0.0,0.0
1218569500,502234,1644544024864175797,1,0.0,0.0,0.0,0.0,0.0,0.0,0.0,0.0,0.0,0.0,0.0,0.0,0.0,0.0,0.0,0.0,0.0,0.0,0.0,0.0,0.0,0.0,0.0,0.0,0.0,-0.0392265990376,-0.00980664975941,9.96355628967,0.0,0.0,0.0,0.0,0.0,0.0,0.0,0.0,0.0
1220617200,502235,1644544024866189718,1,0.0,0.0,0.0,0.0,0.0,0.0,0.0,0.0,0.0,0.0,0.0,0.0,0.0,0.0,0.0,0.0,0.0,0.0,0.0,0.0,0.0,0.0,0.0,0.0,0.0,-0.0686465501785,0.0,9.88510322571,0.0,0.0,0.0,0.0,0.0,0.0,0.0,0.0,0.0
1222549700,502236,1644544024868203878,1,0.0,0.0,0.0,0.0,0.0,0.0,0.0,0.0,0.0,0.0,0.0,0.0,0.0,0.0,0.0,0.0,0.0,0.0,0.0,0.0,0.0,0.0,0.0,0.0,0.0,-0.0686465501785,-0.00980664975941,9.96355628967,0.0,0.0,0.0,0.0,0.0,0.0,0.0,0.0,0.0
1224488300,502237,1644544024870215893,1,0.0,0.0,0.0,0.0,0.0,0.0,0.0,0.0,0.0,0.0,0.0,0.0,0.0,0.0,0.0,0.0,0.0,0.0,0.0,0.0,0.0,0.0,0.0,0.0,0.0,-0.12748645246,-0.00980664975941,9.96355628967,0.0,0.0,0.0,0.0,0.0,0.0,0.0,0.0,0.0
1226479300,502238,1644544024872229815,1,0.0,0.0,0.0,0.0,0.0,0.0,0.0,0.0,0.0,0.0,0.0,0.0,0.0,0.0,0.0,0.0,0.0,0.0,0.0,0.0,0.0,0.0,0.0,0.0,0.0,-0.0784531980753,-0.0294199492782,9.83607006073,0.0,0.0,0.0,0.0,0.0,0.0,0.0,0.0,0.0
1228543300,502239,1644544024874241590,1,0.0,0.0,0.0,0.0,0.0,0.0,0.0,0.0,0.0,0.0,0.0,0.0,0.0,0.0,0.0,0.0,0.0,0.0,0.0,0.0,0.0,0.0,0.0,0.0,0.0,-0.0686465501785,-0.00980664975941,9.8949098587,0.0,0.0,0.0,0.0,0.0,0.0,0.0,0.0,0.0
1230510700,502240,1644544024876255512,1,0.0,0.0,0.0,0.0,0.0,0.0,0.0,0.0,0.0,0.0,0.0,0.0,0.0,0.0,0.0,0.0,0.0,0.0,0.0,0.0,0.0,0.0,0.0,0.0,0.0,-0.0294199492782,-0.0294199492782,9.96355628967,0.0,0.0,0.0,0.0,0.0,0.0,0.0,0.0,0.0
1232499100,502241,1644544024878269434,1,0.0,0.0,0.0,0.0,0.0,0.0,0.0,0.0,0.0,0.0,0.0,0.0,0.0,0.0,0.0,0.0,0.0,0.0,0.0,0.0,0.0,0.0,0.0,0.0,0.0,-0.0784531980753,-0.0294199492782,9.91452312469,0.0,0.0,0.0,0.0,0.0,0.0,0.0,0.0,0.0
1234553700,502242,1644544024880281448,1,0.0,0.0,0.0,0.0,0.0,0.0,0.0,0.0,0.0,0.0,0.0,0.0,0.0,0.0,0.0,0.0,0.0,0.0,0.0,0.0,0.0,0.0,0.0,0.0,0.0,-0.0686465501785,0.0,9.8949098587,0.0,0.0,0.0,0.0,0.0,0.0,0.0,0.0,0.0
1236578000,502243,1644544024882295370,1,0.0,0.0,0.0,0.0,0.0,0.0,0.0,0.0,0.0,0.0,0.0,0.0,0.0,0.0,0.0,0.0,0.0,0.0,0.0,0.0,0.0,0.0,0.0,0.0,0.0,-0.0294199492782,-0.00980664975941,9.91452312469,0.0,0.0,0.0,0.0,0.0,0.0,0.0,0.0,0.0
1238502200,502244,1644544024884307384,1,0.0,0.0,0.0,0.0,0.0,0.0,0.0,0.0,0.0,0.0,0.0,0.0,0.0,0.0,0.0,0.0,0.0,0.0,0.0,0.0,0.0,0.0,0.0,0.0,0.0,-0.0294199492782,0.00980664975941,9.83607006073,0.0,0.0,0.0,0.0,0.0,0.0,0.0,0.0,0.0
1240494400,502245,1644544024886321306,1,0.0,0.0,0.0,0.0,0.0,0.0,0.0,0.0,0.0,0.0,0.0,0.0,0.0,0.0,0.0,0.0,0.0,0.0,0.0,0.0,0.0,0.0,0.0,0.0,0.0,-0.0392265990376,-0.00980664975941,9.8949098587,0.0,0.0,0.0,0.0,0.0,0.0,0.0,0.0,0.0
1242571900,502246,1644544024888335228,1,0.0,0.0,0.0,0.0,0.0,0.0,0.0,0.0,0.0,0.0,0.0,0.0,0.0,0.0,0.0,0.0,0.0,0.0,0.0,0.0,0.0,0.0,0.0,0.0,0.0,-0.0392265990376,-0.00980664975941,9.96355628967,0.0,0.0,0.0,0.0,0.0,0.0,0.0,0.0,0.0
1244787200,502247,1644544024890347242,1,0.0,0.0,0.0,0.0,0.0,0.0,0.0,0.0,0.0,0.0,0.0,0.0,0.0,0.0,0.0,0.0,0.0,0.0,0.0,0.0,0.0,0.0,0.0,0.0,0.0,-0.0686465501785,0.0,9.86548995972,0.0,0.0,0.0,0.0,0.0,0.0,0.0,0.0,0.0
1246569900,502248,1644544024892361403,1,0.0,0.0,0.0,0.0,0.0,0.0,0.0,0.0,0.0,0.0,0.0,0.0,0.0,0.0,0.0,0.0,0.0,0.0,0.0,0.0,0.0,0.0,0.0,0.0,0.0,-0.0686465501785,-0.00980664975941,9.94394302368,0.0,0.0,0.0,0.0,0.0,0.0,0.0,0.0,0.0
1248538500,502249,1644544024894375324,1,0.0,0.0,0.0,0.0,0.0,0.0,0.0,0.0,0.0,0.0,0.0,0.0,0.0,0.0,0.0,0.0,0.0,0.0,0.0,0.0,0.0,0.0,0.0,0.0,0.0,-0.0392265990376,-0.0294199492782,9.8949098587,0.0,0.0,0.0,0.0,0.0,0.0,0.0,0.0,0.0
1250587300,502250,1644544024896387100,1,0.0,0.0,0.0,0.0,0.0,0.0,0.0,0.0,0.0,0.0,0.0,0.0,0.0,0.0,0.0,0.0,0.0,0.0,0.0,0.0,0.0,0.0,0.0,0.0,0.0,-0.0392265990376,-0.00980664975941,9.8949098587,0.0,0.0,0.0,0.0,0.0,0.0,0.0,0.0,0.0
1252603000,502251,1644544024898401022,1,0.0,0.0,0.0,0.0,0.0,0.0,0.0,0.0,0.0,0.0,0.0,0.0,0.0,0.0,0.0,0.0,0.0,0.0,0.0,0.0,0.0,0.0,0.0,0.0,0.0,-0.0392265990376,-0.00980664975941,9.88510322571,0.0,0.0,0.0,0.0,0.0,0.0,0.0,0.0,0.0
1254777700,502252,1644544024900414944,1,0.0,0.0,0.0,0.0,0.0,0.0,0.0,0.0,0.0,0.0,0.0,0.0,0.0,0.0,0.0,0.0,0.0,0.0,0.0,0.0,0.0,0.0,0.0,0.0,0.0,-0.0686465501785,-0.00980664975941,9.91452312469,0.0,0.0,0.0,0.0,0.0,0.0,0.0,0.0,0.0
1256565200,502253,1644544024902426958,1,0.0,0.0,0.0,0.0,0.0,0.0,0.0,0.0,0.0,0.0,0.0,0.0,0.0,0.0,0.0,0.0,0.0,0.0,0.0,0.0,0.0,0.0,0.0,0.0,0.0,-0.0686465501785,0.0,9.91452312469,0.0,0.0,0.0,0.0,0.0,0.0,0.0,0.0,0.0
