%time,field.header.seq,field.header.stamp,field.header.frame_id,field.orientation.x,field.orientation.y,field.orientation.z,field.orientation.w,field.orientation_covariance0,field.orientation_covariance1,field.orientation_covariance2,field.orientation_covariance3,field.orientation_covariance4,field.orientation_covariance5,field.orientation_covariance6,field.orientation_covariance7,field.orientation_covariance8,field.angular_velocity.x,field.angular_velocity.y,field.angular_velocity.z,field.angular_velocity_covariance0,field.angular_velocity_covariance1,field.angular_velocity_covariance2,field.angular_velocity_covariance3,field.angular_velocity_covariance4,field.angular_velocity_covariance5,field.angular_velocity_covariance6,field.angular_velocity_covariance7,field.angular_velocity_covariance8,field.linear_acceleration.x,field.linear_acceleration.y,field.linear_acceleration.z,field.linear_acceleration_covariance0,field.linear_acceleration_covariance1,field.linear_acceleration_covariance2,field.linear_acceleration_covariance3,field.linear_acceleration_covariance4,field.linear_acceleration_covariance5,field.linear_acceleration_covariance6,field.linear_acceleration_covariance7,field.linear_acceleration_covariance8
1085700,454363,1644543928488774300,1,0.0,0.0,0.0,0.0,0.0,0.0,0.0,0.0,0.0,0.0,0.0,0.0,0.0,0.0,0.0,0.0,0.0,0.0,0.0,0.0,0.0,0.0,0.0,0.0,0.0,0.882598459721,-0.166713044047,9.83607006073,0.0,0.0,0.0,0.0,0.0,0.0,0.0,0.0,0.0
2985300,454364,1644543928490789413,1,0.0,0.0,0.0,0.0,0.0,0.0,0.0,0.0,0.0,0.0,0.0,0.0,0.0,0.0,0.0,0.0,0.0,0.0,0.0,0.0,0.0,0.0,0.0,0.0,0.0,0.951245009899,-0.196132987738,9.8949098587,0.0,0.0,0.0,0.0,0.0,0.0,0.0,0.0,0.0
5150100,454365,1644543928492802143,1,0.0,0.0,0.0,0.0,0.0,0.0,0.0,0.0,0.0,0.0,0.0,0.0,0.0,0.0,0.0,0.0,0.0,0.0,0.0,0.0,0.0,0.0,0.0,0.0,0.0,0.872791826725,-0.245166242123,9.8949098587,0.0,0.0,0.0,0.0,0.0,0.0,0.0,0.0,0.0
6902700,454366,1644543928494815111,1,0.0,0.0,0.0,0.0,0.0,0.0,0.0,0.0,0.0,0.0,0.0,0.0,0.0,0.0,0.0,0.0,0.0,0.0,0.0,0.0,0.0,0.0,0.0,0.0,0.0,0.912018418312,-0.166713044047,9.83607006073,0.0,0.0,0.0,0.0,0.0,0.0,0.0,0.0,0.0
8910200,454367,1644543928496829987,1,0.0,0.0,0.0,0.0,0.0,0.0,0.0,0.0,0.0,0.0,0.0,0.0,0.0,0.0,0.0,0.0,0.0,0.0,0.0,0.0,0.0,0.0,0.0,0.0,0.0,0.912018418312,-0.12748645246,9.8949098587,0.0,0.0,0.0,0.0,0.0,0.0,0.0,0.0,0.0
10902000,454368,1644543928498844862,1,0.0,0.0,0.0,0.0,0.0,0.0,0.0,0.0,0.0,0.0,0.0,0.0,0.0,0.0,0.0,0.0,0.0,0.0,0.0,0.0,0.0,0.0,0.0,0.0,0.0,0.833565235138,-0.0980664938688,9.8949098587,0.0,0.0,0.0,0.0,0.0,0.0,0.0,0.0,0.0
12979100,454369,1644543928500857830,1,0.0,0.0,0.0,0.0,0.0,0.0,0.0,0.0,0.0,0.0,0.0,0.0,0.0,0.0,0.0,0.0,0.0,0.0,0.0,0.0,0.0,0.0,0.0,0.0,0.0,0.833565235138,-0.137293100357,9.88510322571,0.0,0.0,0.0,0.0,0.0,0.0,0.0,0.0,0.0
15170300,454370,1644543928502872705,1,0.0,0.0,0.0,0.0,0.0,0.0,0.0,0.0,0.0,0.0,0.0,0.0,0.0,0.0,0.0,0.0,0.0,0.0,0.0,0.0,0.0,0.0,0.0,0.0,0.0,0.833565235138,-0.0980664938688,9.88510322571,0.0,0.0,0.0,0.0,0.0,0.0,0.0,0.0,0.0
16899100,454371,1644543928504885674,1,0.0,0.0,0.0,0.0,0.0,0.0,0.0,0.0,0.0,0.0,0.0,0.0,0.0,0.0,0.0,0.0,0.0,0.0,0.0,0.0,0.0,0.0,0.0,0.0,0.0,0.804145276546,-0.12748645246,9.8949098587,0.0,0.0,0.0,0.0,0.0,0.0,0.0,0.0,0.0
18947700,454372,1644543928506900549,1,0.0,0.0,0.0,0.0,0.0,0.0,0.0,0.0,0.0,0.0,0.0,0.0,0.0,0.0,0.0,0.0,0.0,0.0,0.0,0.0,0.0,0.0,0.0,0.0,0.0,0.833565235138,-0.12748645246,9.91452312469,0.0,0.0,0.0,0.0,0.0,0.0,0.0,0.0,0.0
21306600,454373,1644543928508913517,1,0.0,0.0,0.0,0.0,0.0,0.0,0.0,0.0,0.0,0.0,0.0,0.0,0.0,0.0,0.0,0.0,0.0,0.0,0.0,0.0,0.0,0.0,0.0,0.0,0.0,0.804145276546,-0.12748645246,9.94394302368,0.0,0.0,0.0,0.0,0.0,0.0,0.0,0.0,0.0
22904300,454374,1644543928510926485,1,0.0,0.0,0.0,0.0,0.0,0.0,0.0,0.0,0.0,0.0,0.0,0.0,0.0,0.0,0.0,0.0,0.0,0.0,0.0,0.0,0.0,0.0,0.0,0.0,0.0,0.813951909542,-0.12748645246,9.96355628967,0.0,0.0,0.0,0.0,0.0,0.0,0.0,0.0,0.0
25213100,454375,1644543928512941360,1,0.0,0.0,0.0,0.0,0.0,0.0,0.0,0.0,0.0,0.0,0.0,0.0,0.0,0.0,0.0,0.0,0.0,0.0,0.0,0.0,0.0,0.0,0.0,0.0,0.0,0.813951909542,-0.0980664938688,9.96355628967,0.0,0.0,0.0,0.0,0.0,0.0,0.0,0.0,0.0
27174800,454376,1644543928514954329,1,0.0,0.0,0.0,0.0,0.0,0.0,0.0,0.0,0.0,0.0,0.0,0.0,0.0,0.0,0.0,0.0,0.0,0.0,0.0,0.0,0.0,0.0,0.0,0.0,0.0,0.804145276546,-0.0980664938688,9.8949098587,0.0,0.0,0.0,0.0,0.0,0.0,0.0,0.0,0.0
29314100,454377,1644543928516969204,1,0.0,0.0,0.0,0.0,0.0,0.0,0.0,0.0,0.0,0.0,0.0,0.0,0.0,0.0,0.0,0.0,0.0,0.0,0.0,0.0,0.0,0.0,0.0,0.0,0.0,0.804145276546,-0.0686465501785,9.94394302368,0.0,0.0,0.0,0.0,0.0,0.0,0.0,0.0,0.0
31322600,454378,1644543928518982172,1,0.0,0.0,0.0,0.0,0.0,0.0,0.0,0.0,0.0,0.0,0.0,0.0,0.0,0.0,0.0,0.0,0.0,0.0,0.0,0.0,0.0,0.0,0.0,0.0,0.0,0.764918684959,-0.0686465501785,9.83607006073,0.0,0.0,0.0,0.0,0.0,0.0,0.0,0.0,0.0
767643000,454744,1644543929256018162,1,0.0,0.0,0.0,0.0,0.0,0.0,0.0,0.0,0.0,0.0,0.0,0.0,0.0,0.0,0.0,0.0,0.0,0.0,0.0,0.0,0.0,0.0,0.0,0.0,0.0,0.804145276546,-0.0980664938688,9.96355628967,0.0,0.0,0.0,0.0,0.0,0.0,0.0,0.0,0.0
769721800,454745,1644543929258029938,1,0.0,0.0,0.0,0.0,0.0,0.0,0.0,0.0,0.0,0.0,0.0,0.0,0.0,0.0,0.0,0.0,0.0,0.0,0.0,0.0,0.0,0.0,0.0,0.0,0.0,0.833565235138,-0.0980664938688,9.96355628967,0.0,0.0,0.0,0.0,0.0,0.0,0.0,0.0,0.0
771990200,454746,1644543929260043859,1,0.0,0.0,0.0,0.0,0.0,0.0,0.0,0.0,0.0,0.0,0.0,0.0,0.0,0.0,0.0,0.0,0.0,0.0,0.0,0.0,0.0,0.0,0.0,0.0,0.0,0.804145276546,-0.0980664938688,9.86548995972,0.0,0.0,0.0,0.0,0.0,0.0,0.0,0.0,0.0
773746500,454747,1644543929262055874,1,0.0,0.0,0.0,0.0,0.0,0.0,0.0,0.0,0.0,0.0,0.0,0.0,0.0,0.0,0.0,0.0,0.0,0.0,0.0,0.0,0.0,0.0,0.0,0.0,0.0,0.813951909542,-0.0686465501785,9.94394302368,0.0,0.0,0.0,0.0,0.0,0.0,0.0,0.0,0.0
775790100,454748,1644543929264069796,1,0.0,0.0,0.0,0.0,0.0,0.0,0.0,0.0,0.0,0.0,0.0,0.0,0.0,0.0,0.0,0.0,0.0,0.0,0.0,0.0,0.0,0.0,0.0,0.0,0.0,0.804145276546,-0.0980664938688,9.86548995972,0.0,0.0,0.0,0.0,0.0,0.0,0.0,0.0,0.0
778047300,454749,1644543929266081810,1,0.0,0.0,0.0,0.0,0.0,0.0,0.0,0.0,0.0,0.0,0.0,0.0,0.0,0.0,0.0,0.0,0.0,0.0,0.0,0.0,0.0,0.0,0.0,0.0,0.0,0.813951909542,-0.137293100357,9.98316955566,0.0,0.0,0.0,0.0,0.0,0.0,0.0,0.0,0.0
779962300,454750,1644543929268095732,1,0.0,0.0,0.0,0.0,0.0,0.0,0.0,0.0,0.0,0.0,0.0,0.0,0.0,0.0,0.0,0.0,0.0,0.0,0.0,0.0,0.0,0.0,0.0,0.0,0.0,0.813951909542,-0.0784531980753,9.88510322571,0.0,0.0,0.0,0.0,0.0,0.0,0.0,0.0,0.0
782003600,454751,1644543929270109653,1,0.0,0.0,0.0,0.0,0.0,0.0,0.0,0.0,0.0,0.0,0.0,0.0,0.0,0.0,0.0,0.0,0.0,0.0,0.0,0.0,0.0,0.0,0.0,0.0,0.0,0.833565235138,-0.12748645246,9.96355628967,0.0,0.0,0.0,0.0,0.0,0.0,0.0,0.0,0.0
783957500,454752,1644543929272121668,1,0.0,0.0,0.0,0.0,0.0,0.0,0.0,0.0,0.0,0.0,0.0,0.0,0.0,0.0,0.0,0.0,0.0,0.0,0.0,0.0,0.0,0.0,0.0,0.0,0.0,0.804145276546,-0.0980664938688,9.8949098587,0.0,0.0,0.0,0.0,0.0,0.0,0.0,0.0,0.0
785937700,454753,1644543929274135590,1,0.0,0.0,0.0,0.0,0.0,0.0,0.0,0.0,0.0,0.0,0.0,0.0,0.0,0.0,0.0,0.0,0.0,0.0,0.0,0.0,0.0,0.0,0.0,0.0,0.0,0.804145276546,-0.0686465501785,9.94394302368,0.0,0.0,0.0,0.0,0.0,0.0,0.0,0.0,0.0
788014700,454754,1644543929276147366,1,0.0,0.0,0.0,0.0,0.0,0.0,0.0,0.0,0.0,0.0,0.0,0.0,0.0,0.0,0.0,0.0,0.0,0.0,0.0,0.0,0.0,0.0,0.0,0.0,0.0,0.804145276546,-0.137293100357,9.91452312469,0.0,0.0,0.0,0.0,0.0,0.0,0.0,0.0,0.0
789975100,454755,1644543929278161287,1,0.0,0.0,0.0,0.0,0.0,0.0,0.0,0.0,0.0,0.0,0.0,0.0,0.0,0.0,0.0,0.0,0.0,0.0,0.0,0.0,0.0,0.0,0.0,0.0,0.0,0.804145276546,-0.137293100357,9.91452312469,0.0,0.0,0.0,0.0,0.0,0.0,0.0,0.0,0.0
791954100,454756,1644543929280175209,1,0.0,0.0,0.0,0.0,0.0,0.0,0.0,0.0,0.0,0.0,0.0,0.0,0.0,0.0,0.0,0.0,0.0,0.0,0.0,0.0,0.0,0.0,0.0,0.0,0.0,0.774725317955,-0.0980664938688,9.96355628967,0.0,0.0,0.0,0.0,0.0,0.0,0.0,0.0,0.0
793968100,454757,1644543929282187223,1,0.0,0.0,0.0,0.0,0.0,0.0,0.0,0.0,0.0,0.0,0.0,0.0,0.0,0.0,0.0,0.0,0.0,0.0,0.0,0.0,0.0,0.0,0.0,0.0,0.0,0.774725317955,-0.0980664938688,9.91452312469,0.0,0.0,0.0,0.0,0.0,0.0,0.0,0.0,0.0
795972500,454758,1644543929284201145,1,0.0,0.0,0.0,0.0,0.0,0.0,0.0,0.0,0.0,0.0,0.0,0.0,0.0,0.0,0.0,0.0,0.0,0.0,0.0,0.0,0.0,0.0,0.0,0.0,0.0,0.774725317955,-0.0784531980753,9.91452312469,0.0,0.0,0.0,0.0,0.0,0.0,0.0,0.0,0.0
797966100,454759,1644543929286215067,1,0.0,0.0,0.0,0.0,0.0,0.0,0.0,0.0,0.0,0.0,0.0,0.0,0.0,0.0,0.0,0.0,0.0,0.0,0.0,0.0,0.0,0.0,0.0,0.0,0.0,0.774725317955,-0.137293100357,9.8949098587,0.0,0.0,0.0,0.0,0.0,0.0,0.0,0.0,0.0
800081500,454760,1644543929288228989,1,0.0,0.0,0.0,0.0,0.0,0.0,0.0,0.0,0.0,0.0,0.0,0.0,0.0,0.0,0.0,0.0,0.0,0.0,0.0,0.0,0.0,0.0,0.0,0.0,0.0,0.804145276546,-0.0980664938688,9.83607006073,0.0,0.0,0.0,0.0,0.0,0.0,0.0,0.0,0.0
801974100,454761,1644543929290240765,1,0.0,0.0,0.0,0.0,0.0,0.0,0.0,0.0,0.0,0.0,0.0,0.0,0.0,0.0,0.0,0.0,0.0,0.0,0.0,0.0,0.0,0.0,0.0,0.0,0.0,0.735498726368,-0.0784531980753,9.91452312469,0.0,0.0,0.0,0.0,0.0,0.0,0.0,0.0,0.0
803920600,454762,1644543929292254925,1,0.0,0.0,0.0,0.0,0.0,0.0,0.0,0.0,0.0,0.0,0.0,0.0,0.0,0.0,0.0,0.0,0.0,0.0,0.0,0.0,0.0,0.0,0.0,0.0,0.0,0.696272134781,-0.0392265990376,9.86548995972,0.0,0.0,0.0,0.0,0.0,0.0,0.0,0.0,0.0
805978200,454763,1644543929294268847,1,0.0,0.0,0.0,0.0,0.0,0.0,0.0,0.0,0.0,0.0,0.0,0.0,0.0,0.0,0.0,0.0,0.0,0.0,0.0,0.0,0.0,0.0,0.0,0.0,0.0,0.804145276546,-0.225552946329,9.96355628967,0.0,0.0,0.0,0.0,0.0,0.0,0.0,0.0,0.0
808044800,454764,1644543929296282768,1,0.0,0.0,0.0,0.0,0.0,0.0,0.0,0.0,0.0,0.0,0.0,0.0,0.0,0.0,0.0,0.0,0.0,0.0,0.0,0.0,0.0,0.0,0.0,0.0,0.0,0.872791826725,-0.166713044047,9.98316955566,0.0,0.0,0.0,0.0,0.0,0.0,0.0,0.0,0.0
809961800,454765,1644543929298296690,1,0.0,0.0,0.0,0.0,0.0,0.0,0.0,0.0,0.0,0.0,0.0,0.0,0.0,0.0,0.0,0.0,0.0,0.0,0.0,0.0,0.0,0.0,0.0,0.0,0.0,0.725692093372,-0.0784531980753,9.83607006073,0.0,0.0,0.0,0.0,0.0,0.0,0.0,0.0,0.0
811904200,454766,1644543929300308704,1,0.0,0.0,0.0,0.0,0.0,0.0,0.0,0.0,0.0,0.0,0.0,0.0,0.0,0.0,0.0,0.0,0.0,0.0,0.0,0.0,0.0,0.0,0.0,0.0,0.0,0.804145276546,-0.0686465501785,9.78703689575,0.0,0.0,0.0,0.0,0.0,0.0,0.0,0.0,0.0
813930700,454767,1644543929302322626,1,0.0,0.0,0.0,0.0,0.0,0.0,0.0,0.0,0.0,0.0,0.0,0.0,0.0,0.0,0.0,0.0,0.0,0.0,0.0,0.0,0.0,0.0,0.0,0.0,0.0,0.804145276546,-0.0980664938688,9.94394302368,0.0,0.0,0.0,0.0,0.0,0.0,0.0,0.0,0.0
815894800,454768,1644543929304334164,1,0.0,0.0,0.0,0.0,0.0,0.0,0.0,0.0,0.0,0.0,0.0,0.0,0.0,0.0,0.0,0.0,0.0,0.0,0.0,0.0,0.0,0.0,0.0,0.0,0.0,0.774725317955,-0.137293100357,9.8949098587,0.0,0.0,0.0,0.0,0.0,0.0,0.0,0.0,0.0
818106800,454769,1644543929306348085,1,0.0,0.0,0.0,0.0,0.0,0.0,0.0,0.0,0.0,0.0,0.0,0.0,0.0,0.0,0.0,0.0,0.0,0.0,0.0,0.0,0.0,0.0,0.0,0.0,0.0,0.764918684959,-0.0980664938688,9.88510322571,0.0,0.0,0.0,0.0,0.0,0.0,0.0,0.0,0.0
820171600,454770,1644543929308362007,1,0.0,0.0,0.0,0.0,0.0,0.0,0.0,0.0,0.0,0.0,0.0,0.0,0.0,0.0,0.0,0.0,0.0,0.0,0.0,0.0,0.0,0.0,0.0,0.0,0.0,0.774725317955,-0.0980664938688,9.94394302368,0.0,0.0,0.0,0.0,0.0,0.0,0.0,0.0,0.0
822149100,454771,1644543929310374022,1,0.0,0.0,0.0,0.0,0.0,0.0,0.0,0.0,0.0,0.0,0.0,0.0,0.0,0.0,0.0,0.0,0.0,0.0,0.0,0.0,0.0,0.0,0.0,0.0,0.0,0.774725317955,-0.0980664938688,9.91452312469,0.0,0.0,0.0,0.0,0.0,0.0,0.0,0.0,0.0
824277300,454772,1644543929312387943,1,0.0,0.0,0.0,0.0,0.0,0.0,0.0,0.0,0.0,0.0,0.0,0.0,0.0,0.0,0.0,0.0,0.0,0.0,0.0,0.0,0.0,0.0,0.0,0.0,0.0,0.764918684959,-0.12748645246,9.94394302368,0.0,0.0,0.0,0.0,0.0,0.0,0.0,0.0,0.0
826120900,454773,1644543929314399958,1,0.0,0.0,0.0,0.0,0.0,0.0,0.0,0.0,0.0,0.0,0.0,0.0,0.0,0.0,0.0,0.0,0.0,0.0,0.0,0.0,0.0,0.0,0.0,0.0,0.0,0.774725317955,-0.137293100357,9.86548995972,0.0,0.0,0.0,0.0,0.0,0.0,0.0,0.0,0.0
828175800,454774,1644543929316413879,1,0.0,0.0,0.0,0.0,0.0,0.0,0.0,0.0,0.0,0.0,0.0,0.0,0.0,0.0,0.0,0.0,0.0,0.0,0.0,0.0,0.0,0.0,0.0,0.0,0.0,0.813951909542,-0.176519691944,9.94394302368,0.0,0.0,0.0,0.0,0.0,0.0,0.0,0.0,0.0
830256000,454775,1644543929318427801,1,0.0,0.0,0.0,0.0,0.0,0.0,0.0,0.0,0.0,0.0,0.0,0.0,0.0,0.0,0.0,0.0,0.0,0.0,0.0,0.0,0.0,0.0,0.0,0.0,0.0,0.813951909542,-0.137293100357,9.96355628967,0.0,0.0,0.0,0.0,0.0,0.0,0.0,0.0,0.0
832251000,454776,1644543929320441723,1,0.0,0.0,0.0,0.0,0.0,0.0,0.0,0.0,0.0,0.0,0.0,0.0,0.0,0.0,0.0,0.0,0.0,0.0,0.0,0.0,0.0,0.0,0.0,0.0,0.0,0.804145276546,-0.12748645246,9.88510322571,0.0,0.0,0.0,0.0,0.0,0.0,0.0,0.0,0.0
834102900,454777,1644543929322453499,1,0.0,0.0,0.0,0.0,0.0,0.0,0.0,0.0,0.0,0.0,0.0,0.0,0.0,0.0,0.0,0.0,0.0,0.0,0.0,0.0,0.0,0.0,0.0,0.0,0.0,0.813951909542,-0.12748645246,9.8949098587,0.0,0.0,0.0,0.0,0.0,0.0,0.0,0.0,0.0
836111700,454778,1644543929324467421,1,0.0,0.0,0.0,0.0,0.0,0.0,0.0,0.0,0.0,0.0,0.0,0.0,0.0,0.0,0.0,0.0,0.0,0.0,0.0,0.0,0.0,0.0,0.0,0.0,0.0,0.813951909542,-0.12748645246,9.86548995972,0.0,0.0,0.0,0.0,0.0,0.0,0.0,0.0,0.0
838217100,454779,1644543929326479435,1,0.0,0.0,0.0,0.0,0.0,0.0,0.0,0.0,0.0,0.0,0.0,0.0,0.0,0.0,0.0,0.0,0.0,0.0,0.0,0.0,0.0,0.0,0.0,0.0,0.0,0.774725317955,-0.137293100357,9.8949098587,0.0,0.0,0.0,0.0,0.0,0.0,0.0,0.0,0.0
840449000,454780,1644543929328493357,1,0.0,0.0,0.0,0.0,0.0,0.0,0.0,0.0,0.0,0.0,0.0,0.0,0.0,0.0,0.0,0.0,0.0,0.0,0.0,0.0,0.0,0.0,0.0,0.0,0.0,0.813951909542,-0.0980664938688,9.8949098587,0.0,0.0,0.0,0.0,0.0,0.0,0.0,0.0,0.0
842406700,454781,1644543929330507278,1,0.0,0.0,0.0,0.0,0.0,0.0,0.0,0.0,0.0,0.0,0.0,0.0,0.0,0.0,0.0,0.0,0.0,0.0,0.0,0.0,0.0,0.0,0.0,0.0,0.0,0.774725317955,-0.12748645246,9.83607006073,0.0,0.0,0.0,0.0,0.0,0.0,0.0,0.0,0.0
844108600,454782,1644543929332519293,1,0.0,0.0,0.0,0.0,0.0,0.0,0.0,0.0,0.0,0.0,0.0,0.0,0.0,0.0,0.0,0.0,0.0,0.0,0.0,0.0,0.0,0.0,0.0,0.0,0.0,0.813951909542,-0.137293100357,9.88510322571,0.0,0.0,0.0,0.0,0.0,0.0,0.0,0.0,0.0
846380900,454783,1644543929334533215,1,0.0,0.0,0.0,0.0,0.0,0.0,0.0,0.0,0.0,0.0,0.0,0.0,0.0,0.0,0.0,0.0,0.0,0.0,0.0,0.0,0.0,0.0,0.0,0.0,0.0,0.804145276546,-0.0980664938688,9.81645679474,0.0,0.0,0.0,0.0,0.0,0.0,0.0,0.0,0.0
848396700,454784,1644543929336547136,1,0.0,0.0,0.0,0.0,0.0,0.0,0.0,0.0,0.0,0.0,0.0,0.0,0.0,0.0,0.0,0.0,0.0,0.0,0.0,0.0,0.0,0.0,0.0,0.0,0.0,0.774725317955,-0.12748645246,9.80665016174,0.0,0.0,0.0,0.0,0.0,0.0,0.0,0.0,0.0
850411100,454785,1644543929338559151,1,0.0,0.0,0.0,0.0,0.0,0.0,0.0,0.0,0.0,0.0,0.0,0.0,0.0,0.0,0.0,0.0,0.0,0.0,0.0,0.0,0.0,0.0,0.0,0.0,0.0,0.774725317955,-0.12748645246,9.78703689575,0.0,0.0,0.0,0.0,0.0,0.0,0.0,0.0,0.0
852455600,454786,1644543929340573072,1,0.0,0.0,0.0,0.0,0.0,0.0,0.0,0.0,0.0,0.0,0.0,0.0,0.0,0.0,0.0,0.0,0.0,0.0,0.0,0.0,0.0,0.0,0.0,0.0,0.0,0.774725317955,-0.0784531980753,9.88510322571,0.0,0.0,0.0,0.0,0.0,0.0,0.0,0.0,0.0
854401900,454787,1644543929342586994,1,0.0,0.0,0.0,0.0,0.0,0.0,0.0,0.0,0.0,0.0,0.0,0.0,0.0,0.0,0.0,0.0,0.0,0.0,0.0,0.0,0.0,0.0,0.0,0.0,0.0,0.735498726368,-0.12748645246,9.8949098587,0.0,0.0,0.0,0.0,0.0,0.0,0.0,0.0,0.0
856400100,454788,1644543929344598770,1,0.0,0.0,0.0,0.0,0.0,0.0,0.0,0.0,0.0,0.0,0.0,0.0,0.0,0.0,0.0,0.0,0.0,0.0,0.0,0.0,0.0,0.0,0.0,0.0,0.0,0.735498726368,-0.137293100357,9.96355628967,0.0,0.0,0.0,0.0,0.0,0.0,0.0,0.0,0.0
858402600,454789,1644543929346612692,1,0.0,0.0,0.0,0.0,0.0,0.0,0.0,0.0,0.0,0.0,0.0,0.0,0.0,0.0,0.0,0.0,0.0,0.0,0.0,0.0,0.0,0.0,0.0,0.0,0.0,0.764918684959,-0.0980664938688,9.99297618866,0.0,0.0,0.0,0.0,0.0,0.0,0.0,0.0,0.0
860551800,454790,1644543929348624706,1,0.0,0.0,0.0,0.0,0.0,0.0,0.0,0.0,0.0,0.0,0.0,0.0,0.0,0.0,0.0,0.0,0.0,0.0,0.0,0.0,0.0,0.0,0.0,0.0,0.0,0.774725317955,-0.12748645246,9.8949098587,0.0,0.0,0.0,0.0,0.0,0.0,0.0,0.0,0.0
862444700,454791,1644543929350638628,1,0.0,0.0,0.0,0.0,0.0,0.0,0.0,0.0,0.0,0.0,0.0,0.0,0.0,0.0,0.0,0.0,0.0,0.0,0.0,0.0,0.0,0.0,0.0,0.0,0.0,0.774725317955,-0.0392265990376,9.88510322571,0.0,0.0,0.0,0.0,0.0,0.0,0.0,0.0,0.0
864702600,454792,1644543929352652550,1,0.0,0.0,0.0,0.0,0.0,0.0,0.0,0.0,0.0,0.0,0.0,0.0,0.0,0.0,0.0,0.0,0.0,0.0,0.0,0.0,0.0,0.0,0.0,0.0,0.0,0.813951909542,-0.0980664938688,9.86548995972,0.0,0.0,0.0,0.0,0.0,0.0,0.0,0.0,0.0
866437900,454793,1644543929354664326,1,0.0,0.0,0.0,0.0,0.0,0.0,0.0,0.0,0.0,0.0,0.0,0.0,0.0,0.0,0.0,0.0,0.0,0.0,0.0,0.0,0.0,0.0,0.0,0.0,0.0,0.804145276546,-0.0980664938688,9.8949098587,0.0,0.0,0.0,0.0,0.0,0.0,0.0,0.0,0.0
868785400,454794,1644543929356678247,1,0.0,0.0,0.0,0.0,0.0,0.0,0.0,0.0,0.0,0.0,0.0,0.0,0.0,0.0,0.0,0.0,0.0,0.0,0.0,0.0,0.0,0.0,0.0,0.0,0.0,0.774725317955,-0.0980664938688,9.98316955566,0.0,0.0,0.0,0.0,0.0,0.0,0.0,0.0,0.0
870618700,454795,1644543929358690262,1,0.0,0.0,0.0,0.0,0.0,0.0,0.0,0.0,0.0,0.0,0.0,0.0,0.0,0.0,0.0,0.0,0.0,0.0,0.0,0.0,0.0,0.0,0.0,0.0,0.0,0.804145276546,-0.0980664938688,9.98316955566,0.0,0.0,0.0,0.0,0.0,0.0,0.0,0.0,0.0
872406100,454796,1644543929360704184,1,0.0,0.0,0.0,0.0,0.0,0.0,0.0,0.0,0.0,0.0,0.0,0.0,0.0,0.0,0.0,0.0,0.0,0.0,0.0,0.0,0.0,0.0,0.0,0.0,0.0,0.774725317955,-0.0686465501785,9.98316955566,0.0,0.0,0.0,0.0,0.0,0.0,0.0,0.0,0.0
874646500,454797,1644543929362718105,1,0.0,0.0,0.0,0.0,0.0,0.0,0.0,0.0,0.0,0.0,0.0,0.0,0.0,0.0,0.0,0.0,0.0,0.0,0.0,0.0,0.0,0.0,0.0,0.0,0.0,0.804145276546,-0.0980664938688,9.8949098587,0.0,0.0,0.0,0.0,0.0,0.0,0.0,0.0,0.0
876399800,454798,1644543929364729881,1,0.0,0.0,0.0,0.0,0.0,0.0,0.0,0.0,0.0,0.0,0.0,0.0,0.0,0.0,0.0,0.0,0.0,0.0,0.0,0.0,0.0,0.0,0.0,0.0,0.0,0.764918684959,-0.12748645246,9.94394302368,0.0,0.0,0.0,0.0,0.0,0.0,0.0,0.0,0.0
878399100,454799,1644543929366743803,1,0.0,0.0,0.0,0.0,0.0,0.0,0.0,0.0,0.0,0.0,0.0,0.0,0.0,0.0,0.0,0.0,0.0,0.0,0.0,0.0,0.0,0.0,0.0,0.0,0.0,0.774725317955,-0.0392265990376,9.91452312469,0.0,0.0,0.0,0.0,0.0,0.0,0.0,0.0,0.0
880921100,454800,1644543929368755817,1,0.0,0.0,0.0,0.0,0.0,0.0,0.0,0.0,0.0,0.0,0.0,0.0,0.0,0.0,0.0,0.0,0.0,0.0,0.0,0.0,0.0,0.0,0.0,0.0,0.0,0.764918684959,-0.0784531980753,9.91452312469,0.0,0.0,0.0,0.0,0.0,0.0,0.0,0.0,0.0
882408700,454801,1644543929370769739,1,0.0,0.0,0.0,0.0,0.0,0.0,0.0,0.0,0.0,0.0,0.0,0.0,0.0,0.0,0.0,0.0,0.0,0.0,0.0,0.0,0.0,0.0,0.0,0.0,0.0,0.804145276546,-0.0980664938688,9.94394302368,0.0,0.0,0.0,0.0,0.0,0.0,0.0,0.0,0.0
884700700,454802,1644543929372783661,1,0.0,0.0,0.0,0.0,0.0,0.0,0.0,0.0,0.0,0.0,0.0,0.0,0.0,0.0,0.0,0.0,0.0,0.0,0.0,0.0,0.0,0.0,0.0,0.0,0.0,0.804145276546,-0.0392265990376,9.88510322571,0.0,0.0,0.0,0.0,0.0,0.0,0.0,0.0,0.0
886709500,454803,1644543929374795675,1,0.0,0.0,0.0,0.0,0.0,0.0,0.0,0.0,0.0,0.0,0.0,0.0,0.0,0.0,0.0,0.0,0.0,0.0,0.0,0.0,0.0,0.0,0.0,0.0,0.0,0.804145276546,-0.0686465501785,9.96355628967,0.0,0.0,0.0,0.0,0.0,0.0,0.0,0.0,0.0
888683500,454804,1644543929376809597,1,0.0,0.0,0.0,0.0,0.0,0.0,0.0,0.0,0.0,0.0,0.0,0.0,0.0,0.0,0.0,0.0,0.0,0.0,0.0,0.0,0.0,0.0,0.0,0.0,0.0,0.813951909542,-0.0392265990376,9.96355628967,0.0,0.0,0.0,0.0,0.0,0.0,0.0,0.0,0.0
890697800,454805,1644543929378823519,1,0.0,0.0,0.0,0.0,0.0,0.0,0.0,0.0,0.0,0.0,0.0,0.0,0.0,0.0,0.0,0.0,0.0,0.0,0.0,0.0,0.0,0.0,0.0,0.0,0.0,0.804145276546,-0.12748645246,9.88510322571,0.0,0.0,0.0,0.0,0.0,0.0,0.0,0.0,0.0
892871900,454806,1644543929380835533,1,0.0,0.0,0.0,0.0,0.0,0.0,0.0,0.0,0.0,0.0,0.0,0.0,0.0,0.0,0.0,0.0,0.0,0.0,0.0,0.0,0.0,0.0,0.0,0.0,0.0,0.774725317955,-0.0980664938688,9.96355628967,0.0,0.0,0.0,0.0,0.0,0.0,0.0,0.0,0.0
894714000,454807,1644543929382849455,1,0.0,0.0,0.0,0.0,0.0,0.0,0.0,0.0,0.0,0.0,0.0,0.0,0.0,0.0,0.0,0.0,0.0,0.0,0.0,0.0,0.0,0.0,0.0,0.0,0.0,0.764918684959,-0.12748645246,9.96355628967,0.0,0.0,0.0,0.0,0.0,0.0,0.0,0.0,0.0
896682300,454808,1644543929384861231,1,0.0,0.0,0.0,0.0,0.0,0.0,0.0,0.0,0.0,0.0,0.0,0.0,0.0,0.0,0.0,0.0,0.0,0.0,0.0,0.0,0.0,0.0,0.0,0.0,0.0,0.813951909542,-0.0686465501785,9.88510322571,0.0,0.0,0.0,0.0,0.0,0.0,0.0,0.0,0.0
898735700,454809,1644543929386875153,1,0.0,0.0,0.0,0.0,0.0,0.0,0.0,0.0,0.0,0.0,0.0,0.0,0.0,0.0,0.0,0.0,0.0,0.0,0.0,0.0,0.0,0.0,0.0,0.0,0.0,0.813951909542,-0.0686465501785,9.8949098587,0.0,0.0,0.0,0.0,0.0,0.0,0.0,0.0,0.0
900666700,454810,1644543929388889074,1,0.0,0.0,0.0,0.0,0.0,0.0,0.0,0.0,0.0,0.0,0.0,0.0,0.0,0.0,0.0,0.0,0.0,0.0,0.0,0.0,0.0,0.0,0.0,0.0,0.0,0.804145276546,-0.0392265990376,9.8949098587,0.0,0.0,0.0,0.0,0.0,0.0,0.0,0.0,0.0
902643600,454811,1644543929390900850,1,0.0,0.0,0.0,0.0,0.0,0.0,0.0,0.0,0.0,0.0,0.0,0.0,0.0,0.0,0.0,0.0,0.0,0.0,0.0,0.0,0.0,0.0,0.0,0.0,0.0,0.833565235138,-0.0686465501785,9.91452312469,0.0,0.0,0.0,0.0,0.0,0.0,0.0,0.0,0.0
904649200,454812,1644543929392915010,1,0.0,0.0,0.0,0.0,0.0,0.0,0.0,0.0,0.0,0.0,0.0,0.0,0.0,0.0,0.0,0.0,0.0,0.0,0.0,0.0,0.0,0.0,0.0,0.0,0.0,0.774725317955,-0.0980664938688,9.94394302368,0.0,0.0,0.0,0.0,0.0,0.0,0.0,0.0,0.0
906639500,454813,1644543929394928932,1,0.0,0.0,0.0,0.0,0.0,0.0,0.0,0.0,0.0,0.0,0.0,0.0,0.0,0.0,0.0,0.0,0.0,0.0,0.0,0.0,0.0,0.0,0.0,0.0,0.0,0.774725317955,-0.0784531980753,9.94394302368,0.0,0.0,0.0,0.0,0.0,0.0,0.0,0.0,0.0
908646600,454814,1644543929396940708,1,0.0,0.0,0.0,0.0,0.0,0.0,0.0,0.0,0.0,0.0,0.0,0.0,0.0,0.0,0.0,0.0,0.0,0.0,0.0,0.0,0.0,0.0,0.0,0.0,0.0,0.804145276546,-0.12748645246,9.88510322571,0.0,0.0,0.0,0.0,0.0,0.0,0.0,0.0,0.0
910715400,454815,1644543929398954630,1,0.0,0.0,0.0,0.0,0.0,0.0,0.0,0.0,0.0,0.0,0.0,0.0,0.0,0.0,0.0,0.0,0.0,0.0,0.0,0.0,0.0,0.0,0.0,0.0,0.0,0.774725317955,-0.0980664938688,9.88510322571,0.0,0.0,0.0,0.0,0.0,0.0,0.0,0.0,0.0
912980700,454816,1644543929400966644,1,0.0,0.0,0.0,0.0,0.0,0.0,0.0,0.0,0.0,0.0,0.0,0.0,0.0,0.0,0.0,0.0,0.0,0.0,0.0,0.0,0.0,0.0,0.0,0.0,0.0,0.804145276546,-0.0784531980753,9.88510322571,0.0,0.0,0.0,0.0,0.0,0.0,0.0,0.0,0.0
915023800,454817,1644543929402980566,1,0.0,0.0,0.0,0.0,0.0,0.0,0.0,0.0,0.0,0.0,0.0,0.0,0.0,0.0,0.0,0.0,0.0,0.0,0.0,0.0,0.0,0.0,0.0,0.0,0.0,0.804145276546,-0.0980664938688,9.94394302368,0.0,0.0,0.0,0.0,0.0,0.0,0.0,0.0,0.0
916751300,454818,1644543929404994488,1,0.0,0.0,0.0,0.0,0.0,0.0,0.0,0.0,0.0,0.0,0.0,0.0,0.0,0.0,0.0,0.0,0.0,0.0,0.0,0.0,0.0,0.0,0.0,0.0,0.0,0.774725317955,-0.12748645246,9.88510322571,0.0,0.0,0.0,0.0,0.0,0.0,0.0,0.0,0.0
918651500,454819,1644543929407006264,1,0.0,0.0,0.0,0.0,0.0,0.0,0.0,0.0,0.0,0.0,0.0,0.0,0.0,0.0,0.0,0.0,0.0,0.0,0.0,0.0,0.0,0.0,0.0,0.0,0.0,0.764918684959,-0.0980664938688,9.8949098587,0.0,0.0,0.0,0.0,0.0,0.0,0.0,0.0,0.0
920723800,454820,1644543929409020185,1,0.0,0.0,0.0,0.0,0.0,0.0,0.0,0.0,0.0,0.0,0.0,0.0,0.0,0.0,0.0,0.0,0.0,0.0,0.0,0.0,0.0,0.0,0.0,0.0,0.0,0.813951909542,-0.0980664938688,9.94394302368,0.0,0.0,0.0,0.0,0.0,0.0,0.0,0.0,0.0
922652100,454821,1644543929411032200,1,0.0,0.0,0.0,0.0,0.0,0.0,0.0,0.0,0.0,0.0,0.0,0.0,0.0,0.0,0.0,0.0,0.0,0.0,0.0,0.0,0.0,0.0,0.0,0.0,0.0,0.833565235138,-0.0980664938688,9.88510322571,0.0,0.0,0.0,0.0,0.0,0.0,0.0,0.0,0.0
924810000,454822,1644543929413046122,1,0.0,0.0,0.0,0.0,0.0,0.0,0.0,0.0,0.0,0.0,0.0,0.0,0.0,0.0,0.0,0.0,0.0,0.0,0.0,0.0,0.0,0.0,0.0,0.0,0.0,0.813951909542,-0.12748645246,9.96355628967,0.0,0.0,0.0,0.0,0.0,0.0,0.0,0.0,0.0
926649800,454823,1644543929415060043,1,0.0,0.0,0.0,0.0,0.0,0.0,0.0,0.0,0.0,0.0,0.0,0.0,0.0,0.0,0.0,0.0,0.0,0.0,0.0,0.0,0.0,0.0,0.0,0.0,0.0,0.833565235138,-0.0980664938688,9.96355628967,0.0,0.0,0.0,0.0,0.0,0.0,0.0,0.0,0.0
928760300,454824,1644543929417072058,1,0.0,0.0,0.0,0.0,0.0,0.0,0.0,0.0,0.0,0.0,0.0,0.0,0.0,0.0,0.0,0.0,0.0,0.0,0.0,0.0,0.0,0.0,0.0,0.0,0.0,0.774725317955,-0.0784531980753,9.88510322571,0.0,0.0,0.0,0.0,0.0,0.0,0.0,0.0,0.0
930990900,454825,1644543929419085979,1,0.0,0.0,0.0,0.0,0.0,0.0,0.0,0.0,0.0,0.0,0.0,0.0,0.0,0.0,0.0,0.0,0.0,0.0,0.0,0.0,0.0,0.0,0.0,0.0,0.0,0.804145276546,-0.0294199492782,9.88510322571,0.0,0.0,0.0,0.0,0.0,0.0,0.0,0.0,0.0
932932200,454826,1644543929421097994,1,0.0,0.0,0.0,0.0,0.0,0.0,0.0,0.0,0.0,0.0,0.0,0.0,0.0,0.0,0.0,0.0,0.0,0.0,0.0,0.0,0.0,0.0,0.0,0.0,0.0,0.833565235138,-0.0784531980753,9.94394302368,0.0,0.0,0.0,0.0,0.0,0.0,0.0,0.0,0.0
934862800,454827,1644543929423111916,1,0.0,0.0,0.0,0.0,0.0,0.0,0.0,0.0,0.0,0.0,0.0,0.0,0.0,0.0,0.0,0.0,0.0,0.0,0.0,0.0,0.0,0.0,0.0,0.0,0.0,0.774725317955,-0.0784531980753,9.94394302368,0.0,0.0,0.0,0.0,0.0,0.0,0.0,0.0,0.0
936860100,454828,1644543929425123453,1,0.0,0.0,0.0,0.0,0.0,0.0,0.0,0.0,0.0,0.0,0.0,0.0,0.0,0.0,0.0,0.0,0.0,0.0,0.0,0.0,0.0,0.0,0.0,0.0,0.0,0.774725317955,-0.12748645246,9.8949098587,0.0,0.0,0.0,0.0,0.0,0.0,0.0,0.0,0.0
938855600,454829,1644543929427137375,1,0.0,0.0,0.0,0.0,0.0,0.0,0.0,0.0,0.0,0.0,0.0,0.0,0.0,0.0,0.0,0.0,0.0,0.0,0.0,0.0,0.0,0.0,0.0,0.0,0.0,0.804145276546,-0.0784531980753,9.91452312469,0.0,0.0,0.0,0.0,0.0,0.0,0.0,0.0,0.0
940870000,454830,1644543929429151297,1,0.0,0.0,0.0,0.0,0.0,0.0,0.0,0.0,0.0,0.0,0.0,0.0,0.0,0.0,0.0,0.0,0.0,0.0,0.0,0.0,0.0,0.0,0.0,0.0,0.0,0.804145276546,-0.0686465501785,9.94394302368,0.0,0.0,0.0,0.0,0.0,0.0,0.0,0.0,0.0
942891100,454831,1644543929431163311,1,0.0,0.0,0.0,0.0,0.0,0.0,0.0,0.0,0.0,0.0,0.0,0.0,0.0,0.0,0.0,0.0,0.0,0.0,0.0,0.0,0.0,0.0,0.0,0.0,0.0,0.774725317955,-0.0980664938688,9.94394302368,0.0,0.0,0.0,0.0,0.0,0.0,0.0,0.0,0.0
945281500,454832,1644543929433177233,1,0.0,0.0,0.0,0.0,0.0,0.0,0.0,0.0,0.0,0.0,0.0,0.0,0.0,0.0,0.0,0.0,0.0,0.0,0.0,0.0,0.0,0.0,0.0,0.0,0.0,0.774725317955,-0.0686465501785,9.94394302368,0.0,0.0,0.0,0.0,0.0,0.0,0.0,0.0,0.0
947045600,454833,1644543929435191154,1,0.0,0.0,0.0,0.0,0.0,0.0,0.0,0.0,0.0,0.0,0.0,0.0,0.0,0.0,0.0,0.0,0.0,0.0,0.0,0.0,0.0,0.0,0.0,0.0,0.0,0.804145276546,-0.0784531980753,9.96355628967,0.0,0.0,0.0,0.0,0.0,0.0,0.0,0.0,0.0
948954300,454834,1644543929437203169,1,0.0,0.0,0.0,0.0,0.0,0.0,0.0,0.0,0.0,0.0,0.0,0.0,0.0,0.0,0.0,0.0,0.0,0.0,0.0,0.0,0.0,0.0,0.0,0.0,0.0,0.774725317955,-0.0686465501785,9.96355628967,0.0,0.0,0.0,0.0,0.0,0.0,0.0,0.0,0.0
950894800,454835,1644543929439217091,1,0.0,0.0,0.0,0.0,0.0,0.0,0.0,0.0,0.0,0.0,0.0,0.0,0.0,0.0,0.0,0.0,0.0,0.0,0.0,0.0,0.0,0.0,0.0,0.0,0.0,0.774725317955,-0.0686465501785,9.94394302368,0.0,0.0,0.0,0.0,0.0,0.0,0.0,0.0,0.0
953010100,454836,1644543929441231012,1,0.0,0.0,0.0,0.0,0.0,0.0,0.0,0.0,0.0,0.0,0.0,0.0,0.0,0.0,0.0,0.0,0.0,0.0,0.0,0.0,0.0,0.0,0.0,0.0,0.0,0.813951909542,-0.0686465501785,9.91452312469,0.0,0.0,0.0,0.0,0.0,0.0,0.0,0.0,0.0
954881100,454837,1644543929443243027,1,0.0,0.0,0.0,0.0,0.0,0.0,0.0,0.0,0.0,0.0,0.0,0.0,0.0,0.0,0.0,0.0,0.0,0.0,0.0,0.0,0.0,0.0,0.0,0.0,0.0,0.804145276546,-0.0686465501785,9.8949098587,0.0,0.0,0.0,0.0,0.0,0.0,0.0,0.0,0.0
957265200,454838,1644543929445256948,1,0.0,0.0,0.0,0.0,0.0,0.0,0.0,0.0,0.0,0.0,0.0,0.0,0.0,0.0,0.0,0.0,0.0,0.0,0.0,0.0,0.0,0.0,0.0,0.0,0.0,0.804145276546,-0.0686465501785,9.91452312469,0.0,0.0,0.0,0.0,0.0,0.0,0.0,0.0,0.0
959002600,454839,1644543929447270870,1,0.0,0.0,0.0,0.0,0.0,0.0,0.0,0.0,0.0,0.0,0.0,0.0,0.0,0.0,0.0,0.0,0.0,0.0,0.0,0.0,0.0,0.0,0.0,0.0,0.0,0.813951909542,-0.0294199492782,9.88510322571,0.0,0.0,0.0,0.0,0.0,0.0,0.0,0.0,0.0
961216200,454840,1644543929449282646,1,0.0,0.0,0.0,0.0,0.0,0.0,0.0,0.0,0.0,0.0,0.0,0.0,0.0,0.0,0.0,0.0,0.0,0.0,0.0,0.0,0.0,0.0,0.0,0.0,0.0,0.764918684959,-0.00980664975941,9.94394302368,0.0,0.0,0.0,0.0,0.0,0.0,0.0,0.0,0.0
963144400,454841,1644543929451296568,1,0.0,0.0,0.0,0.0,0.0,0.0,0.0,0.0,0.0,0.0,0.0,0.0,0.0,0.0,0.0,0.0,0.0,0.0,0.0,0.0,0.0,0.0,0.0,0.0,0.0,0.735498726368,-0.0392265990376,9.91452312469,0.0,0.0,0.0,0.0,0.0,0.0,0.0,0.0,0.0
965158700,454842,1644543929453308344,1,0.0,0.0,0.0,0.0,0.0,0.0,0.0,0.0,0.0,0.0,0.0,0.0,0.0,0.0,0.0,0.0,0.0,0.0,0.0,0.0,0.0,0.0,0.0,0.0,0.0,0.774725317955,-0.0294199492782,9.96355628967,0.0,0.0,0.0,0.0,0.0,0.0,0.0,0.0,0.0
966852600,454843,1644543929455322266,1,0.0,0.0,0.0,0.0,0.0,0.0,0.0,0.0,0.0,0.0,0.0,0.0,0.0,0.0,0.0,0.0,0.0,0.0,0.0,0.0,0.0,0.0,0.0,0.0,0.0,0.764918684959,-0.0392265990376,9.8949098587,0.0,0.0,0.0,0.0,0.0,0.0,0.0,0.0,0.0
969145700,454844,1644543929457334280,1,0.0,0.0,0.0,0.0,0.0,0.0,0.0,0.0,0.0,0.0,0.0,0.0,0.0,0.0,0.0,0.0,0.0,0.0,0.0,0.0,0.0,0.0,0.0,0.0,0.0,0.774725317955,-0.0686465501785,9.94394302368,0.0,0.0,0.0,0.0,0.0,0.0,0.0,0.0,0.0
971217600,454845,1644543929459348202,1,0.0,0.0,0.0,0.0,0.0,0.0,0.0,0.0,0.0,0.0,0.0,0.0,0.0,0.0,0.0,0.0,0.0,0.0,0.0,0.0,0.0,0.0,0.0,0.0,0.0,0.774725317955,-0.00980664975941,9.8949098587,0.0,0.0,0.0,0.0,0.0,0.0,0.0,0.0,0.0
973215800,454846,1644543929461360216,1,0.0,0.0,0.0,0.0,0.0,0.0,0.0,0.0,0.0,0.0,0.0,0.0,0.0,0.0,0.0,0.0,0.0,0.0,0.0,0.0,0.0,0.0,0.0,0.0,0.0,0.804145276546,0.0,9.91452312469,0.0,0.0,0.0,0.0,0.0,0.0,0.0,0.0,0.0
975782600,454847,1644543929463374138,1,0.0,0.0,0.0,0.0,0.0,0.0,0.0,0.0,0.0,0.0,0.0,0.0,0.0,0.0,0.0,0.0,0.0,0.0,0.0,0.0,0.0,0.0,0.0,0.0,0.0,0.774725317955,-0.0294199492782,9.94394302368,0.0,0.0,0.0,0.0,0.0,0.0,0.0,0.0,0.0
977508000,454848,1644543929465387821,1,0.0,0.0,0.0,0.0,0.0,0.0,0.0,0.0,0.0,0.0,0.0,0.0,0.0,0.0,0.0,0.0,0.0,0.0,0.0,0.0,0.0,0.0,0.0,0.0,0.0,0.764918684959,-0.0294199492782,9.98316955566,0.0,0.0,0.0,0.0,0.0,0.0,0.0,0.0,0.0
979152600,454849,1644543929467399836,1,0.0,0.0,0.0,0.0,0.0,0.0,0.0,0.0,0.0,0.0,0.0,0.0,0.0,0.0,0.0,0.0,0.0,0.0,0.0,0.0,0.0,0.0,0.0,0.0,0.0,0.774725317955,-0.00980664975941,9.94394302368,0.0,0.0,0.0,0.0,0.0,0.0,0.0,0.0,0.0
981203900,454850,1644543929469413757,1,0.0,0.0,0.0,0.0,0.0,0.0,0.0,0.0,0.0,0.0,0.0,0.0,0.0,0.0,0.0,0.0,0.0,0.0,0.0,0.0,0.0,0.0,0.0,0.0,0.0,0.813951909542,-0.0392265990376,9.96355628967,0.0,0.0,0.0,0.0,0.0,0.0,0.0,0.0,0.0
983146000,454851,1644543929471425772,1,0.0,0.0,0.0,0.0,0.0,0.0,0.0,0.0,0.0,0.0,0.0,0.0,0.0,0.0,0.0,0.0,0.0,0.0,0.0,0.0,0.0,0.0,0.0,0.0,0.0,0.804145276546,0.0,9.98316955566,0.0,0.0,0.0,0.0,0.0,0.0,0.0,0.0,0.0
985173200,454852,1644543929473441601,1,0.0,0.0,0.0,0.0,0.0,0.0,0.0,0.0,0.0,0.0,0.0,0.0,0.0,0.0,0.0,0.0,0.0,0.0,0.0,0.0,0.0,0.0,0.0,0.0,0.0,0.813951909542,-0.0294199492782,9.99297618866,0.0,0.0,0.0,0.0,0.0,0.0,0.0,0.0,0.0
987442400,454853,1644543929475453615,1,0.0,0.0,0.0,0.0,0.0,0.0,0.0,0.0,0.0,0.0,0.0,0.0,0.0,0.0,0.0,0.0,0.0,0.0,0.0,0.0,0.0,0.0,0.0,0.0,0.0,0.813951909542,-0.00980664975941,9.94394302368,0.0,0.0,0.0,0.0,0.0,0.0,0.0,0.0,0.0
989519300,454854,1644543929477467537,1,0.0,0.0,0.0,0.0,0.0,0.0,0.0,0.0,0.0,0.0,0.0,0.0,0.0,0.0,0.0,0.0,0.0,0.0,0.0,0.0,0.0,0.0,0.0,0.0,0.0,0.843371868134,-0.0294199492782,9.8949098587,0.0,0.0,0.0,0.0,0.0,0.0,0.0,0.0,0.0
991678700,454855,1644543929479479551,1,0.0,0.0,0.0,0.0,0.0,0.0,0.0,0.0,0.0,0.0,0.0,0.0,0.0,0.0,0.0,0.0,0.0,0.0,0.0,0.0,0.0,0.0,0.0,0.0,0.0,0.774725317955,-0.0392265990376,9.91452312469,0.0,0.0,0.0,0.0,0.0,0.0,0.0,0.0,0.0
993648100,454856,1644543929481493235,1,0.0,0.0,0.0,0.0,0.0,0.0,0.0,0.0,0.0,0.0,0.0,0.0,0.0,0.0,0.0,0.0,0.0,0.0,0.0,0.0,0.0,0.0,0.0,0.0,0.0,0.813951909542,-0.00980664975941,9.96355628967,0.0,0.0,0.0,0.0,0.0,0.0,0.0,0.0,0.0
995827700,454857,1644543929483507156,1,0.0,0.0,0.0,0.0,0.0,0.0,0.0,0.0,0.0,0.0,0.0,0.0,0.0,0.0,0.0,0.0,0.0,0.0,0.0,0.0,0.0,0.0,0.0,0.0,0.0,0.833565235138,-0.0784531980753,9.98316955566,0.0,0.0,0.0,0.0,0.0,0.0,0.0,0.0,0.0
997496200,454858,1644543929485518932,1,0.0,0.0,0.0,0.0,0.0,0.0,0.0,0.0,0.0,0.0,0.0,0.0,0.0,0.0,0.0,0.0,0.0,0.0,0.0,0.0,0.0,0.0,0.0,0.0,0.0,0.764918684959,0.0294199492782,9.8949098587,0.0,0.0,0.0,0.0,0.0,0.0,0.0,0.0,0.0
999469600,454859,1644543929487532854,1,0.0,0.0,0.0,0.0,0.0,0.0,0.0,0.0,0.0,0.0,0.0,0.0,0.0,0.0,0.0,0.0,0.0,0.0,0.0,0.0,0.0,0.0,0.0,0.0,0.0,0.735498726368,-0.0294199492782,9.8949098587,0.0,0.0,0.0,0.0,0.0,0.0,0.0,0.0,0.0
1001503800,454860,1644543929489546776,1,0.0,0.0,0.0,0.0,0.0,0.0,0.0,0.0,0.0,0.0,0.0,0.0,0.0,0.0,0.0,0.0,0.0,0.0,0.0,0.0,0.0,0.0,0.0,0.0,0.0,0.804145276546,-0.0294199492782,9.91452312469,0.0,0.0,0.0,0.0,0.0,0.0,0.0,0.0,0.0
1003413100,454861,1644543929491558790,1,0.0,0.0,0.0,0.0,0.0,0.0,0.0,0.0,0.0,0.0,0.0,0.0,0.0,0.0,0.0,0.0,0.0,0.0,0.0,0.0,0.0,0.0,0.0,0.0,0.0,0.833565235138,-0.0686465501785,9.98316955566,0.0,0.0,0.0,0.0,0.0,0.0,0.0,0.0,0.0
1005662600,454862,1644543929493572712,1,0.0,0.0,0.0,0.0,0.0,0.0,0.0,0.0,0.0,0.0,0.0,0.0,0.0,0.0,0.0,0.0,0.0,0.0,0.0,0.0,0.0,0.0,0.0,0.0,0.0,0.774725317955,-0.0294199492782,9.88510322571,0.0,0.0,0.0,0.0,0.0,0.0,0.0,0.0,0.0
1007701700,454863,1644543929495586634,1,0.0,0.0,0.0,0.0,0.0,0.0,0.0,0.0,0.0,0.0,0.0,0.0,0.0,0.0,0.0,0.0,0.0,0.0,0.0,0.0,0.0,0.0,0.0,0.0,0.0,0.813951909542,-0.0686465501785,9.96355628967,0.0,0.0,0.0,0.0,0.0,0.0,0.0,0.0,0.0
1009443600,454864,1644543929497598648,1,0.0,0.0,0.0,0.0,0.0,0.0,0.0,0.0,0.0,0.0,0.0,0.0,0.0,0.0,0.0,0.0,0.0,0.0,0.0,0.0,0.0,0.0,0.0,0.0,0.0,0.843371868134,-0.0980664938688,9.96355628967,0.0,0.0,0.0,0.0,0.0,0.0,0.0,0.0,0.0
1011462000,454865,1644543929499612570,1,0.0,0.0,0.0,0.0,0.0,0.0,0.0,0.0,0.0,0.0,0.0,0.0,0.0,0.0,0.0,0.0,0.0,0.0,0.0,0.0,0.0,0.0,0.0,0.0,0.0,0.804145276546,-0.0294199492782,9.98316955566,0.0,0.0,0.0,0.0,0.0,0.0,0.0,0.0,0.0
1013509700,454866,1644543929501626492,1,0.0,0.0,0.0,0.0,0.0,0.0,0.0,0.0,0.0,0.0,0.0,0.0,0.0,0.0,0.0,0.0,0.0,0.0,0.0,0.0,0.0,0.0,0.0,0.0,0.0,0.813951909542,-0.0392265990376,9.8949098587,0.0,0.0,0.0,0.0,0.0,0.0,0.0,0.0,0.0
1015447600,454867,1644543929503638506,1,0.0,0.0,0.0,0.0,0.0,0.0,0.0,0.0,0.0,0.0,0.0,0.0,0.0,0.0,0.0,0.0,0.0,0.0,0.0,0.0,0.0,0.0,0.0,0.0,0.0,0.813951909542,-0.0686465501785,9.86548995972,0.0,0.0,0.0,0.0,0.0,0.0,0.0,0.0,0.0
1017398300,454868,1644543929505652428,1,0.0,0.0,0.0,0.0,0.0,0.0,0.0,0.0,0.0,0.0,0.0,0.0,0.0,0.0,0.0,0.0,0.0,0.0,0.0,0.0,0.0,0.0,0.0,0.0,0.0,0.833565235138,-0.0686465501785,9.8949098587,0.0,0.0,0.0,0.0,0.0,0.0,0.0,0.0,0.0
1019491600,454869,1644543929507666349,1,0.0,0.0,0.0,0.0,0.0,0.0,0.0,0.0,0.0,0.0,0.0,0.0,0.0,0.0,0.0,0.0,0.0,0.0,0.0,0.0,0.0,0.0,0.0,0.0,0.0,0.804145276546,-0.0784531980753,9.94394302368,0.0,0.0,0.0,0.0,0.0,0.0,0.0,0.0,0.0
1021828100,454870,1644543929509677887,1,0.0,0.0,0.0,0.0,0.0,0.0,0.0,0.0,0.0,0.0,0.0,0.0,0.0,0.0,0.0,0.0,0.0,0.0,0.0,0.0,0.0,0.0,0.0,0.0,0.0,0.813951909542,-0.0784531980753,9.94394302368,0.0,0.0,0.0,0.0,0.0,0.0,0.0,0.0,0.0
1023436700,454871,1644543929511691809,1,0.0,0.0,0.0,0.0,0.0,0.0,0.0,0.0,0.0,0.0,0.0,0.0,0.0,0.0,0.0,0.0,0.0,0.0,0.0,0.0,0.0,0.0,0.0,0.0,0.0,0.872791826725,-0.12748645246,9.88510322571,0.0,0.0,0.0,0.0,0.0,0.0,0.0,0.0,0.0
1025386400,454872,1644543929513705730,1,0.0,0.0,0.0,0.0,0.0,0.0,0.0,0.0,0.0,0.0,0.0,0.0,0.0,0.0,0.0,0.0,0.0,0.0,0.0,0.0,0.0,0.0,0.0,0.0,0.0,0.813951909542,-0.0294199492782,9.91452312469,0.0,0.0,0.0,0.0,0.0,0.0,0.0,0.0,0.0
1027392200,454873,1644543929515719652,1,0.0,0.0,0.0,0.0,0.0,0.0,0.0,0.0,0.0,0.0,0.0,0.0,0.0,0.0,0.0,0.0,0.0,0.0,0.0,0.0,0.0,0.0,0.0,0.0,0.0,0.735498726368,-0.0686465501785,9.86548995972,0.0,0.0,0.0,0.0,0.0,0.0,0.0,0.0,0.0
1029384000,454874,1644543929517731667,1,0.0,0.0,0.0,0.0,0.0,0.0,0.0,0.0,0.0,0.0,0.0,0.0,0.0,0.0,0.0,0.0,0.0,0.0,0.0,0.0,0.0,0.0,0.0,0.0,0.0,0.813951909542,-0.0980664938688,9.91452312469,0.0,0.0,0.0,0.0,0.0,0.0,0.0,0.0,0.0
1031435500,454875,1644543929519745588,1,0.0,0.0,0.0,0.0,0.0,0.0,0.0,0.0,0.0,0.0,0.0,0.0,0.0,0.0,0.0,0.0,0.0,0.0,0.0,0.0,0.0,0.0,0.0,0.0,0.0,0.833565235138,-0.0980664938688,9.96355628967,0.0,0.0,0.0,0.0,0.0,0.0,0.0,0.0,0.0
1033392100,454876,1644543929521759510,1,0.0,0.0,0.0,0.0,0.0,0.0,0.0,0.0,0.0,0.0,0.0,0.0,0.0,0.0,0.0,0.0,0.0,0.0,0.0,0.0,0.0,0.0,0.0,0.0,0.0,0.764918684959,-0.0784531980753,9.86548995972,0.0,0.0,0.0,0.0,0.0,0.0,0.0,0.0,0.0
1035512800,454877,1644543929523771524,1,0.0,0.0,0.0,0.0,0.0,0.0,0.0,0.0,0.0,0.0,0.0,0.0,0.0,0.0,0.0,0.0,0.0,0.0,0.0,0.0,0.0,0.0,0.0,0.0,0.0,0.774725317955,-0.0784531980753,9.88510322571,0.0,0.0,0.0,0.0,0.0,0.0,0.0,0.0,0.0
1037561400,454878,1644543929525785446,1,0.0,0.0,0.0,0.0,0.0,0.0,0.0,0.0,0.0,0.0,0.0,0.0,0.0,0.0,0.0,0.0,0.0,0.0,0.0,0.0,0.0,0.0,0.0,0.0,0.0,0.804145276546,-0.12748645246,9.91452312469,0.0,0.0,0.0,0.0,0.0,0.0,0.0,0.0,0.0
1039405200,454879,1644543929527797461,1,0.0,0.0,0.0,0.0,0.0,0.0,0.0,0.0,0.0,0.0,0.0,0.0,0.0,0.0,0.0,0.0,0.0,0.0,0.0,0.0,0.0,0.0,0.0,0.0,0.0,0.804145276546,-0.0686465501785,9.88510322571,0.0,0.0,0.0,0.0,0.0,0.0,0.0,0.0,0.0
1041402500,454880,1644543929529811382,1,0.0,0.0,0.0,0.0,0.0,0.0,0.0,0.0,0.0,0.0,0.0,0.0,0.0,0.0,0.0,0.0,0.0,0.0,0.0,0.0,0.0,0.0,0.0,0.0,0.0,0.813951909542,-0.0784531980753,9.88510322571,0.0,0.0,0.0,0.0,0.0,0.0,0.0,0.0,0.0
1043391800,454881,1644543929531825304,1,0.0,0.0,0.0,0.0,0.0,0.0,0.0,0.0,0.0,0.0,0.0,0.0,0.0,0.0,0.0,0.0,0.0,0.0,0.0,0.0,0.0,0.0,0.0,0.0,0.0,0.813951909542,-0.0784531980753,9.8949098587,0.0,0.0,0.0,0.0,0.0,0.0,0.0,0.0,0.0
1045395100,454882,1644543929533836842,1,0.0,0.0,0.0,0.0,0.0,0.0,0.0,0.0,0.0,0.0,0.0,0.0,0.0,0.0,0.0,0.0,0.0,0.0,0.0,0.0,0.0,0.0,0.0,0.0,0.0,0.813951909542,-0.0392265990376,9.86548995972,0.0,0.0,0.0,0.0,0.0,0.0,0.0,0.0,0.0
1047562000,454883,1644543929535850763,1,0.0,0.0,0.0,0.0,0.0,0.0,0.0,0.0,0.0,0.0,0.0,0.0,0.0,0.0,0.0,0.0,0.0,0.0,0.0,0.0,0.0,0.0,0.0,0.0,0.0,0.774725317955,-0.0686465501785,9.86548995972,0.0,0.0,0.0,0.0,0.0,0.0,0.0,0.0,0.0
1049767500,454884,1644543929537864685,1,0.0,0.0,0.0,0.0,0.0,0.0,0.0,0.0,0.0,0.0,0.0,0.0,0.0,0.0,0.0,0.0,0.0,0.0,0.0,0.0,0.0,0.0,0.0,0.0,0.0,0.833565235138,-0.0784531980753,9.8949098587,0.0,0.0,0.0,0.0,0.0,0.0,0.0,0.0,0.0
1051802800,454885,1644543929539878607,1,0.0,0.0,0.0,0.0,0.0,0.0,0.0,0.0,0.0,0.0,0.0,0.0,0.0,0.0,0.0,0.0,0.0,0.0,0.0,0.0,0.0,0.0,0.0,0.0,0.0,0.813951909542,-0.12748645246,9.8949098587,0.0,0.0,0.0,0.0,0.0,0.0,0.0,0.0,0.0
1053917900,454886,1644543929541890621,1,0.0,0.0,0.0,0.0,0.0,0.0,0.0,0.0,0.0,0.0,0.0,0.0,0.0,0.0,0.0,0.0,0.0,0.0,0.0,0.0,0.0,0.0,0.0,0.0,0.0,0.774725317955,-0.0784531980753,9.8949098587,0.0,0.0,0.0,0.0,0.0,0.0,0.0,0.0,0.0
1055764900,454887,1644543929543904543,1,0.0,0.0,0.0,0.0,0.0,0.0,0.0,0.0,0.0,0.0,0.0,0.0,0.0,0.0,0.0,0.0,0.0,0.0,0.0,0.0,0.0,0.0,0.0,0.0,0.0,0.774725317955,-0.0392265990376,9.86548995972,0.0,0.0,0.0,0.0,0.0,0.0,0.0,0.0,0.0
1057682900,454888,1644543929545916557,1,0.0,0.0,0.0,0.0,0.0,0.0,0.0,0.0,0.0,0.0,0.0,0.0,0.0,0.0,0.0,0.0,0.0,0.0,0.0,0.0,0.0,0.0,0.0,0.0,0.0,0.804145276546,-0.0686465501785,9.8949098587,0.0,0.0,0.0,0.0,0.0,0.0,0.0,0.0,0.0
1059609800,454889,1644543929547930479,1,0.0,0.0,0.0,0.0,0.0,0.0,0.0,0.0,0.0,0.0,0.0,0.0,0.0,0.0,0.0,0.0,0.0,0.0,0.0,0.0,0.0,0.0,0.0,0.0,0.0,0.813951909542,-0.0980664938688,9.91452312469,0.0,0.0,0.0,0.0,0.0,0.0,0.0,0.0,0.0
1061607100,454890,1644543929549944401,1,0.0,0.0,0.0,0.0,0.0,0.0,0.0,0.0,0.0,0.0,0.0,0.0,0.0,0.0,0.0,0.0,0.0,0.0,0.0,0.0,0.0,0.0,0.0,0.0,0.0,0.813951909542,-0.0980664938688,9.91452312469,0.0,0.0,0.0,0.0,0.0,0.0,0.0,0.0,0.0
1063820800,454891,1644543929551958323,1,0.0,0.0,0.0,0.0,0.0,0.0,0.0,0.0,0.0,0.0,0.0,0.0,0.0,0.0,0.0,0.0,0.0,0.0,0.0,0.0,0.0,0.0,0.0,0.0,0.0,0.833565235138,-0.0686465501785,9.94394302368,0.0,0.0,0.0,0.0,0.0,0.0,0.0,0.0,0.0
1065670800,454892,1644543929553970098,1,0.0,0.0,0.0,0.0,0.0,0.0,0.0,0.0,0.0,0.0,0.0,0.0,0.0,0.0,0.0,0.0,0.0,0.0,0.0,0.0,0.0,0.0,0.0,0.0,0.0,0.813951909542,-0.0784531980753,9.88510322571,0.0,0.0,0.0,0.0,0.0,0.0,0.0,0.0,0.0
1067810500,454893,1644543929555984020,1,0.0,0.0,0.0,0.0,0.0,0.0,0.0,0.0,0.0,0.0,0.0,0.0,0.0,0.0,0.0,0.0,0.0,0.0,0.0,0.0,0.0,0.0,0.0,0.0,0.0,0.813951909542,-0.12748645246,9.88510322571,0.0,0.0,0.0,0.0,0.0,0.0,0.0,0.0,0.0
1069621200,454894,1644543929557995796,1,0.0,0.0,0.0,0.0,0.0,0.0,0.0,0.0,0.0,0.0,0.0,0.0,0.0,0.0,0.0,0.0,0.0,0.0,0.0,0.0,0.0,0.0,0.0,0.0,0.0,0.804145276546,-0.12748645246,9.83607006073,0.0,0.0,0.0,0.0,0.0,0.0,0.0,0.0,0.0
1071620700,454895,1644543929560009718,1,0.0,0.0,0.0,0.0,0.0,0.0,0.0,0.0,0.0,0.0,0.0,0.0,0.0,0.0,0.0,0.0,0.0,0.0,0.0,0.0,0.0,0.0,0.0,0.0,0.0,0.804145276546,-0.0784531980753,9.91452312469,0.0,0.0,0.0,0.0,0.0,0.0,0.0,0.0,0.0
1073604100,454896,1644543929562023640,1,0.0,0.0,0.0,0.0,0.0,0.0,0.0,0.0,0.0,0.0,0.0,0.0,0.0,0.0,0.0,0.0,0.0,0.0,0.0,0.0,0.0,0.0,0.0,0.0,0.0,0.804145276546,-0.0980664938688,9.88510322571,0.0,0.0,0.0,0.0,0.0,0.0,0.0,0.0,0.0
1075608300,454897,1644543929564035654,1,0.0,0.0,0.0,0.0,0.0,0.0,0.0,0.0,0.0,0.0,0.0,0.0,0.0,0.0,0.0,0.0,0.0,0.0,0.0,0.0,0.0,0.0,0.0,0.0,0.0,0.774725317955,-0.0784531980753,9.94394302368,0.0,0.0,0.0,0.0,0.0,0.0,0.0,0.0,0.0
1077796600,454898,1644543929566049576,1,0.0,0.0,0.0,0.0,0.0,0.0,0.0,0.0,0.0,0.0,0.0,0.0,0.0,0.0,0.0,0.0,0.0,0.0,0.0,0.0,0.0,0.0,0.0,0.0,0.0,0.764918684959,-0.0980664938688,9.96355628967,0.0,0.0,0.0,0.0,0.0,0.0,0.0,0.0,0.0
1079786200,454899,1644543929568063498,1,0.0,0.0,0.0,0.0,0.0,0.0,0.0,0.0,0.0,0.0,0.0,0.0,0.0,0.0,0.0,0.0,0.0,0.0,0.0,0.0,0.0,0.0,0.0,0.0,0.0,0.804145276546,-0.0686465501785,9.94394302368,0.0,0.0,0.0,0.0,0.0,0.0,0.0,0.0,0.0
1081985600,454900,1644543929570075512,1,0.0,0.0,0.0,0.0,0.0,0.0,0.0,0.0,0.0,0.0,0.0,0.0,0.0,0.0,0.0,0.0,0.0,0.0,0.0,0.0,0.0,0.0,0.0,0.0,0.0,0.813951909542,-0.0980664938688,9.88510322571,0.0,0.0,0.0,0.0,0.0,0.0,0.0,0.0,0.0
1084002000,454901,1644543929572089434,1,0.0,0.0,0.0,0.0,0.0,0.0,0.0,0.0,0.0,0.0,0.0,0.0,0.0,0.0,0.0,0.0,0.0,0.0,0.0,0.0,0.0,0.0,0.0,0.0,0.0,0.833565235138,-0.0784531980753,9.86548995972,0.0,0.0,0.0,0.0,0.0,0.0,0.0,0.0,0.0
1085943400,454902,1644543929574103355,1,0.0,0.0,0.0,0.0,0.0,0.0,0.0,0.0,0.0,0.0,0.0,0.0,0.0,0.0,0.0,0.0,0.0,0.0,0.0,0.0,0.0,0.0,0.0,0.0,0.0,0.774725317955,-0.0784531980753,9.86548995972,0.0,0.0,0.0,0.0,0.0,0.0,0.0,0.0,0.0
1088006600,454903,1644543929576115131,1,0.0,0.0,0.0,0.0,0.0,0.0,0.0,0.0,0.0,0.0,0.0,0.0,0.0,0.0,0.0,0.0,0.0,0.0,0.0,0.0,0.0,0.0,0.0,0.0,0.0,0.764918684959,-0.0980664938688,9.91452312469,0.0,0.0,0.0,0.0,0.0,0.0,0.0,0.0,0.0
1090234900,454904,1644543929578129053,1,0.0,0.0,0.0,0.0,0.0,0.0,0.0,0.0,0.0,0.0,0.0,0.0,0.0,0.0,0.0,0.0,0.0,0.0,0.0,0.0,0.0,0.0,0.0,0.0,0.0,0.804145276546,-0.0686465501785,9.94394302368,0.0,0.0,0.0,0.0,0.0,0.0,0.0,0.0,0.0
1091956100,454905,1644543929580142975,1,0.0,0.0,0.0,0.0,0.0,0.0,0.0,0.0,0.0,0.0,0.0,0.0,0.0,0.0,0.0,0.0,0.0,0.0,0.0,0.0,0.0,0.0,0.0,0.0,0.0,0.774725317955,-0.0686465501785,9.86548995972,0.0,0.0,0.0,0.0,0.0,0.0,0.0,0.0,0.0
1094035100,454906,1644543929582156897,1,0.0,0.0,0.0,0.0,0.0,0.0,0.0,0.0,0.0,0.0,0.0,0.0,0.0,0.0,0.0,0.0,0.0,0.0,0.0,0.0,0.0,0.0,0.0,0.0,0.0,0.804145276546,-0.0784531980753,9.94394302368,0.0,0.0,0.0,0.0,0.0,0.0,0.0,0.0,0.0
1096226900,454907,1644543929584168673,1,0.0,0.0,0.0,0.0,0.0,0.0,0.0,0.0,0.0,0.0,0.0,0.0,0.0,0.0,0.0,0.0,0.0,0.0,0.0,0.0,0.0,0.0,0.0,0.0,0.0,0.804145276546,-0.0784531980753,9.86548995972,0.0,0.0,0.0,0.0,0.0,0.0,0.0,0.0,0.0
1098385800,454908,1644543929586182594,1,0.0,0.0,0.0,0.0,0.0,0.0,0.0,0.0,0.0,0.0,0.0,0.0,0.0,0.0,0.0,0.0,0.0,0.0,0.0,0.0,0.0,0.0,0.0,0.0,0.0,0.764918684959,-0.0294199492782,9.91452312469,0.0,0.0,0.0,0.0,0.0,0.0,0.0,0.0,0.0
1100254400,454909,1644543929588196516,1,0.0,0.0,0.0,0.0,0.0,0.0,0.0,0.0,0.0,0.0,0.0,0.0,0.0,0.0,0.0,0.0,0.0,0.0,0.0,0.0,0.0,0.0,0.0,0.0,0.0,0.774725317955,-0.0294199492782,9.88510322571,0.0,0.0,0.0,0.0,0.0,0.0,0.0,0.0,0.0
1102155100,454910,1644543929590208530,1,0.0,0.0,0.0,0.0,0.0,0.0,0.0,0.0,0.0,0.0,0.0,0.0,0.0,0.0,0.0,0.0,0.0,0.0,0.0,0.0,0.0,0.0,0.0,0.0,0.0,0.774725317955,-0.0392265990376,9.91452312469,0.0,0.0,0.0,0.0,0.0,0.0,0.0,0.0,0.0
1104137900,454911,1644543929592222452,1,0.0,0.0,0.0,0.0,0.0,0.0,0.0,0.0,0.0,0.0,0.0,0.0,0.0,0.0,0.0,0.0,0.0,0.0,0.0,0.0,0.0,0.0,0.0,0.0,0.0,0.804145276546,-0.00980664975941,9.8949098587,0.0,0.0,0.0,0.0,0.0,0.0,0.0,0.0,0.0
1106136800,454912,1644543929594236374,1,0.0,0.0,0.0,0.0,0.0,0.0,0.0,0.0,0.0,0.0,0.0,0.0,0.0,0.0,0.0,0.0,0.0,0.0,0.0,0.0,0.0,0.0,0.0,0.0,0.0,0.813951909542,-0.00980664975941,9.88510322571,0.0,0.0,0.0,0.0,0.0,0.0,0.0,0.0,0.0
1108209700,454913,1644543929596248388,1,0.0,0.0,0.0,0.0,0.0,0.0,0.0,0.0,0.0,0.0,0.0,0.0,0.0,0.0,0.0,0.0,0.0,0.0,0.0,0.0,0.0,0.0,0.0,0.0,0.0,0.813951909542,-0.0392265990376,9.91452312469,0.0,0.0,0.0,0.0,0.0,0.0,0.0,0.0,0.0
1110264300,454914,1644543929598262310,1,0.0,0.0,0.0,0.0,0.0,0.0,0.0,0.0,0.0,0.0,0.0,0.0,0.0,0.0,0.0,0.0,0.0,0.0,0.0,0.0,0.0,0.0,0.0,0.0,0.0,0.764918684959,-0.0392265990376,9.88510322571,0.0,0.0,0.0,0.0,0.0,0.0,0.0,0.0,0.0
1112716800,454915,1644543929600274086,1,0.0,0.0,0.0,0.0,0.0,0.0,0.0,0.0,0.0,0.0,0.0,0.0,0.0,0.0,0.0,0.0,0.0,0.0,0.0,0.0,0.0,0.0,0.0,0.0,0.0,0.774725317955,-0.00980664975941,9.88510322571,0.0,0.0,0.0,0.0,0.0,0.0,0.0,0.0,0.0
1114195700,454916,1644543929602288008,1,0.0,0.0,0.0,0.0,0.0,0.0,0.0,0.0,0.0,0.0,0.0,0.0,0.0,0.0,0.0,0.0,0.0,0.0,0.0,0.0,0.0,0.0,0.0,0.0,0.0,0.764918684959,0.00980664975941,9.86548995972,0.0,0.0,0.0,0.0,0.0,0.0,0.0,0.0,0.0
1116149100,454917,1644543929604301691,1,0.0,0.0,0.0,0.0,0.0,0.0,0.0,0.0,0.0,0.0,0.0,0.0,0.0,0.0,0.0,0.0,0.0,0.0,0.0,0.0,0.0,0.0,0.0,0.0,0.0,0.735498726368,-0.0294199492782,9.8949098587,0.0,0.0,0.0,0.0,0.0,0.0,0.0,0.0,0.0
1118306000,454918,1644543929606313705,1,0.0,0.0,0.0,0.0,0.0,0.0,0.0,0.0,0.0,0.0,0.0,0.0,0.0,0.0,0.0,0.0,0.0,0.0,0.0,0.0,0.0,0.0,0.0,0.0,0.0,0.774725317955,0.0,9.91452312469,0.0,0.0,0.0,0.0,0.0,0.0,0.0,0.0,0.0
1120215200,454919,1644543929608327627,1,0.0,0.0,0.0,0.0,0.0,0.0,0.0,0.0,0.0,0.0,0.0,0.0,0.0,0.0,0.0,0.0,0.0,0.0,0.0,0.0,0.0,0.0,0.0,0.0,0.0,0.764918684959,-0.0686465501785,9.8949098587,0.0,0.0,0.0,0.0,0.0,0.0,0.0,0.0,0.0
1122254300,454920,1644543929610339642,1,0.0,0.0,0.0,0.0,0.0,0.0,0.0,0.0,0.0,0.0,0.0,0.0,0.0,0.0,0.0,0.0,0.0,0.0,0.0,0.0,0.0,0.0,0.0,0.0,0.0,0.774725317955,0.00980664975941,9.88510322571,0.0,0.0,0.0,0.0,0.0,0.0,0.0,0.0,0.0
1124178300,454921,1644543929612353563,1,0.0,0.0,0.0,0.0,0.0,0.0,0.0,0.0,0.0,0.0,0.0,0.0,0.0,0.0,0.0,0.0,0.0,0.0,0.0,0.0,0.0,0.0,0.0,0.0,0.0,0.804145276546,-0.00980664975941,9.96355628967,0.0,0.0,0.0,0.0,0.0,0.0,0.0,0.0,0.0
1126166700,454922,1644543929614367485,1,0.0,0.0,0.0,0.0,0.0,0.0,0.0,0.0,0.0,0.0,0.0,0.0,0.0,0.0,0.0,0.0,0.0,0.0,0.0,0.0,0.0,0.0,0.0,0.0,0.0,0.774725317955,0.0,9.98316955566,0.0,0.0,0.0,0.0,0.0,0.0,0.0,0.0,0.0
1128147200,454923,1644543929616381407,1,0.0,0.0,0.0,0.0,0.0,0.0,0.0,0.0,0.0,0.0,0.0,0.0,0.0,0.0,0.0,0.0,0.0,0.0,0.0,0.0,0.0,0.0,0.0,0.0,0.0,0.872791826725,-0.00980664975941,9.96355628967,0.0,0.0,0.0,0.0,0.0,0.0,0.0,0.0,0.0
1130307700,454924,1644543929618393421,1,0.0,0.0,0.0,0.0,0.0,0.0,0.0,0.0,0.0,0.0,0.0,0.0,0.0,0.0,0.0,0.0,0.0,0.0,0.0,0.0,0.0,0.0,0.0,0.0,0.0,0.872791826725,0.0294199492782,9.98316955566,0.0,0.0,0.0,0.0,0.0,0.0,0.0,0.0,0.0
1132162300,454925,1644543929620404959,1,0.0,0.0,0.0,0.0,0.0,0.0,0.0,0.0,0.0,0.0,0.0,0.0,0.0,0.0,0.0,0.0,0.0,0.0,0.0,0.0,0.0,0.0,0.0,0.0,0.0,0.882598459721,0.0784531980753,9.91452312469,0.0,0.0,0.0,0.0,0.0,0.0,0.0,0.0,0.0
1134156900,454926,1644543929622418880,1,0.0,0.0,0.0,0.0,0.0,0.0,0.0,0.0,0.0,0.0,0.0,0.0,0.0,0.0,0.0,0.0,0.0,0.0,0.0,0.0,0.0,0.0,0.0,0.0,0.0,0.882598459721,0.0784531980753,9.96355628967,0.0,0.0,0.0,0.0,0.0,0.0,0.0,0.0,0.0
1136136200,454927,1644543929624430895,1,0.0,0.0,0.0,0.0,0.0,0.0,0.0,0.0,0.0,0.0,0.0,0.0,0.0,0.0,0.0,0.0,0.0,0.0,0.0,0.0,0.0,0.0,0.0,0.0,0.0,0.872791826725,0.0784531980753,9.94394302368,0.0,0.0,0.0,0.0,0.0,0.0,0.0,0.0,0.0
1138137100,454928,1644543929626444817,1,0.0,0.0,0.0,0.0,0.0,0.0,0.0,0.0,0.0,0.0,0.0,0.0,0.0,0.0,0.0,0.0,0.0,0.0,0.0,0.0,0.0,0.0,0.0,0.0,0.0,0.882598459721,0.166713044047,9.94394302368,0.0,0.0,0.0,0.0,0.0,0.0,0.0,0.0,0.0
1140233000,454929,1644543929628456831,1,0.0,0.0,0.0,0.0,0.0,0.0,0.0,0.0,0.0,0.0,0.0,0.0,0.0,0.0,0.0,0.0,0.0,0.0,0.0,0.0,0.0,0.0,0.0,0.0,0.0,0.833565235138,0.166713044047,9.96355628967,0.0,0.0,0.0,0.0,0.0,0.0,0.0,0.0,0.0
1142252100,454930,1644543929630470753,1,0.0,0.0,0.0,0.0,0.0,0.0,0.0,0.0,0.0,0.0,0.0,0.0,0.0,0.0,0.0,0.0,0.0,0.0,0.0,0.0,0.0,0.0,0.0,0.0,0.0,0.833565235138,0.225552946329,9.99297618866,0.0,0.0,0.0,0.0,0.0,0.0,0.0,0.0,0.0
1144491100,454931,1644543929632484674,1,0.0,0.0,0.0,0.0,0.0,0.0,0.0,0.0,0.0,0.0,0.0,0.0,0.0,0.0,0.0,0.0,0.0,0.0,0.0,0.0,0.0,0.0,0.0,0.0,0.0,0.804145276546,0.176519691944,9.96355628967,0.0,0.0,0.0,0.0,0.0,0.0,0.0,0.0,0.0
1146175100,454932,1644543929634496689,1,0.0,0.0,0.0,0.0,0.0,0.0,0.0,0.0,0.0,0.0,0.0,0.0,0.0,0.0,0.0,0.0,0.0,0.0,0.0,0.0,0.0,0.0,0.0,0.0,0.0,0.735498726368,0.196132987738,9.8949098587,0.0,0.0,0.0,0.0,0.0,0.0,0.0,0.0,0.0
1148285600,454933,1644543929636510611,1,0.0,0.0,0.0,0.0,0.0,0.0,0.0,0.0,0.0,0.0,0.0,0.0,0.0,0.0,0.0,0.0,0.0,0.0,0.0,0.0,0.0,0.0,0.0,0.0,0.0,0.804145276546,0.245166242123,9.94394302368,0.0,0.0,0.0,0.0,0.0,0.0,0.0,0.0,0.0
1150177000,454934,1644543929638522148,1,0.0,0.0,0.0,0.0,0.0,0.0,0.0,0.0,0.0,0.0,0.0,0.0,0.0,0.0,0.0,0.0,0.0,0.0,0.0,0.0,0.0,0.0,0.0,0.0,0.0,0.804145276546,0.225552946329,9.91452312469,0.0,0.0,0.0,0.0,0.0,0.0,0.0,0.0,0.0
1152263400,454935,1644543929640536070,1,0.0,0.0,0.0,0.0,0.0,0.0,0.0,0.0,0.0,0.0,0.0,0.0,0.0,0.0,0.0,0.0,0.0,0.0,0.0,0.0,0.0,0.0,0.0,0.0,0.0,0.764918684959,0.264779537916,9.96355628967,0.0,0.0,0.0,0.0,0.0,0.0,0.0,0.0,0.0
1154331900,454936,1644543929642549992,1,0.0,0.0,0.0,0.0,0.0,0.0,0.0,0.0,0.0,0.0,0.0,0.0,0.0,0.0,0.0,0.0,0.0,0.0,0.0,0.0,0.0,0.0,0.0,0.0,0.0,0.804145276546,0.196132987738,9.98316955566,0.0,0.0,0.0,0.0,0.0,0.0,0.0,0.0,0.0
1156159400,454937,1644543929644562006,1,0.0,0.0,0.0,0.0,0.0,0.0,0.0,0.0,0.0,0.0,0.0,0.0,0.0,0.0,0.0,0.0,0.0,0.0,0.0,0.0,0.0,0.0,0.0,0.0,0.0,0.813951909542,0.225552946329,9.96355628967,0.0,0.0,0.0,0.0,0.0,0.0,0.0,0.0,0.0
1158695300,454938,1644543929646575928,1,0.0,0.0,0.0,0.0,0.0,0.0,0.0,0.0,0.0,0.0,0.0,0.0,0.0,0.0,0.0,0.0,0.0,0.0,0.0,0.0,0.0,0.0,0.0,0.0,0.0,0.833565235138,0.264779537916,9.91452312469,0.0,0.0,0.0,0.0,0.0,0.0,0.0,0.0,0.0
1160479500,454939,1644543929648589849,1,0.0,0.0,0.0,0.0,0.0,0.0,0.0,0.0,0.0,0.0,0.0,0.0,0.0,0.0,0.0,0.0,0.0,0.0,0.0,0.0,0.0,0.0,0.0,0.0,0.0,0.833565235138,0.225552946329,9.96355628967,0.0,0.0,0.0,0.0,0.0,0.0,0.0,0.0,0.0
1162155800,454940,1644543929650601864,1,0.0,0.0,0.0,0.0,0.0,0.0,0.0,0.0,0.0,0.0,0.0,0.0,0.0,0.0,0.0,0.0,0.0,0.0,0.0,0.0,0.0,0.0,0.0,0.0,0.0,0.813951909542,0.245166242123,9.98316955566,0.0,0.0,0.0,0.0,0.0,0.0,0.0,0.0,0.0
1164379700,454941,1644543929652615786,1,0.0,0.0,0.0,0.0,0.0,0.0,0.0,0.0,0.0,0.0,0.0,0.0,0.0,0.0,0.0,0.0,0.0,0.0,0.0,0.0,0.0,0.0,0.0,0.0,0.0,0.833565235138,0.274586200714,9.94394302368,0.0,0.0,0.0,0.0,0.0,0.0,0.0,0.0,0.0
1166360300,454942,1644543929654629707,1,0.0,0.0,0.0,0.0,0.0,0.0,0.0,0.0,0.0,0.0,0.0,0.0,0.0,0.0,0.0,0.0,0.0,0.0,0.0,0.0,0.0,0.0,0.0,0.0,0.0,0.843371868134,0.245166242123,10.0125894547,0.0,0.0,0.0,0.0,0.0,0.0,0.0,0.0,0.0
1168350400,454943,1644543929656641245,1,0.0,0.0,0.0,0.0,0.0,0.0,0.0,0.0,0.0,0.0,0.0,0.0,0.0,0.0,0.0,0.0,0.0,0.0,0.0,0.0,0.0,0.0,0.0,0.0,0.0,0.843371868134,0.176519691944,9.8949098587,0.0,0.0,0.0,0.0,0.0,0.0,0.0,0.0,0.0
1170398200,454944,1644543929658655167,1,0.0,0.0,0.0,0.0,0.0,0.0,0.0,0.0,0.0,0.0,0.0,0.0,0.0,0.0,0.0,0.0,0.0,0.0,0.0,0.0,0.0,0.0,0.0,0.0,0.0,0.813951909542,0.176519691944,9.94394302368,0.0,0.0,0.0,0.0,0.0,0.0,0.0,0.0,0.0
1172502700,454945,1644543929660669088,1,0.0,0.0,0.0,0.0,0.0,0.0,0.0,0.0,0.0,0.0,0.0,0.0,0.0,0.0,0.0,0.0,0.0,0.0,0.0,0.0,0.0,0.0,0.0,0.0,0.0,0.813951909542,0.176519691944,9.94394302368,0.0,0.0,0.0,0.0,0.0,0.0,0.0,0.0,0.0
1174737100,454946,1644543929662681103,1,0.0,0.0,0.0,0.0,0.0,0.0,0.0,0.0,0.0,0.0,0.0,0.0,0.0,0.0,0.0,0.0,0.0,0.0,0.0,0.0,0.0,0.0,0.0,0.0,0.0,0.813951909542,0.196132987738,9.96355628967,0.0,0.0,0.0,0.0,0.0,0.0,0.0,0.0,0.0
1176479900,454947,1644543929664695024,1,0.0,0.0,0.0,0.0,0.0,0.0,0.0,0.0,0.0,0.0,0.0,0.0,0.0,0.0,0.0,0.0,0.0,0.0,0.0,0.0,0.0,0.0,0.0,0.0,0.0,0.774725317955,0.12748645246,9.96355628967,0.0,0.0,0.0,0.0,0.0,0.0,0.0,0.0,0.0
1178365000,454948,1644543929666708946,1,0.0,0.0,0.0,0.0,0.0,0.0,0.0,0.0,0.0,0.0,0.0,0.0,0.0,0.0,0.0,0.0,0.0,0.0,0.0,0.0,0.0,0.0,0.0,0.0,0.0,0.804145276546,0.12748645246,9.96355628967,0.0,0.0,0.0,0.0,0.0,0.0,0.0,0.0,0.0
1180758800,454949,1644543929668720961,1,0.0,0.0,0.0,0.0,0.0,0.0,0.0,0.0,0.0,0.0,0.0,0.0,0.0,0.0,0.0,0.0,0.0,0.0,0.0,0.0,0.0,0.0,0.0,0.0,0.0,0.774725317955,0.166713044047,9.98316955566,0.0,0.0,0.0,0.0,0.0,0.0,0.0,0.0,0.0
1182453200,454950,1644543929670734882,1,0.0,0.0,0.0,0.0,0.0,0.0,0.0,0.0,0.0,0.0,0.0,0.0,0.0,0.0,0.0,0.0,0.0,0.0,0.0,0.0,0.0,0.0,0.0,0.0,0.0,0.813951909542,0.0980664938688,9.94394302368,0.0,0.0,0.0,0.0,0.0,0.0,0.0,0.0,0.0
1184518900,454951,1644543929672748804,1,0.0,0.0,0.0,0.0,0.0,0.0,0.0,0.0,0.0,0.0,0.0,0.0,0.0,0.0,0.0,0.0,0.0,0.0,0.0,0.0,0.0,0.0,0.0,0.0,0.0,0.843371868134,0.0686465501785,9.91452312469,0.0,0.0,0.0,0.0,0.0,0.0,0.0,0.0,0.0
1186416900,454952,1644543929674760580,1,0.0,0.0,0.0,0.0,0.0,0.0,0.0,0.0,0.0,0.0,0.0,0.0,0.0,0.0,0.0,0.0,0.0,0.0,0.0,0.0,0.0,0.0,0.0,0.0,0.0,0.804145276546,0.0784531980753,9.96355628967,0.0,0.0,0.0,0.0,0.0,0.0,0.0,0.0,0.0
1188403700,454953,1644543929676774502,1,0.0,0.0,0.0,0.0,0.0,0.0,0.0,0.0,0.0,0.0,0.0,0.0,0.0,0.0,0.0,0.0,0.0,0.0,0.0,0.0,0.0,0.0,0.0,0.0,0.0,0.813951909542,0.00980664975941,9.98316955566,0.0,0.0,0.0,0.0,0.0,0.0,0.0,0.0,0.0
1190612200,454954,1644543929678788424,1,0.0,0.0,0.0,0.0,0.0,0.0,0.0,0.0,0.0,0.0,0.0,0.0,0.0,0.0,0.0,0.0,0.0,0.0,0.0,0.0,0.0,0.0,0.0,0.0,0.0,0.774725317955,0.0686465501785,9.88510322571,0.0,0.0,0.0,0.0,0.0,0.0,0.0,0.0,0.0
1192427500,454955,1644543929680802345,1,0.0,0.0,0.0,0.0,0.0,0.0,0.0,0.0,0.0,0.0,0.0,0.0,0.0,0.0,0.0,0.0,0.0,0.0,0.0,0.0,0.0,0.0,0.0,0.0,0.0,0.764918684959,0.0,9.96355628967,0.0,0.0,0.0,0.0,0.0,0.0,0.0,0.0,0.0
1194357000,454956,1644543929682814121,1,0.0,0.0,0.0,0.0,0.0,0.0,0.0,0.0,0.0,0.0,0.0,0.0,0.0,0.0,0.0,0.0,0.0,0.0,0.0,0.0,0.0,0.0,0.0,0.0,0.0,0.813951909542,0.00980664975941,9.96355628967,0.0,0.0,0.0,0.0,0.0,0.0,0.0,0.0,0.0
1196354900,454957,1644543929684830189,1,0.0,0.0,0.0,0.0,0.0,0.0,0.0,0.0,0.0,0.0,0.0,0.0,0.0,0.0,0.0,0.0,0.0,0.0,0.0,0.0,0.0,0.0,0.0,0.0,0.0,0.833565235138,-0.0294199492782,9.96355628967,0.0,0.0,0.0,0.0,0.0,0.0,0.0,0.0,0.0
1198660000,454958,1644543929686841965,1,0.0,0.0,0.0,0.0,0.0,0.0,0.0,0.0,0.0,0.0,0.0,0.0,0.0,0.0,0.0,0.0,0.0,0.0,0.0,0.0,0.0,0.0,0.0,0.0,0.0,0.833565235138,-0.00980664975941,9.91452312469,0.0,0.0,0.0,0.0,0.0,0.0,0.0,0.0,0.0
1200732200,454959,1644543929688855886,1,0.0,0.0,0.0,0.0,0.0,0.0,0.0,0.0,0.0,0.0,0.0,0.0,0.0,0.0,0.0,0.0,0.0,0.0,0.0,0.0,0.0,0.0,0.0,0.0,0.0,0.872791826725,-0.0294199492782,9.94394302368,0.0,0.0,0.0,0.0,0.0,0.0,0.0,0.0,0.0
1202640900,454960,1644543929690867901,1,0.0,0.0,0.0,0.0,0.0,0.0,0.0,0.0,0.0,0.0,0.0,0.0,0.0,0.0,0.0,0.0,0.0,0.0,0.0,0.0,0.0,0.0,0.0,0.0,0.0,0.774725317955,-0.00980664975941,9.94394302368,0.0,0.0,0.0,0.0,0.0,0.0,0.0,0.0,0.0
1204874300,454961,1644543929692881584,1,0.0,0.0,0.0,0.0,0.0,0.0,0.0,0.0,0.0,0.0,0.0,0.0,0.0,0.0,0.0,0.0,0.0,0.0,0.0,0.0,0.0,0.0,0.0,0.0,0.0,0.843371868134,-0.0294199492782,9.94394302368,0.0,0.0,0.0,0.0,0.0,0.0,0.0,0.0,0.0
1206687800,454962,1644543929694893599,1,0.0,0.0,0.0,0.0,0.0,0.0,0.0,0.0,0.0,0.0,0.0,0.0,0.0,0.0,0.0,0.0,0.0,0.0,0.0,0.0,0.0,0.0,0.0,0.0,0.0,0.833565235138,-0.00980664975941,9.8949098587,0.0,0.0,0.0,0.0,0.0,0.0,0.0,0.0,0.0
1208896400,454963,1644543929696907520,1,0.0,0.0,0.0,0.0,0.0,0.0,0.0,0.0,0.0,0.0,0.0,0.0,0.0,0.0,0.0,0.0,0.0,0.0,0.0,0.0,0.0,0.0,0.0,0.0,0.0,0.804145276546,-0.00980664975941,9.86548995972,0.0,0.0,0.0,0.0,0.0,0.0,0.0,0.0,0.0
1210941800,454964,1644543929698921442,1,0.0,0.0,0.0,0.0,0.0,0.0,0.0,0.0,0.0,0.0,0.0,0.0,0.0,0.0,0.0,0.0,0.0,0.0,0.0,0.0,0.0,0.0,0.0,0.0,0.0,0.774725317955,-0.0686465501785,9.98316955566,0.0,0.0,0.0,0.0,0.0,0.0,0.0,0.0,0.0
1213061800,454965,1644543929700933456,1,0.0,0.0,0.0,0.0,0.0,0.0,0.0,0.0,0.0,0.0,0.0,0.0,0.0,0.0,0.0,0.0,0.0,0.0,0.0,0.0,0.0,0.0,0.0,0.0,0.0,0.774725317955,-0.0294199492782,9.91452312469,0.0,0.0,0.0,0.0,0.0,0.0,0.0,0.0,0.0
1215202200,454966,1644543929702947378,1,0.0,0.0,0.0,0.0,0.0,0.0,0.0,0.0,0.0,0.0,0.0,0.0,0.0,0.0,0.0,0.0,0.0,0.0,0.0,0.0,0.0,0.0,0.0,0.0,0.0,0.735498726368,0.0,9.88510322571,0.0,0.0,0.0,0.0,0.0,0.0,0.0,0.0,0.0
1216900000,454967,1644543929704961300,1,0.0,0.0,0.0,0.0,0.0,0.0,0.0,0.0,0.0,0.0,0.0,0.0,0.0,0.0,0.0,0.0,0.0,0.0,0.0,0.0,0.0,0.0,0.0,0.0,0.0,0.735498726368,-0.0294199492782,9.96355628967,0.0,0.0,0.0,0.0,0.0,0.0,0.0,0.0,0.0
1218958800,454968,1644543929706972837,1,0.0,0.0,0.0,0.0,0.0,0.0,0.0,0.0,0.0,0.0,0.0,0.0,0.0,0.0,0.0,0.0,0.0,0.0,0.0,0.0,0.0,0.0,0.0,0.0,0.0,0.764918684959,-0.0294199492782,9.91452312469,0.0,0.0,0.0,0.0,0.0,0.0,0.0,0.0,0.0
1221090900,454969,1644543929708986759,1,0.0,0.0,0.0,0.0,0.0,0.0,0.0,0.0,0.0,0.0,0.0,0.0,0.0,0.0,0.0,0.0,0.0,0.0,0.0,0.0,0.0,0.0,0.0,0.0,0.0,0.774725317955,-0.0294199492782,9.88510322571,0.0,0.0,0.0,0.0,0.0,0.0,0.0,0.0,0.0
1222911000,454970,1644543929711000681,1,0.0,0.0,0.0,0.0,0.0,0.0,0.0,0.0,0.0,0.0,0.0,0.0,0.0,0.0,0.0,0.0,0.0,0.0,0.0,0.0,0.0,0.0,0.0,0.0,0.0,0.774725317955,-0.0784531980753,9.8949098587,0.0,0.0,0.0,0.0,0.0,0.0,0.0,0.0,0.0
1224887500,454971,1644543929713014603,1,0.0,0.0,0.0,0.0,0.0,0.0,0.0,0.0,0.0,0.0,0.0,0.0,0.0,0.0,0.0,0.0,0.0,0.0,0.0,0.0,0.0,0.0,0.0,0.0,0.0,0.804145276546,-0.0392265990376,9.88510322571,0.0,0.0,0.0,0.0,0.0,0.0,0.0,0.0,0.0
1226888400,454972,1644543929715026617,1,0.0,0.0,0.0,0.0,0.0,0.0,0.0,0.0,0.0,0.0,0.0,0.0,0.0,0.0,0.0,0.0,0.0,0.0,0.0,0.0,0.0,0.0,0.0,0.0,0.0,0.813951909542,-0.0294199492782,9.91452312469,0.0,0.0,0.0,0.0,0.0,0.0,0.0,0.0,0.0
1228895200,454973,1644543929717040539,1,0.0,0.0,0.0,0.0,0.0,0.0,0.0,0.0,0.0,0.0,0.0,0.0,0.0,0.0,0.0,0.0,0.0,0.0,0.0,0.0,0.0,0.0,0.0,0.0,0.0,0.774725317955,-0.0686465501785,9.86548995972,0.0,0.0,0.0,0.0,0.0,0.0,0.0,0.0,0.0
1231231200,454974,1644543929719054461,1,0.0,0.0,0.0,0.0,0.0,0.0,0.0,0.0,0.0,0.0,0.0,0.0,0.0,0.0,0.0,0.0,0.0,0.0,0.0,0.0,0.0,0.0,0.0,0.0,0.0,0.833565235138,-0.0686465501785,9.8949098587,0.0,0.0,0.0,0.0,0.0,0.0,0.0,0.0,0.0
1232963200,454975,1644543929721068382,1,0.0,0.0,0.0,0.0,0.0,0.0,0.0,0.0,0.0,0.0,0.0,0.0,0.0,0.0,0.0,0.0,0.0,0.0,0.0,0.0,0.0,0.0,0.0,0.0,0.0,0.774725317955,-0.0392265990376,9.88510322571,0.0,0.0,0.0,0.0,0.0,0.0,0.0,0.0,0.0
1235231300,454976,1644543929723080397,1,0.0,0.0,0.0,0.0,0.0,0.0,0.0,0.0,0.0,0.0,0.0,0.0,0.0,0.0,0.0,0.0,0.0,0.0,0.0,0.0,0.0,0.0,0.0,0.0,0.0,0.804145276546,-0.0686465501785,9.91452312469,0.0,0.0,0.0,0.0,0.0,0.0,0.0,0.0,0.0
1237006500,454977,1644543929725094318,1,0.0,0.0,0.0,0.0,0.0,0.0,0.0,0.0,0.0,0.0,0.0,0.0,0.0,0.0,0.0,0.0,0.0,0.0,0.0,0.0,0.0,0.0,0.0,0.0,0.0,0.833565235138,-0.0784531980753,9.91452312469,0.0,0.0,0.0,0.0,0.0,0.0,0.0,0.0,0.0
1238897300,454978,1644543929727108002,1,0.0,0.0,0.0,0.0,0.0,0.0,0.0,0.0,0.0,0.0,0.0,0.0,0.0,0.0,0.0,0.0,0.0,0.0,0.0,0.0,0.0,0.0,0.0,0.0,0.0,0.774725317955,-0.0392265990376,9.94394302368,0.0,0.0,0.0,0.0,0.0,0.0,0.0,0.0,0.0
1240895500,454979,1644543929729121923,1,0.0,0.0,0.0,0.0,0.0,0.0,0.0,0.0,0.0,0.0,0.0,0.0,0.0,0.0,0.0,0.0,0.0,0.0,0.0,0.0,0.0,0.0,0.0,0.0,0.0,0.833565235138,-0.0686465501785,9.91452312469,0.0,0.0,0.0,0.0,0.0,0.0,0.0,0.0,0.0
1242882700,454980,1644543929731133699,1,0.0,0.0,0.0,0.0,0.0,0.0,0.0,0.0,0.0,0.0,0.0,0.0,0.0,0.0,0.0,0.0,0.0,0.0,0.0,0.0,0.0,0.0,0.0,0.0,0.0,0.774725317955,-0.0686465501785,9.88510322571,0.0,0.0,0.0,0.0,0.0,0.0,0.0,0.0,0.0
1244927300,454981,1644543929733147621,1,0.0,0.0,0.0,0.0,0.0,0.0,0.0,0.0,0.0,0.0,0.0,0.0,0.0,0.0,0.0,0.0,0.0,0.0,0.0,0.0,0.0,0.0,0.0,0.0,0.0,0.774725317955,-0.0784531980753,9.88510322571,0.0,0.0,0.0,0.0,0.0,0.0,0.0,0.0,0.0
1246978200,454982,1644543929735161543,1,0.0,0.0,0.0,0.0,0.0,0.0,0.0,0.0,0.0,0.0,0.0,0.0,0.0,0.0,0.0,0.0,0.0,0.0,0.0,0.0,0.0,0.0,0.0,0.0,0.0,0.804145276546,-0.0392265990376,9.8949098587,0.0,0.0,0.0,0.0,0.0,0.0,0.0,0.0,0.0
1249010100,454983,1644543929737173557,1,0.0,0.0,0.0,0.0,0.0,0.0,0.0,0.0,0.0,0.0,0.0,0.0,0.0,0.0,0.0,0.0,0.0,0.0,0.0,0.0,0.0,0.0,0.0,0.0,0.0,0.774725317955,-0.0392265990376,9.8949098587,0.0,0.0,0.0,0.0,0.0,0.0,0.0,0.0,0.0
1251023400,454984,1644543929739187479,1,0.0,0.0,0.0,0.0,0.0,0.0,0.0,0.0,0.0,0.0,0.0,0.0,0.0,0.0,0.0,0.0,0.0,0.0,0.0,0.0,0.0,0.0,0.0,0.0,0.0,0.804145276546,-0.0686465501785,9.88510322571,0.0,0.0,0.0,0.0,0.0,0.0,0.0,0.0,0.0
1253216900,454985,1644543929741201401,1,0.0,0.0,0.0,0.0,0.0,0.0,0.0,0.0,0.0,0.0,0.0,0.0,0.0,0.0,0.0,0.0,0.0,0.0,0.0,0.0,0.0,0.0,0.0,0.0,0.0,0.804145276546,-0.0392265990376,9.88510322571,0.0,0.0,0.0,0.0,0.0,0.0,0.0,0.0,0.0
1254900400,454986,1644543929743213177,1,0.0,0.0,0.0,0.0,0.0,0.0,0.0,0.0,0.0,0.0,0.0,0.0,0.0,0.0,0.0,0.0,0.0,0.0,0.0,0.0,0.0,0.0,0.0,0.0,0.0,0.833565235138,-0.0686465501785,9.94394302368,0.0,0.0,0.0,0.0,0.0,0.0,0.0,0.0,0.0
1256893200,454987,1644543929745227098,1,0.0,0.0,0.0,0.0,0.0,0.0,0.0,0.0,0.0,0.0,0.0,0.0,0.0,0.0,0.0,0.0,0.0,0.0,0.0,0.0,0.0,0.0,0.0,0.0,0.0,0.725692093372,-0.0294199492782,9.88510322571,0.0,0.0,0.0,0.0,0.0,0.0,0.0,0.0,0.0
1258914500,454988,1644543929747241020,1,0.0,0.0,0.0,0.0,0.0,0.0,0.0,0.0,0.0,0.0,0.0,0.0,0.0,0.0,0.0,0.0,0.0,0.0,0.0,0.0,0.0,0.0,0.0,0.0,0.0,0.764918684959,-0.0294199492782,9.83607006073,0.0,0.0,0.0,0.0,0.0,0.0,0.0,0.0,0.0
1261052000,454989,1644543929749253035,1,0.0,0.0,0.0,0.0,0.0,0.0,0.0,0.0,0.0,0.0,0.0,0.0,0.0,0.0,0.0,0.0,0.0,0.0,0.0,0.0,0.0,0.0,0.0,0.0,0.0,0.843371868134,-0.0686465501785,9.91452312469,0.0,0.0,0.0,0.0,0.0,0.0,0.0,0.0,0.0
1263007600,454990,1644543929751266956,1,0.0,0.0,0.0,0.0,0.0,0.0,0.0,0.0,0.0,0.0,0.0,0.0,0.0,0.0,0.0,0.0,0.0,0.0,0.0,0.0,0.0,0.0,0.0,0.0,0.0,0.804145276546,-0.0392265990376,9.91452312469,0.0,0.0,0.0,0.0,0.0,0.0,0.0,0.0,0.0
1264932100,454991,1644543929753278732,1,0.0,0.0,0.0,0.0,0.0,0.0,0.0,0.0,0.0,0.0,0.0,0.0,0.0,0.0,0.0,0.0,0.0,0.0,0.0,0.0,0.0,0.0,0.0,0.0,0.0,0.764918684959,0.0,9.88510322571,0.0,0.0,0.0,0.0,0.0,0.0,0.0,0.0,0.0
1266968200,454992,1644543929755292654,1,0.0,0.0,0.0,0.0,0.0,0.0,0.0,0.0,0.0,0.0,0.0,0.0,0.0,0.0,0.0,0.0,0.0,0.0,0.0,0.0,0.0,0.0,0.0,0.0,0.0,0.774725317955,0.0,9.8949098587,0.0,0.0,0.0,0.0,0.0,0.0,0.0,0.0,0.0
1268944600,454993,1644543929757304430,1,0.0,0.0,0.0,0.0,0.0,0.0,0.0,0.0,0.0,0.0,0.0,0.0,0.0,0.0,0.0,0.0,0.0,0.0,0.0,0.0,0.0,0.0,0.0,0.0,0.0,0.813951909542,-0.00980664975941,9.8949098587,0.0,0.0,0.0,0.0,0.0,0.0,0.0,0.0,0.0
