,field.header.stamp,field.linear_acceleration.x,field.linear_acceleration.y,field.linear_acceleration.z,type,field.angular_velocity.x,field.angular_velocity.y,field.angular_velocity.z
0,1644543061744060278,0.137293100357,-9.66935634613,-0.529559075832,acc,,,
1,1644543061744310617,,,,gyr,0.0383972451091,-0.00174532923847,0.0279252678156
2,1644543061744813204,,,,gyr,-0.0279252678156,-0.0069813169539,0.00174532923847
3,1644543061745316029,,,,gyr,0.0209439508617,-0.0593411922455,-0.0506145469844
4,1644543061745864630,,,,gyr,-0.0680678412318,0.0383972451091,0.129154369235
5,1644543061746076822,0.137293100357,-9.62032318115,-0.509945809841,acc,,,
6,1644543061746319294,,,,gyr,-0.0104719754308,-0.0349065847695,-0.0645771846175
7,1644543061746819973,,,,gyr,-0.0680678412318,0.111701071262,-0.0104719754308
8,1644543061747322798,,,,gyr,0.0209439508617,-0.0872664600611,0.0104719754308
9,1644543061747825384,,,,gyr,0.0750491544604,-0.0296705961227,0.0383972451091
10,1644543061748093843,0.0784531980753,-9.57129001617,-0.509945809841,acc,,,
11,1644543061748373985,,,,gyr,-0.0558505356312,0.0104719754308,-0.0471238903701
12,1644543061748828650,,,,gyr,0.00523598771542,0.0139626339078,0.0
13,1644543061749329329,,,,gyr,-0.00523598771542,0.0104719754308,0.0977384373546
14,1644543061749831915,,,,gyr,0.0139626339078,-0.0715584978461,-0.130899697542
15,1644543061750110388,0.0686465501785,-9.58109664917,-0.490332484245,acc,,,
16,1644543061750334740,,,,gyr,0.0261799395084,0.104719758034,-0.106465086341
17,1644543061750883579,,,,gyr,-0.0750491544604,-0.069813169539,0.174532920122
18,1644543061752125263,0.0784531980753,-9.61051654816,-0.549172401428,acc,,,
19,1644543061754141808,0.0392265990376,-9.57129001617,-0.490332484245,acc,,,
20,1644543061756158590,0.0686465501785,-9.61051654816,-0.509945809841,acc,,,
21,1644543061758175373,0.0392265990376,-9.57129001617,-0.598205626011,acc,,,
22,1644543061760192156,0.0980664938688,-9.57129001617,-0.470719188452,acc,,,
23,1644543061762208700,0.0686465501785,-9.58109664917,-0.490332484245,acc,,,
24,1644543061764225483,0.0686465501785,-9.57129001617,-0.470719188452,acc,,,
25,1644543061766240120,0.0392265990376,-9.53206348419,-0.549172401428,acc,,,
26,1644543061768257141,0.0686465501785,-9.56148338318,-0.549172401428,acc,,,
27,1644543061770273685,0.0392265990376,-9.56148338318,-0.549172401428,acc,,,
28,1644543061772290468,0.0686465501785,-9.58109664917,-0.451105892658,acc,,,
29,1644543061773468018,,,,gyr,-0.0174532923847,0.0610865242779,0.0296705961227
30,1644543061774307013,0.0294199492782,-9.57129001617,-0.57859236002,acc,,,
31,1644543061774423361,,,,gyr,0.0191986225545,-0.0418879017234,-0.0785398185253
32,1644543062534259796,,,,gyr,-0.0296705961227,-0.0209439508617,0.00523598771542
33,1644543062534576178,0.196132987738,-9.5222568512,-0.470719188452,acc,,,
34,1644543062534762383,,,,gyr,0.0418879017234,0.0383972451091,0.00174532923847
35,1644543062535265207,,,,gyr,-0.0383972451091,-0.0680678412318,0.0436332300305
36,1644543062536316395,,,,gyr,-0.0296705961227,0.0750491544604,-0.0349065847695
37,1644543062536592722,0.343232750893,-9.58109664917,-0.421685934067,acc,,,
38,1644543062537271738,,,,gyr,-0.0209439508617,0.0785398185253,-0.0069813169539
39,1644543062537774324,,,,gyr,0.123918376863,-0.102974422276,-0.0139626339078
40,1644543062538275242,,,,gyr,-0.141371667385,0.0872664600611,0.0785398185253
41,1644543062538607597,0.00980664975941,-9.66935634613,-0.57859236002,acc,,,
42,1644543062538825989,,,,gyr,0.069813169539,-0.0750491544604,-0.0872664600611
43,1644543062539278507,,,,gyr,0.00349065847695,0.0471238903701,0.0959931090474
44,1644543062539781332,,,,gyr,-0.0349065847695,0.00174532923847,-0.0767944902182
45,1644543062540283918,,,,gyr,-0.0383972451091,-0.0471238903701,0.0593411922455
46,1644543062540624380,-0.0294199492782,-9.57129001617,-0.509945809841,acc,,,
47,1644543062540784359,,,,gyr,0.00349065847695,0.0855211317539,0.0383972451091
48,1644543062541335106,,,,gyr,0.0802851468325,-0.0645771846175,-0.0645771846175
49,1644543062541787863,,,,gyr,-0.150098308921,0.0436332300305,0.0191986225545
50,1644543062542643070,0.166713044047,-9.58109664917,-0.490332484245,acc,,,
51,1644543062544659615,0.274586200714,-9.66935634613,-0.421685934067,acc,,,
52,1644543062545302629,,,,gyr,0.0226892791688,-0.0069813169539,-0.0802851468325
53,1644543062546676397,0.0686465501785,-9.57129001617,-0.490332484245,acc,,,
54,1644543062547309399,,,,gyr,0.0,0.0314159244299,0.0523598790169
55,1644543062547811985,,,,gyr,-0.0226892791688,-0.0750491544604,0.0296705961227
56,1644543062548312664,,,,gyr,0.0925024524331,-0.0436332300305,0.101229093969
57,1644543062548691273,-0.0686465501785,-9.5222568512,-0.490332484245,acc,,,
58,1644543062548861504,,,,gyr,-0.0383972451091,0.0645771846175,-0.153588980436
59,1644543062549316168,,,,gyr,0.0209439508617,-0.0069813169539,0.0890117883682
60,1644543062549818754,,,,gyr,-0.0558505356312,0.0104719754308,-0.0471238903701
61,1644543062550321579,,,,gyr,-0.0209439508617,-0.0226892791688,-0.0209439508617
62,1644543062550709963,0.166713044047,-9.62032318115,-0.490332484245,acc,,,
63,1644543062550822258,,,,gyr,0.0139626339078,0.0104719754308,0.0872664600611
64,1644543062551372766,,,,gyr,0.0104719754308,-0.0383972451091,-0.0558505356312
65,1644543062551825523,,,,gyr,0.00523598771542,0.069813169539,0.0436332300305
66,1644543062552328110,,,,gyr,-0.0645771846175,-0.0750491544604,-0.0349065847695
67,1644543062552724838,0.166713044047,-9.57129001617,-0.509945809841,acc,,,
68,1644543062552830696,,,,gyr,0.0523598790169,0.0593411922455,0.0139626339078
69,1644543062553331614,,,,gyr,-0.0139626339078,-0.00523598771542,-0.0104719754308
70,1644543062553880453,,,,gyr,-0.0715584978461,-0.0558505356312,-0.0104719754308
71,1644543062554334879,,,,gyr,0.0523598790169,0.00872664619237,0.0296705961227
72,1644543062554741383,0.0392265990376,-9.57129001617,-0.470719188452,acc,,,
73,1644543062554837704,,,,gyr,-0.0191986225545,-0.00174532923847,0.0226892791688
74,1644543062555340290,,,,gyr,0.0436332300305,0.0523598790169,-0.0785398185253
75,1644543062555840969,,,,gyr,0.0,0.0069813169539,0.136135682464
76,1644543062556389570,,,,gyr,-0.0191986225545,-0.0436332300305,-0.0558505356312
77,1644543062556758404,0.00980664975941,-9.61051654816,-0.470719188452,acc,,,
78,1644543062556844234,,,,gyr,-0.0139626339078,0.0296705961227,-0.0750491544604
79,1644543062557346821,,,,gyr,-0.0296705961227,-0.0523598790169,0.0942477807403
80,1644543062557847738,,,,gyr,-0.0069813169539,0.0872664600611,-0.0471238903701
81,1644543062558350325,,,,gyr,0.0104719754308,-0.0314159244299,0.0436332300305
82,1644543062558774948,0.12748645246,-9.64974308014,-0.509945809841,acc,,,
83,1644543062558899164,,,,gyr,0.0104719754308,-0.0558505356312,0.0
84,1644543062559353828,,,,gyr,-0.0104719754308,0.0314159244299,-0.0349065847695
85,1644543062559856415,,,,gyr,-0.0104719754308,-0.0436332300305,0.0
86,1644543062560359240,,,,gyr,0.00872664619237,0.00523598771542,0.0418879017234
87,1644543062560791731,0.137293100357,-9.58109664917,-0.598205626011,acc,,,
88,1644543062560859919,,,,gyr,-0.0104719754308,0.0593411922455,-0.069813169539
89,1644543062561408520,,,,gyr,0.0174532923847,-0.0523598790169,0.0104719754308
90,1644543062561863184,,,,gyr,-0.0296705961227,0.0209439508617,0.0209439508617
91,1644543062562366009,,,,gyr,-0.0226892791688,-0.0069813169539,0.0191986225545
92,1644543062562808275,0.0784531980753,-9.61051654816,-0.509945809841,acc,,,
93,1644543062562866449,,,,gyr,0.0139626339078,-0.0261799395084,-0.0209439508617
94,1644543062563369036,,,,gyr,-0.0471238903701,0.0418879017234,0.0296705961227
95,1644543062563917875,,,,gyr,-0.00174532923847,-0.0436332300305,0.0418879017234
96,1644543062564372540,,,,gyr,0.0314159244299,0.0349065847695,-0.0610865242779
97,1644543062564825296,0.0,-9.57129001617,-0.509945809841,acc,,,
98,1644543062564875126,,,,gyr,0.0139626339078,-0.0436332300305,-0.0296705961227
99,1644543062565376043,,,,gyr,-0.0104719754308,0.0139626339078,0.0750491544604
100,1644543062565878630,,,,gyr,-0.0104719754308,-0.0209439508617,0.0104719754308
101,1644543062566427469,,,,gyr,0.0296705961227,0.0558505356312,-0.00523598771542
102,1644543062566842079,0.0784531980753,-9.57129001617,-0.549172401428,acc,,,
103,1644543062566882133,,,,gyr,-0.0471238903701,-0.0349065847695,-0.0471238903701
104,1644543062567384720,,,,gyr,0.0139626339078,0.0296705961227,0.0925024524331
105,1644543062567885160,,,,gyr,0.0139626339078,-0.0436332300305,-0.137881010771
106,1644543062568387985,,,,gyr,-0.00174532923847,0.0,-0.0104719754308
107,1644543062568858624,0.12748645246,-9.66935634613,-0.509945809841,acc,,,
108,1644543062568936825,,,,gyr,-0.0610865242779,-0.0296705961227,0.0872664600611
109,1644543062569391251,,,,gyr,0.0436332300305,0.0436332300305,-0.0418879017234
110,1644543062569894075,,,,gyr,-0.0261799395084,-0.0436332300305,0.0296705961227
111,1644543062570394754,,,,gyr,0.0,0.0645771846175,-0.0471238903701
112,1644543062570875406,0.0392265990376,-9.61051654816,-0.509945809841,acc,,,
113,1644543062570897579,,,,gyr,0.00174532923847,0.00872664619237,-0.0645771846175
114,1644543062571446180,,,,gyr,-0.0174532923847,-0.0296705961227,0.179768905044
115,1644543062571900845,,,,gyr,0.0279252678156,-0.0610865242779,-0.120427720249
116,1644543062572403669,,,,gyr,-0.0523598790169,0.0872664600611,0.0418879017234
117,1644543062572892189,0.0294199492782,-9.57129001617,-0.549172401428,acc,,,
118,1644543062572904110,,,,gyr,0.0680678412318,-0.0226892791688,0.111701071262
119,1644543062573406696,,,,gyr,-0.0523598790169,-0.0436332300305,-0.185004904866
120,1644543062573955536,,,,gyr,0.00523598771542,0.0610865242779,0.106465086341
121,1644543062574410200,,,,gyr,-0.0209439508617,-0.0750491544604,-0.0680678412318
122,1644543062574910879,0.0784531980753,-9.57129001617,-0.509945809841,acc,,,
123,1644543062574912786,,,,gyr,-0.00174532923847,0.0925024524331,0.0383972451091
124,1644543062575413465,,,,gyr,0.0139626339078,-0.0471238903701,-0.0383972451091
125,1644543062575916290,,,,gyr,-0.0261799395084,0.00523598771542,-0.0750491544604
126,1644543062576465130,,,,gyr,0.0139626339078,0.00174532923847,0.174532920122
127,1644543062576919794,,,,gyr,-0.0383972451091,0.0349065847695,-0.150098308921
128,1644543062576927662,0.0980664938688,-9.61051654816,-0.558979034424,acc,,,
129,1644543062577422380,,,,gyr,0.00872664619237,-0.0750491544604,0.0471238903701
130,1644543062577923059,,,,gyr,0.0959931090474,0.0349065847695,0.0558505356312
131,1644543062578425884,,,,gyr,-0.157079637051,0.0349065847695,-0.0977384373546
132,1644543062578944445,0.0686465501785,-9.53206348419,-0.549172401428,acc,,,
133,1644543062578974247,,,,gyr,0.0349065847695,0.0,-0.0104719754308
134,1644543062579428911,,,,gyr,0.0349065847695,-0.0925024524331,0.167551606894
135,1644543062579931736,,,,gyr,-0.0942477807403,0.0925024524331,-0.139626339078
136,1644543062580432415,,,,gyr,0.0349065847695,-0.0139626339078,-0.00523598771542
137,1644543062580935001,,,,gyr,0.0436332300305,0.00174532923847,0.0767944902182
138,1644543062580961227,0.0980664938688,-9.57129001617,-0.549172401428,acc,,,
139,1644543062581483841,,,,gyr,-0.0680678412318,-0.0383972451091,-0.0680678412318
140,1644543062581938505,,,,gyr,0.0645771846175,-0.0209439508617,0.0
141,1644543062582441092,,,,gyr,-0.069813169539,0.0209439508617,0.0523598790169
142,1644543062582942009,,,,gyr,0.0349065847695,0.0139626339078,-0.0209439508617
143,1644543062582977772,0.137293100357,-9.61051654816,-0.558979034424,acc,,,
144,1644543062583444595,,,,gyr,-0.00523598771542,-0.0558505356312,-0.0261799395084
145,1644543062583993196,,,,gyr,0.0,0.00349065847695,0.0261799395084
146,1644543062584447861,,,,gyr,-0.0209439508617,0.0558505356312,0.0837758034468
147,1644543062584950447,,,,gyr,-0.0471238903701,-0.0436332300305,-0.127409040928
148,1644543062584994555,0.0784531980753,-9.56148338318,-0.509945809841,acc,,,
149,1644543062585451126,,,,gyr,0.0785398185253,0.0785398185253,0.0837758034468
150,1644543062585953951,,,,gyr,-0.0383972451091,-0.0645771846175,0.0209439508617
151,1644543062586502790,,,,gyr,-0.0314159244299,0.00174532923847,-0.179768905044
152,1644543062586957216,,,,gyr,-0.0209439508617,0.0383972451091,0.150098308921
153,1644543062587011337,0.0784531980753,-9.57129001617,-0.529559075832,acc,,,
154,1644543062587460041,,,,gyr,0.0349065847695,-0.0506145469844,-0.0645771846175
155,1644543062587960720,,,,gyr,0.0069813169539,0.00174532923847,0.00174532923847
156,1644543062588463306,,,,gyr,-0.0069813169539,0.0767944902182,0.0069813169539
157,1644543062589011908,,,,gyr,0.0209439508617,-0.144862323999,0.0104719754308
158,1644543062589028120,0.0784531980753,-9.64974308014,-0.509945809841,acc,,,
159,1644543062589466810,,,,gyr,0.0436332300305,0.0314159244299,-0.0558505356312
160,1644543062589969397,,,,gyr,-0.106465086341,0.0436332300305,0.104719758034
161,1644543062590470076,,,,gyr,0.0349065847695,-0.0104719754308,-0.0349065847695
162,1644543062590972662,,,,gyr,-0.00523598771542,-0.00349065847695,-0.0715584978461
163,1644543062591044903,0.0784531980753,-9.58109664917,-0.529559075832,acc,,,
164,1644543062591521502,,,,gyr,-0.0226892791688,-0.0349065847695,-0.0261799395084
165,1644543062591976166,,,,gyr,-0.0558505356312,0.0610865242779,0.0296705961227
166,1644543062592478752,,,,gyr,0.0785398185253,-0.0383972451091,0.0104719754308
167,1644543062592979431,,,,gyr,-0.0645771846175,0.0645771846175,0.0191986225545
168,1644543062593061447,0.0686465501785,-9.57129001617,-0.549172401428,acc,,,
169,1644543062593482256,,,,gyr,0.0436332300305,-0.101229093969,-0.0767944902182
170,1644543062594031096,,,,gyr,-0.0174532923847,0.069813169539,0.162315621972
171,1644543062594485521,,,,gyr,-0.0645771846175,-0.0069813169539,-0.167551606894
172,1644543062594988346,,,,gyr,0.0383972451091,-0.0925024524331,0.167551606894
173,1644543062595078468,0.12748645246,-9.64974308014,-0.549172401428,acc,,,
174,1644543062595488787,,,,gyr,0.0,0.0349065847695,-0.0523598790169
175,1644543062595991373,,,,gyr,-0.0174532923847,-0.00523598771542,-0.0785398185253
176,1644543062596540213,,,,gyr,0.0261799395084,-0.0750491544604,0.0139626339078
177,1644543062596994877,,,,gyr,0.0383972451091,0.0959931090474,0.0558505356312
178,1644543062597095013,0.0980664938688,-9.57129001617,-0.549172401428,acc,,,
179,1644543062597497463,,,,gyr,-0.0610865242779,-0.0680678412318,-0.0506145469844
180,1644543062597998381,,,,gyr,0.0226892791688,0.0471238903701,0.136135682464
181,1644543062598500967,,,,gyr,-0.0139626339078,-0.069813169539,-0.130899697542
182,1644543062599049807,,,,gyr,0.0104719754308,0.0785398185253,0.069813169539
183,1644543062599111795,0.0980664938688,-9.57129001617,-0.57859236002,acc,,,
184,1644543062599504471,,,,gyr,-0.0750491544604,-0.0942477807403,-0.0174532923847
185,1644543062600007057,,,,gyr,0.0506145469844,0.111701071262,-0.0069813169539
186,1644543062600507736,,,,gyr,0.0,-0.0349065847695,-0.104719758034
187,1644543062601010561,,,,gyr,0.0349065847695,-0.0383972451091,0.141371667385
188,1644543062601128578,0.0784531980753,-9.64974308014,-0.509945809841,acc,,,
189,1644543062601559162,,,,gyr,-0.104719758034,0.0,-0.0715584978461
190,1644543062602013588,,,,gyr,0.0104719754308,0.0,0.0139626339078
191,1644543062602516413,,,,gyr,-0.0959931090474,0.0593411922455,-0.0959931090474
192,1644543062603017092,,,,gyr,0.132645025849,-0.0471238903701,0.0837758034468
193,1644543062603145361,0.0294199492782,-9.58109664917,-0.558979034424,acc,,,
194,1644543062603519678,,,,gyr,-0.0226892791688,0.00349065847695,-0.0383972451091
195,1644543062604068518,,,,gyr,0.0139626339078,-0.0191986225545,0.0
196,1644543062604523182,,,,gyr,-0.0261799395084,0.0209439508617,0.115191727877
197,1644543062605025768,,,,gyr,-0.0139626339078,-0.00349065847695,-0.150098308921
198,1644543062605162144,0.12748645246,-9.57129001617,-0.549172401428,acc,,,
199,1644543062605526686,,,,gyr,0.0436332300305,0.0104719754308,0.0523598790169
200,1644543062606029272,,,,gyr,-0.0069813169539,-0.0296705961227,0.0645771846175
201,1644543062606577873,,,,gyr,-0.0314159244299,0.0715584978461,-0.123918376863
202,1644543062607032537,,,,gyr,0.0296705961227,-0.0942477807403,0.150098308921
203,1644543062607178688,0.137293100357,-9.61051654816,-0.509945809841,acc,,,
204,1644543062607535124,,,,gyr,-0.11344639957,0.0610865242779,-0.193731546402
205,1644543062608035803,,,,gyr,0.136135682464,-0.0349065847695,0.0471238903701
206,1644543062608538628,,,,gyr,-0.0349065847695,0.0471238903701,-0.0104719754308
207,1644543062609087467,,,,gyr,-0.0750491544604,-0.0209439508617,-0.0261799395084
208,1644543062609195471,0.0980664938688,-9.57129001617,-0.509945809841,acc,,,
209,1644543062609541893,,,,gyr,0.0209439508617,-0.0209439508617,0.0558505356312
210,1644543062610044718,,,,gyr,0.0174532923847,-0.0174532923847,0.0
211,1644543062610545397,,,,gyr,-0.00174532923847,0.0261799395084,-0.00174532923847
212,1644543062611047983,,,,gyr,0.0279252678156,-0.0104719754308,0.0
213,1644543062611212254,0.0686465501785,-9.61051654816,-0.509945809841,acc,,,
214,1644543062611596584,,,,gyr,-0.0593411922455,0.0104719754308,-0.0418879017234
215,1644543062612051487,,,,gyr,0.069813169539,-0.0471238903701,0.0837758034468
216,1644543062612551928,,,,gyr,-0.0383972451091,0.0523598790169,-0.0802851468325
217,1644543062613054752,,,,gyr,0.0139626339078,0.0,-0.0139626339078
218,1644543062613229036,0.0686465501785,-9.57129001617,-0.529559075832,acc,,,
219,1644543062613557339,,,,gyr,-0.0349065847695,-0.0471238903701,0.00523598771542
220,1644543062614106178,,,,gyr,0.0418879017234,0.0785398185253,0.0191986225545
221,1644543062614560843,,,,gyr,-0.0471238903701,-0.0471238903701,-0.139626339078
222,1644543062615063429,,,,gyr,-0.00523598771542,-0.0104719754308,0.0959931090474
223,1644543062615245819,0.0980664938688,-9.62032318115,-0.529559075832,acc,,,
224,1644543062615564108,,,,gyr,0.0069813169539,0.0174532923847,0.109955742955
225,1644543062616066933,,,,gyr,-0.0680678412318,-0.0715584978461,-0.185004904866
226,1644543062616615534,,,,gyr,0.0767944902182,0.069813169539,0.0558505356312
227,1644543062617070198,,,,gyr,-0.0645771846175,0.0383972451091,0.069813169539
228,1644543062617262363,0.137293100357,-9.62032318115,-0.558979034424,acc,,,
229,1644543062617573023,,,,gyr,0.0523598790169,-0.0785398185253,0.0104719754308
230,1644543062618073463,,,,gyr,-0.0104719754308,0.0785398185253,-0.00174532923847
231,1644543062618576288,,,,gyr,0.0349065847695,-0.0209439508617,-0.0209439508617
232,1644543062619124889,,,,gyr,-0.0209439508617,-0.0645771846175,0.0296705961227
233,1644543062619279385,0.0686465501785,-9.56148338318,-0.549172401428,acc,,,
234,1644543062619579554,,,,gyr,-0.0436332300305,0.0890117883682,-0.104719758034
235,1644543062620082378,,,,gyr,0.0872664600611,-0.0191986225545,0.0471238903701
236,1644543062620583057,,,,gyr,-0.0610865242779,-0.0436332300305,-0.00174532923847
237,1644543062621085644,,,,gyr,-0.0174532923847,0.0104719754308,0.0523598790169
238,1644543062621294022,0.00980664975941,-9.58109664917,-0.529559075832,acc,,,
239,1644543062621634483,,,,gyr,-0.0069813169539,0.0645771846175,-0.0767944902182
240,1644543062622089148,,,,gyr,0.0104719754308,-0.0593411922455,-0.0069813169539
241,1644543062622589827,,,,gyr,-0.0715584978461,0.0383972451091,-0.00174532923847
242,1644543062623092175,,,,gyr,0.00523598771542,-0.111701071262,0.0645771846175
243,1644543062623312712,0.0686465501785,-9.53206348419,-0.558979034424,acc,,,
244,1644543062623594999,,,,gyr,0.0226892791688,0.106465086341,0.00523598771542
245,1644543062624143839,,,,gyr,-0.0226892791688,0.0104719754308,-0.102974422276
246,1644543062624598503,,,,gyr,0.00872664619237,-0.069813169539,0.104719758034
247,1644543062625099182,,,,gyr,-0.0279252678156,-0.0069813169539,-0.148352980614
248,1644543062625329256,0.137293100357,-9.58109664917,-0.509945809841,acc,,,
249,1644543062625601768,,,,gyr,0.0139626339078,0.0349065847695,0.0750491544604
250,1644543062626104593,,,,gyr,0.0226892791688,-0.0349065847695,0.0209439508617
251,1644543062626653433,,,,gyr,-0.0139626339078,0.0959931090474,-0.136135682464
252,1644543062627107859,,,,gyr,0.0436332300305,-0.111701071262,0.0977384373546
253,1644543062627346277,0.0980664938688,-9.58109664917,-0.529559075832,acc,,,
254,1644543062627608538,,,,gyr,-0.0296705961227,0.0558505356312,0.00872664619237
255,1644543062628111362,,,,gyr,0.0383972451091,-0.0767944902182,0.0104719754308
256,1644543062628613949,,,,gyr,-0.0436332300305,0.139626339078,-0.150098308921
257,1644543062629162550,,,,gyr,-0.00174532923847,-0.11344639957,0.11344639957
258,1644543062629363060,0.0784531980753,-9.61051654816,-0.509945809841,acc,,,
259,1644543062629617214,,,,gyr,-0.0261799395084,0.0959931090474,-0.0523598790169
260,1644543062630119801,,,,gyr,0.0104719754308,-0.176278248429,0.0785398185253
261,1644543062630620718,,,,gyr,-0.0715584978461,0.150098308921,-0.130899697542
262,1644543062631123304,,,,gyr,0.0785398185253,-0.0558505356312,0.0436332300305
263,1644543062631379604,0.0784531980753,-9.61051654816,-0.558979034424,acc,,,
264,1644543062631672144,,,,gyr,0.0,0.0680678412318,0.153588980436
265,1644543062632126808,,,,gyr,0.00523598771542,-0.0610865242779,-0.130899697542
266,1644543062632627487,,,,gyr,0.00174532923847,0.00872664619237,-0.0209439508617
267,1644543062633130074,,,,gyr,-0.0645771846175,-0.0104719754308,0.0645771846175
268,1644543062633394480,0.12748645246,-9.62032318115,-0.529559075832,acc,,,
269,1644543062633632898,,,,gyr,-0.00174532923847,-0.0261799395084,-0.115191727877
270,1644543062634181499,,,,gyr,0.0104719754308,0.0750491544604,0.0471238903701
271,1644543062634635925,,,,gyr,-0.0418879017234,-0.0349065847695,0.0872664600611
272,1644543062635136604,,,,gyr,0.0314159244299,0.0209439508617,-0.150098308921
273,1644543062635411024,0.166713044047,-9.56148338318,-0.57859236002,acc,,,
274,1644543062635639429,,,,gyr,-0.0069813169539,-0.0471238903701,0.0715584978461
275,1644543062636142015,,,,gyr,-0.0506145469844,0.0069813169539,0.0
276,1644543062636690855,,,,gyr,0.0226892791688,0.0209439508617,-0.122173048556
277,1644543062637145519,,,,gyr,0.0506145469844,-0.0226892791688,0.0872664600611
278,1644543062637428045,0.0980664938688,-9.61051654816,-0.558979034424,acc,,,
279,1644543062637646198,,,,gyr,-0.0645771846175,0.0104719754308,-0.0069813169539
280,1644543062638149023,,,,gyr,0.0,0.0261799395084,-0.0436332300305
281,1644543062638651609,,,,gyr,0.0,-0.0593411922455,0.0296705961227
282,1644543062639200211,,,,gyr,0.0104719754308,-0.0174532923847,0.0296705961227
283,1644543062639444590,0.0686465501785,-9.62032318115,-0.549172401428,acc,,,
284,1644543062639655113,,,,gyr,-0.0174532923847,0.0750491544604,0.0139626339078
285,1644543062640155554,,,,gyr,-0.0471238903701,-0.0523598790169,0.00174532923847
286,1644543062640658140,,,,gyr,0.0104719754308,0.0383972451091,0.0104719754308
287,1644543062641160965,,,,gyr,-0.0314159244299,-0.0383972451091,-0.0296705961227
288,1644543062641459465,-0.0392265990376,-9.48303031921,-0.529559075832,acc,,,
289,1644543062641709805,,,,gyr,0.0226892791688,0.0,-0.0226892791688
290,1644543062642164230,,,,gyr,0.0104719754308,0.0349065847695,0.00349065847695
291,1644543062642665148,,,,gyr,-0.0104719754308,-0.0349065847695,-0.00174532923847
292,1644543062643167734,,,,gyr,-0.0279252678156,-0.0349065847695,-0.0645771846175
293,1644543062643477917,0.12748645246,-9.66935634613,-0.509945809841,acc,,,
294,1644543062643670321,,,,gyr,0.0436332300305,0.0104719754308,-0.0872664600611
295,1644543062644219160,,,,gyr,-0.0715584978461,-0.0261799395084,0.165806278586
296,1644543062644673824,,,,gyr,0.0523598790169,0.0226892791688,-0.0523598790169
297,1644543062645174265,,,,gyr,-0.0418879017234,0.0,-0.0209439508617
298,1644543062645494938,0.245166242123,-9.58109664917,-0.529559075832,acc,,,
299,1644543062645677090,,,,gyr,0.0279252678156,0.0558505356312,0.0104719754308
300,1644543062646179676,,,,gyr,-0.0837758034468,-0.0296705961227,-0.0610865242779
301,1644543062646728516,,,,gyr,0.0610865242779,-0.0436332300305,0.0558505356312
302,1644543062647183180,,,,gyr,-0.0104719754308,0.0715584978461,-0.0436332300305
303,1644543062647511721,0.196132987738,-9.57129001617,-0.509945809841,acc,,,
304,1644543062647683859,,,,gyr,-0.0296705961227,-0.104719758034,0.0925024524331
305,1644543062648186445,,,,gyr,0.0139626339078,0.0610865242779,-0.0785398185253
306,1644543062648689270,,,,gyr,-0.0296705961227,-0.0069813169539,0.0104719754308
307,1644543062649238110,,,,gyr,-0.0349065847695,-0.0349065847695,0.0436332300305
308,1644543062649528265,0.0686465501785,-9.62032318115,-0.451105892658,acc,,,
309,1644543062649692535,,,,gyr,0.0715584978461,-0.0296705961227,0.0209439508617
310,1644543062650193453,,,,gyr,-0.11344639957,0.122173048556,-0.0436332300305
311,1644543062650696039,,,,gyr,0.0610865242779,-0.122173048556,0.0436332300305
312,1644543062651196480,,,,gyr,-0.0593411922455,0.0610865242779,-0.127409040928
313,1644543062651543140,0.00980664975941,-9.57129001617,-0.451105892658,acc,,,
314,1644543062651747227,,,,gyr,0.0523598790169,-0.0523598790169,0.0610865242779
315,1644543062652201891,,,,gyr,-0.0506145469844,0.0436332300305,0.0837758034468
316,1644543062652702570,,,,gyr,0.0471238903701,-0.0715584978461,-0.118682384491
317,1644543062653205395,,,,gyr,-0.0349065847695,-0.0104719754308,0.0977384373546
318,1644543062653559923,0.0980664938688,-9.57129001617,-0.490332484245,acc,,,
319,1644543062653706074,,,,gyr,-0.0645771846175,0.0680678412318,-0.0715584978461
320,1644543062654256821,,,,gyr,0.0837758034468,-0.0506145469844,0.0680678412318
321,1644543062654711485,,,,gyr,-0.0977384373546,0.0383972451091,-0.0383972451091
322,1644543062655212164,,,,gyr,-0.0104719754308,0.00174532923847,-0.00523598771542
323,1644543062655576706,0.137293100357,-9.57129001617,-0.451105892658,acc,,,
324,1644543062655714750,,,,gyr,-0.0069813169539,0.00174532923847,0.0785398185253
325,1644543062656215429,,,,gyr,-0.0314159244299,0.0209439508617,-0.118682384491
326,1644543062656766176,,,,gyr,0.0785398185253,-0.0593411922455,0.167551606894
327,1644543062657220602,,,,gyr,-0.0785398185253,-0.0104719754308,-0.158824965358
328,1644543062657593250,0.0686465501785,-9.56148338318,-0.490332484245,acc,,,
329,1644543062657721519,,,,gyr,-0.0104719754308,0.0104719754308,0.0785398185253
330,1644543062658224106,,,,gyr,0.0069813169539,0.0296705961227,-0.0471238903701
331,1644543062658726692,,,,gyr,0.0261799395084,-0.0418879017234,-0.0209439508617
332,1644543062659275532,,,,gyr,-0.069813169539,0.0383972451091,0.0139626339078
333,1644543062659610033,0.0784531980753,-9.56148338318,-0.451105892658,acc,,,
334,1644543062659730196,,,,gyr,0.0645771846175,-0.0349065847695,-0.0139626339078
335,1644543062660230875,,,,gyr,0.0139626339078,-0.0209439508617,0.0139626339078
336,1644543062660733700,,,,gyr,-0.0925024524331,0.0261799395084,-0.0959931090474
337,1644543062661234379,,,,gyr,0.0,0.0174532923847,0.069813169539
338,1644543062661626816,0.12748645246,-9.58109664917,-0.509945809841,acc,,,
339,1644543062661784887,,,,gyr,0.0069813169539,0.0,-0.0471238903701
340,1644543062662239790,,,,gyr,-0.0383972451091,0.0261799395084,0.00174532923847
341,1644543062662740231,,,,gyr,0.0959931090474,-0.0436332300305,0.0977384373546
342,1644543062663242817,,,,gyr,-0.106465086341,-0.0139626339078,-0.0645771846175
343,1644543062663643599,0.12748645246,-9.64974308014,-0.402072638273,acc,,,
344,1644543062663743734,,,,gyr,-0.0383972451091,0.0523598790169,0.0069813169539
345,1644543062664294481,,,,gyr,0.0977384373546,-0.0785398185253,0.0139626339078
346,1644543062664748907,,,,gyr,-0.0593411922455,0.0349065847695,0.0523598790169
347,1644543062665249825,,,,gyr,0.00872664619237,-0.0174532923847,-0.150098308921
348,1644543062665660381,0.0980664938688,-9.64974308014,-0.402072638273,acc,,,
349,1644543062665752411,,,,gyr,0.0436332300305,-0.0471238903701,0.0977384373546
350,1644543062666253090,,,,gyr,-0.0942477807403,0.0436332300305,0.00523598771542
351,1644543062666803837,,,,gyr,0.0104719754308,0.0209439508617,-0.0139626339078
352,1644543062667258501,,,,gyr,0.0593411922455,-0.0471238903701,0.0785398185253
353,1644543062667676926,0.0686465501785,-9.58109664917,-0.509945809841,acc,,,
354,1644543062667758942,,,,gyr,0.00523598771542,0.0209439508617,-0.11344639957
355,1644543062668261766,,,,gyr,-0.0715584978461,-0.0139626339078,0.069813169539
356,1644543062668762445,,,,gyr,-0.0383972451091,0.0296705961227,-0.0977384373546
357,1644543062669313192,,,,gyr,0.0261799395084,-0.0383972451091,0.0593411922455
358,1644543062669693947,0.0686465501785,-9.64974308014,-0.509945809841,acc,,,
359,1644543062669767857,,,,gyr,0.0226892791688,0.0383972451091,0.0314159244299
360,1644543062670268536,,,,gyr,-0.0645771846175,0.0174532923847,-0.0680678412318
361,1644543062670771122,,,,gyr,0.0610865242779,-0.0226892791688,0.0942477807403
362,1644543062671272039,,,,gyr,-0.0349065847695,-0.0349065847695,0.0069813169539
363,1644543062671710491,0.12748645246,-9.62032318115,-0.509945809841,acc,,,
364,1644543062671822786,,,,gyr,0.0750491544604,0.0104719754308,-0.0785398185253
365,1644543062672277451,,,,gyr,-0.118682384491,0.00872664619237,0.0942477807403
366,1644543062672778130,,,,gyr,0.0785398185253,0.0436332300305,-0.130899697542
367,1644543062673280716,,,,gyr,-0.101229093969,-0.0104719754308,0.122173048556
368,1644543062673725367,0.0980664938688,-9.61051654816,-0.451105892658,acc,,,
369,1644543062673781157,,,,gyr,0.0558505356312,-0.0209439508617,-0.0296705961227
370,1644543062674332142,,,,gyr,-0.0296705961227,0.0104719754308,0.0191986225545
371,1644543062674786568,,,,gyr,-0.0523598790169,-0.00349065847695,-0.0715584978461
372,1644543062675287247,,,,gyr,0.0942477807403,-0.0645771846175,0.102974422276
373,1644543062675741911,0.0784531980753,-9.58109664917,-0.490332484245,acc,,,
374,1644543062675790071,,,,gyr,-0.0349065847695,0.0261799395084,-0.0104719754308
375,1644543062676290751,,,,gyr,0.00174532923847,0.0296705961227,-0.0139626339078
376,1644543062676841497,,,,gyr,-0.0715584978461,-0.0069813169539,0.00523598771542
377,1644543062677296162,,,,gyr,0.0314159244299,0.0296705961227,-0.0296705961227
378,1644543062677758694,0.0980664938688,-9.62032318115,-0.549172401428,acc,,,
379,1644543062677796841,,,,gyr,0.0209439508617,-0.0680678412318,0.0191986225545
380,1644543062678299665,,,,gyr,-0.0785398185253,0.0645771846175,0.0069813169539
381,1644543062678800106,,,,gyr,0.0139626339078,-0.0261799395084,0.0069813169539
382,1644543062679350853,,,,gyr,0.0506145469844,-0.0523598790169,0.0226892791688
383,1644543062679775476,0.0980664938688,-9.61051654816,-0.490332484245,acc,,,
384,1644543062679803371,,,,gyr,-0.0296705961227,0.0104719754308,-0.0226892791688
385,1644543062680306196,,,,gyr,-0.0349065847695,-0.0191986225545,-0.0174532923847
386,1644543062680808783,,,,gyr,0.0104719754308,0.0209439508617,-0.00174532923847
387,1644543062681309462,,,,gyr,0.0261799395084,0.00174532923847,0.0872664600611
388,1644543062681792259,0.0392265990376,-9.61051654816,-0.470719188452,acc,,,
389,1644543062681860447,,,,gyr,0.00523598771542,-0.0261799395084,-0.0855211317539
390,1644543062682312965,,,,gyr,-0.0837758034468,0.0349065847695,0.0715584978461
391,1644543062682815790,,,,gyr,0.0680678412318,0.0296705961227,-0.0645771846175
392,1644543062683318377,,,,gyr,-0.0349065847695,-0.0872664600611,0.0139626339078
393,1644543062683809042,0.0784531980753,-9.62032318115,-0.470719188452,acc,,,
394,1644543062683819056,,,,gyr,0.0296705961227,0.0436332300305,-0.0436332300305
395,1644543062684369564,,,,gyr,-0.0383972451091,0.00523598771542,0.0
396,1644543062684822321,,,,gyr,0.0104719754308,0.0069813169539,-0.0296705961227
397,1644543062685324907,,,,gyr,-0.00174532923847,0.00349065847695,0.0785398185253
398,1644543062685825586,0.137293100357,-9.58109664917,-0.451105892658,acc,,,
399,1644543062685827732,,,,gyr,-0.0296705961227,0.0104719754308,-0.0523598790169
400,1644543062686328411,,,,gyr,0.0715584978461,-0.0645771846175,0.136135682464
401,1644543062686879158,,,,gyr,-0.0872664600611,0.0750491544604,-0.165806278586
402,1644543062687333822,,,,gyr,0.0104719754308,-0.0209439508617,0.0680678412318
403,1644543062687834501,,,,gyr,0.0523598790169,0.0,-0.069813169539
404,1644543062687842607,0.0980664938688,-9.56148338318,-0.509945809841,acc,,,
405,1644543062688337088,,,,gyr,-0.0872664600611,-0.0471238903701,0.130899697542
406,1644543062688838005,,,,gyr,0.0872664600611,0.0471238903701,-0.0209439508617
407,1644543062689388752,,,,gyr,-0.0785398185253,0.0139626339078,-0.0558505356312
408,1644543062689843178,,,,gyr,0.0418879017234,-0.0680678412318,0.0436332300305
409,1644543062689859152,0.0686465501785,-9.64974308014,-0.529559075832,acc,,,
410,1644543062690343857,,,,gyr,0.0209439508617,0.0191986225545,-0.0680678412318
411,1644543062690846443,,,,gyr,-0.0349065847695,-0.0139626339078,0.0471238903701
412,1644543062691347122,,,,gyr,-0.0296705961227,0.0506145469844,0.0209439508617
413,1644543062691875935,0.12748645246,-9.61051654816,-0.509945809841,acc,,,
414,1644543062691897869,,,,gyr,0.0209439508617,-0.0349065847695,0.0296705961227
415,1644543062692350626,,,,gyr,-0.0349065847695,0.0645771846175,-0.0837758034468
416,1644543062692853212,,,,gyr,0.0680678412318,-0.0296705961227,0.0139626339078
417,1644543062693356037,,,,gyr,0.0104719754308,-0.0139626339078,0.0471238903701
418,1644543062693856716,,,,gyr,-0.0139626339078,0.0191986225545,0.0139626339078
419,1644543062693892479,0.12748645246,-9.61051654816,-0.451105892658,acc,,,
420,1644543062694407463,,,,gyr,-0.0558505356312,0.0418879017234,0.0261799395084
421,1644543062694860220,,,,gyr,0.0471238903701,-0.0383972451091,-0.069813169539
422,1644543062695362806,,,,gyr,-0.0506145469844,0.0174532923847,0.102974422276
423,1644543062695865393,,,,gyr,0.0349065847695,0.0,0.00174532923847
424,1644543062695907354,0.12748645246,-9.57129001617,-0.549172401428,acc,,,
425,1644543062696366072,,,,gyr,0.0139626339078,-0.0837758034468,0.0523598790169
426,1644543062696916819,,,,gyr,-0.0209439508617,0.144862323999,-0.137881010771
427,1644543062697369337,,,,gyr,-0.0104719754308,-0.0436332300305,0.102974422276
428,1644543062697872162,,,,gyr,-0.0226892791688,0.0,0.0
429,1644543062697924137,0.0686465501785,-9.58109664917,-0.490332484245,acc,,,
430,1644543062698374748,,,,gyr,0.0680678412318,-0.0959931090474,-0.0436332300305
431,1644543062698875427,,,,gyr,-0.0506145469844,0.0296705961227,0.0471238903701
432,1644543062699426174,,,,gyr,0.0418879017234,0.0174532923847,-0.0436332300305
433,1644543062699878931,,,,gyr,-0.0872664600611,0.0174532923847,-0.0349065847695
434,1644543062699940920,0.137293100357,-9.62032318115,-0.421685934067,acc,,,
435,1644543062700381517,,,,gyr,0.0645771846175,-0.104719758034,0.157079637051
436,1644543062700884342,,,,gyr,-0.0715584978461,0.11344639957,-0.144862323999
437,1644543062701385021,,,,gyr,0.106465086341,-0.0436332300305,0.0383972451091
438,1644543062701933622,,,,gyr,-0.0523598790169,0.0104719754308,0.0418879017234
439,1644543062701957703,0.137293100357,-9.58109664917,-0.529559075832,acc,,,
440,1644543062702388287,,,,gyr,0.0436332300305,-0.00174532923847,0.00523598771542
441,1644543062702890873,,,,gyr,-0.0977384373546,0.069813169539,-0.0558505356312
442,1644543062703393459,,,,gyr,0.0750491544604,-0.0296705961227,0.122173048556
443,1644543062703894377,,,,gyr,-0.0139626339078,-0.0471238903701,-0.157079637051
444,1644543062703974247,0.0392265990376,-9.62032318115,-0.558979034424,acc,,,
445,1644543062704443216,,,,gyr,-0.0139626339078,0.0593411922455,0.193731546402
446,1644543062704897642,,,,gyr,0.0104719754308,-0.0349065847695,-0.188495561481
447,1644543062705400467,,,,gyr,0.0,0.00174532923847,0.111701071262
448,1644543062705903053,,,,gyr,-0.0139626339078,0.0261799395084,0.0296705961227
449,1644543062705991268,0.0784531980753,-9.64974308014,-0.529559075832,acc,,,
450,1644543062706403732,,,,gyr,0.0506145469844,-0.106465086341,-0.0209439508617
451,1644543062706952333,,,,gyr,-0.0785398185253,0.0471238903701,-0.069813169539
452,1644543062707406998,,,,gyr,0.0785398185253,0.0069813169539,0.0523598790169
453,1644543062707909584,,,,gyr,-0.0383972451091,0.0715584978461,-0.0925024524331
454,1644543062708007813,0.166713044047,-9.58109664917,-0.549172401428,acc,,,
455,1644543062708412409,,,,gyr,-0.0139626339078,-0.0837758034468,0.141371667385
456,1644543062708913088,,,,gyr,0.0069813169539,0.0872664600611,-0.0558505356312
457,1644543062709461927,,,,gyr,-0.0261799395084,-0.0383972451091,0.0104719754308
458,1644543062709916592,,,,gyr,0.0471238903701,-0.0296705961227,-0.0296705961227
459,1644543062710022688,0.137293100357,-9.57129001617,-0.529559075832,acc,,,
460,1644543062710419178,,,,gyr,-0.0471238903701,0.0226892791688,-0.0209439508617
461,1644543062710919857,,,,gyr,0.0,0.0506145469844,0.144862323999
462,1644543062711422682,,,,gyr,-0.00523598771542,-0.0855211317539,-0.153588980436
463,1644543062711971283,,,,gyr,0.0104719754308,0.0959931090474,0.0523598790169
464,1644543062712039232,0.0980664938688,-9.64974308014,-0.490332484245,acc,,,
465,1644543062712425947,,,,gyr,-0.0261799395084,-0.0418879017234,0.0209439508617
466,1644543062712928772,,,,gyr,0.00349065847695,-0.0174532923847,0.0104719754308
467,1644543062713429213,,,,gyr,0.0,0.0942477807403,-0.0349065847695
468,1644543062713931799,,,,gyr,0.0,0.0296705961227,-0.00523598771542
469,1644543062714056253,0.0686465501785,-9.61051654816,-0.558979034424,acc,,,
470,1644543062714480639,,,,gyr,0.0383972451091,-0.0104719754308,0.0959931090474
471,1644543062714935303,,,,gyr,0.0226892791688,-0.0523598790169,-0.0296705961227
472,1644543062715437889,,,,gyr,-0.069813169539,0.0523598790169,-0.00349065847695
473,1644543062715938807,,,,gyr,-0.0069813169539,0.0069813169539,-0.0296705961227
474,1644543062716073036,0.0784531980753,-9.58109664917,-0.509945809841,acc,,,
475,1644543062716441393,,,,gyr,0.0645771846175,0.0139626339078,0.102974422276
476,1644543062716990232,,,,gyr,0.0139626339078,-0.0680678412318,-0.0436332300305
477,1644543062717444897,,,,gyr,-0.0558505356312,0.0872664600611,-0.0209439508617
478,1644543062717947483,,,,gyr,0.0104719754308,0.0209439508617,-0.0104719754308
479,1644543062718089581,0.137293100357,-9.64974308014,-0.490332484245,acc,,,
480,1644543062718447924,,,,gyr,-0.0139626339078,0.0942477807403,0.0750491544604
481,1644543062718950748,,,,gyr,0.0139626339078,-0.130899697542,-0.0069813169539
482,1644543062719499588,,,,gyr,-0.0296705961227,0.141371667385,-0.130899697542
483,1644543062719954014,,,,gyr,-0.0104719754308,-0.0436332300305,0.0942477807403
484,1644543062720106363,0.0784531980753,-9.58109664917,-0.529559075832,acc,,,
485,1644543062720456839,,,,gyr,0.0977384373546,-0.0296705961227,0.0139626339078
486,1644543062720957518,,,,gyr,-0.0383972451091,0.122173048556,0.00523598771542
487,1644543062721460104,,,,gyr,-0.0209439508617,-0.0436332300305,0.0191986225545
488,1644543062722008944,,,,gyr,0.00523598771542,0.0802851468325,-0.069813169539
489,1644543062722123146,0.0784531980753,-9.61051654816,-0.421685934067,acc,,,
490,1644543062722463608,,,,gyr,-0.0349065847695,-0.00174532923847,0.0645771846175
491,1644543062722966194,,,,gyr,0.069813169539,0.0209439508617,0.0523598790169
492,1644543062723467112,,,,gyr,-0.0139626339078,-0.0890117883682,-0.0471238903701
493,1644543062723969698,,,,gyr,-0.0174532923847,0.153588980436,-0.0191986225545
494,1644543062724139929,0.12748645246,-9.61051654816,-0.509945809841,acc,,,
495,1644543062724518299,,,,gyr,-0.0558505356312,0.0174532923847,0.00872664619237
496,1644543062724972963,,,,gyr,0.0785398185253,-0.00349065847695,0.0104719754308
497,1644543062725475550,,,,gyr,-0.0139626339078,0.0104719754308,-0.0349065847695
498,1644543062725976229,,,,gyr,0.0104719754308,0.0436332300305,0.0785398185253
499,1644543062726154566,0.0784531980753,-9.57129001617,-0.490332484245,acc,,,
500,1644543062726479053,,,,gyr,-0.0174532923847,0.0314159244299,-0.0139626339078
501,1644543062727027893,,,,gyr,0.0069813169539,-0.0471238903701,-0.0471238903701
502,1644543062727482319,,,,gyr,-0.0139626339078,0.0959931090474,0.0104719754308
503,1644543062727985144,,,,gyr,0.0506145469844,0.0209439508617,0.0523598790169
504,1644543062728171349,0.0686465501785,-9.58109664917,-0.549172401428,acc,,,
505,1644543062728485823,,,,gyr,-0.0139626339078,0.00174532923847,0.00174532923847
506,1644543062728988409,,,,gyr,-0.0349065847695,0.0715584978461,0.0383972451091
507,1644543062729537010,,,,gyr,0.0069813169539,0.00174532923847,-0.0314159244299
508,1644543062729991674,,,,gyr,-0.00523598771542,-0.0436332300305,0.0558505356312
509,1644543062730187893,0.0784531980753,-9.57129001617,-0.558979034424,acc,,,
510,1644543062730494499,,,,gyr,0.0069813169539,0.102974422276,-0.0855211317539
511,1644543062730995178,,,,gyr,-0.0436332300305,0.0,0.00174532923847
512,1644543062731497765,,,,gyr,0.0872664600611,-0.0593411922455,0.130899697542
513,1644543062732046604,,,,gyr,-0.0436332300305,0.122173048556,-0.0890117883682
514,1644543062732204914,0.0980664938688,-9.62032318115,-0.549172401428,acc,,,
515,1644543062732501268,,,,gyr,0.00523598771542,-0.0506145469844,0.0069813169539
516,1644543062733003855,,,,gyr,0.0191986225545,0.141371667385,-0.00872664619237
517,1644543062733504534,,,,gyr,-0.0296705961227,-0.0506145469844,0.0715584978461
518,1644543062734007359,,,,gyr,0.0,0.0383972451091,-0.0855211317539
519,1644543062734221697,0.0686465501785,-9.57129001617,-0.529559075832,acc,,,
520,1644543062734555960,,,,gyr,0.0,-0.0104719754308,0.115191727877
521,1644543062735010624,,,,gyr,0.0296705961227,0.0471238903701,-0.0837758034468
522,1644543062735513449,,,,gyr,-0.0209439508617,0.0209439508617,0.0226892791688
523,1644543062736013889,,,,gyr,-0.0104719754308,-0.0104719754308,-0.00349065847695
524,1644543062736236334,0.0980664938688,-9.58109664917,-0.490332484245,acc,,,
525,1644543062736516714,,,,gyr,-0.0139626339078,0.123918376863,-0.00174532923847
526,1644543062737065315,,,,gyr,0.0436332300305,-0.0855211317539,-0.00349065847695
527,1644543062737519979,,,,gyr,-0.0226892791688,0.0523598790169,-0.0349065847695
528,1644543062738022804,,,,gyr,-0.0436332300305,0.0785398185253,0.130899697542
529,1644543062738253117,0.0980664938688,-9.61051654816,-0.509945809841,acc,,,
530,1644543062738523483,,,,gyr,0.069813169539,-0.0174532923847,-0.0471238903701
531,1644543062739026070,,,,gyr,-0.0139626339078,0.0872664600611,-0.0523598790169
532,1644543062739574909,,,,gyr,0.0261799395084,-0.0226892791688,-0.00523598771542
533,1644543062740029573,,,,gyr,-0.0349065847695,0.0523598790169,-0.00523598771542
534,1644543062740269661,0.0686465501785,-9.57129001617,-0.451105892658,acc,,,
535,1644543062740532160,,,,gyr,-0.0296705961227,0.0349065847695,0.0680678412318
536,1644543062741033077,,,,gyr,0.0872664600611,-0.0139626339078,-0.0174532923847
537,1644543062741535664,,,,gyr,-0.0715584978461,0.11344639957,-0.00523598771542
538,1644543062742084265,,,,gyr,0.0209439508617,-0.0139626339078,0.0785398185253
539,1644543062742286682,0.0784531980753,-9.56148338318,-0.558979034424,acc,,,
540,1644543062742538929,,,,gyr,-0.0645771846175,0.0558505356312,-0.0750491544604
541,1644543062743041515,,,,gyr,0.0209439508617,0.0191986225545,0.0104719754308
542,1644543062743542194,,,,gyr,0.0383972451091,0.00349065847695,-0.0593411922455
543,1644543062744045019,,,,gyr,-0.069813169539,0.069813169539,0.0837758034468
544,1644543062744303226,0.0784531980753,-9.57129001617,-0.529559075832,acc,,,
545,1644543062744593620,,,,gyr,0.118682384491,0.0226892791688,0.0872664600611
546,1644543062745048046,,,,gyr,-0.0977384373546,0.0104719754308,-0.0523598790169
547,1644543062745550871,,,,gyr,0.0349065847695,0.0349065847695,0.00523598771542
548,1644543062746051311,,,,gyr,-0.0261799395084,0.0680678412318,-0.0296705961227
549,1644543062746319771,0.0784531980753,-9.62032318115,-0.509945809841,acc,,,
550,1644543062746553898,,,,gyr,-0.00872664619237,0.00523598771542,-0.0104719754308
551,1644543062747102737,,,,gyr,0.0506145469844,-0.00349065847695,0.0872664600611
552,1644543062747557163,,,,gyr,-0.0558505356312,0.0645771846175,-0.0349065847695
553,1644543062748059750,,,,gyr,-0.0383972451091,0.00174532923847,-0.00872664619237
554,1644543062748336077,0.0686465501785,-9.58109664917,-0.529559075832,acc,,,
555,1644543062748560429,,,,gyr,0.123918376863,0.148352980614,0.0226892791688
556,1644543062749063015,,,,gyr,-0.115191727877,-0.0279252678156,0.00174532923847
557,1644543062749611855,,,,gyr,0.0750491544604,-0.0104719754308,0.0226892791688
558,1644543062750066280,,,,gyr,-0.0349065847695,0.123918376863,0.0069813169539
559,1644543062750350475,0.0784531980753,-9.61051654816,-0.558979034424,acc,,,
560,1644543062750568867,,,,gyr,-0.0261799395084,0.0383972451091,0.0872664600611
561,1644543062751069546,,,,gyr,-0.0645771846175,0.0436332300305,-0.0523598790169
562,1644543062751572132,,,,gyr,0.11344639957,0.0,-0.106465086341
563,1644543062752120733,,,,gyr,-0.0314159244299,0.0785398185253,0.129154369235
564,1644543062752367258,0.0784531980753,-9.58109664917,-0.509945809841,acc,,,
565,1644543062752575397,,,,gyr,0.0314159244299,0.0767944902182,-0.0523598790169
566,1644543062753077984,,,,gyr,-0.0104719754308,0.0139626339078,0.0872664600611
567,1644543062753578663,,,,gyr,-0.0349065847695,0.0872664600611,-0.0436332300305
568,1644543062754081011,,,,gyr,-0.0174532923847,-0.0104719754308,0.0296705961227
569,1644543062754383564,0.0784531980753,-9.58109664917,-0.509945809841,acc,,,
570,1644543062754629850,,,,gyr,0.0593411922455,0.136135682464,-0.0645771846175
571,1644543062755084515,,,,gyr,-0.0471238903701,-0.0139626339078,0.101229093969
572,1644543062755586863,,,,gyr,0.0104719754308,0.069813169539,-0.0767944902182
573,1644543062756087542,,,,gyr,0.0209439508617,0.0610865242779,-0.0069813169539
574,1644543062756399870,0.0784531980753,-9.57129001617,-0.549172401428,acc,,,
575,1644543062756590128,,,,gyr,-0.0471238903701,0.00523598771542,0.0383972451091
576,1644543062757138968,,,,gyr,-0.0279252678156,0.0750491544604,0.00523598771542
577,1644543062757593393,,,,gyr,0.0296705961227,0.11344639957,0.102974422276
578,1644543062758095980,,,,gyr,-0.0925024524331,-0.0261799395084,-0.0593411922455
579,1644543062758416414,0.0686465501785,-9.58109664917,-0.470719188452,acc,,,
580,1644543062758596659,,,,gyr,0.0383972451091,0.153588980436,0.0383972451091
581,1644543062759099483,,,,gyr,0.0,-0.0523598790169,-0.0174532923847
582,1644543062759647846,,,,gyr,-0.00349065847695,0.162315621972,-0.0872664600611
583,1644543062760102510,,,,gyr,0.0296705961227,0.0226892791688,0.141371667385
584,1644543062760430813,0.0784531980753,-9.58109664917,-0.451105892658,acc,,,
585,1644543062760605097,,,,gyr,-0.0261799395084,0.111701071262,-0.109955742955
586,1644543062761105776,,,,gyr,0.0139626339078,0.0645771846175,0.0785398185253
587,1644543062761608362,,,,gyr,-0.00349065847695,0.0750491544604,0.0139626339078
588,1644543062762156963,,,,gyr,-0.0785398185253,0.106465086341,0.0104719754308
589,1644543062762447357,0.0980664938688,-9.61051654816,-0.451105892658,acc,,,
590,1644543062762611628,,,,gyr,0.115191727877,0.0104719754308,0.0104719754308
591,1644543062763114214,,,,gyr,0.00523598771542,0.104719758034,-0.0104719754308
592,1644543062763614655,,,,gyr,-0.0174532923847,0.109955742955,0.0209439508617
593,1644543062764117479,,,,gyr,-0.0174532923847,0.0523598790169,0.0785398185253
594,1644543062764463902,0.0294199492782,-9.64974308014,-0.470719188452,acc,,,
595,1644543062764666080,,,,gyr,0.00523598771542,0.0942477807403,-0.0872664600611
596,1644543062765120506,,,,gyr,-0.0418879017234,0.0767944902182,0.0785398185253
597,1644543062765623331,,,,gyr,0.0680678412318,0.153588980436,0.0261799395084
598,1644543062766123772,,,,gyr,-0.0645771846175,0.069813169539,-0.0506145469844
599,1644543062766480207,0.0294199492782,-9.58109664917,-0.402072638273,acc,,,
600,1644543062766626358,,,,gyr,0.069813169539,0.0872664600611,0.0418879017234
601,1644543062767174959,,,,gyr,-0.0872664600611,0.153588980436,-0.0802851468325
602,1644543062767629623,,,,gyr,0.0296705961227,0.0872664600611,0.0802851468325
603,1644543062768496513,0.12748645246,-9.61051654816,-0.421685934067,acc,,,
604,1644543062768632889,,,,gyr,-0.0226892791688,0.183259576559,-0.0558505356312
605,1644543062769135475,,,,gyr,-0.00174532923847,0.0645771846175,0.0558505356312
606,1644543062769684076,,,,gyr,0.0209439508617,0.130899697542,-0.0942477807403
607,1644543062770138741,,,,gyr,0.0314159244299,0.148352980614,0.139626339078
608,1644543062770513296,0.0686465501785,-9.58109664917,-0.470719188452,acc,,,
609,1644543062770639420,,,,gyr,-0.00349065847695,0.106465086341,-0.0925024524331
610,1644543062771141768,,,,gyr,0.0558505356312,0.153588980436,0.104719758034
611,1644543062771644592,,,,gyr,-0.0750491544604,0.280998021364,-0.0558505356312
612,1644543062772193193,,,,gyr,0.0174532923847,0.0610865242779,0.0610865242779
613,1644543062772529602,0.0686465501785,-9.62032318115,-0.402072638273,acc,,,
614,1644543062772647619,,,,gyr,0.0471238903701,0.211184844375,0.0174532923847
615,1644543062773148537,,,,gyr,-0.0418879017234,0.0872664600611,0.0139626339078
616,1644543062773650885,,,,gyr,0.0296705961227,0.193731546402,-0.0925024524331
617,1644543062774153471,,,,gyr,0.0349065847695,0.0785398185253,0.0767944902182
618,1644543062774546146,0.0784531980753,-9.57129001617,-0.451105892658,acc,,,
619,1644543062774702072,,,,gyr,-0.0523598790169,0.211184844375,0.132645025849
620,1644543062775156736,,,,gyr,-0.0069813169539,0.162315621972,-0.106465086341
621,1644543062775657415,,,,gyr,0.0104719754308,0.137881010771,-0.0139626339078
622,1644543062776160002,,,,gyr,0.00349065847695,0.176278248429,0.0226892791688
623,1644543062776562452,0.12748645246,-9.61051654816,-0.451105892658,acc,,,
624,1644543062776662588,,,,gyr,-0.0349065847695,0.193731546402,0.115191727877
625,1644543062777211189,,,,gyr,0.0558505356312,0.0872664600611,-0.106465086341
626,1644543062777665854,,,,gyr,-0.00349065847695,0.193731546402,0.102974422276
627,1644543062778166533,,,,gyr,0.0506145469844,0.183259576559,-0.0296705961227
628,1644543062778578758,0.0294199492782,-9.58109664917,-0.509945809841,acc,,,
629,1644543062778669119,,,,gyr,0.00174532923847,0.202458187938,0.144862323999
630,1644543062779171705,,,,gyr,-0.0349065847695,0.167551606894,-0.0872664600611
631,1644543062779720545,,,,gyr,-0.0349065847695,0.214675500989,-0.00174532923847
632,1644543062780174732,,,,gyr,0.0610865242779,0.0715584978461,0.11344639957
633,1644543062780593395,0.0686465501785,-9.61051654816,-0.529559075832,acc,,,
634,1644543062780675650,,,,gyr,0.0139626339078,0.267035365105,-0.150098308921
635,1644543062781178236,,,,gyr,-0.0558505356312,0.104719758034,0.228638127446
636,1644543062781680584,,,,gyr,-0.0069813169539,0.158824965358,-0.200712859631
637,1644543062782229424,,,,gyr,0.0785398185253,0.171042263508,0.188495561481
638,1644543062782609940,0.0980664938688,-9.66935634613,-0.421685934067,acc,,,
639,1644543062782683849,,,,gyr,-0.0523598790169,0.23212878406,-0.0593411922455
640,1644543062783184528,,,,gyr,0.0593411922455,0.153588980436,-0.00523598771542
641,1644543062783687353,,,,gyr,-0.0558505356312,0.171042263508,-0.0226892791688
642,1644543062784189701,,,,gyr,0.0296705961227,0.254818081856,0.0
643,1644543062784626245,0.0980664938688,-9.62032318115,-0.490332484245,acc,,,
644,1644543062784738541,,,,gyr,-0.0436332300305,0.150098308921,0.176278248429
645,1644543062785193205,,,,gyr,0.122173048556,0.171042263508,-0.0471238903701
646,1644543062785693645,,,,gyr,-0.0715584978461,0.183259576559,-0.0209439508617
647,1644543062786196232,,,,gyr,-0.0139626339078,0.28274333477,0.0802851468325
648,1644543062786642790,0.0980664938688,-9.58109664917,-0.470719188452,acc,,,
649,1644543062786698818,,,,gyr,0.0645771846175,0.130899697542,-0.0279252678156
650,1644543062787247658,,,,gyr,0.0314159244299,0.226892799139,-0.0296705961227
651,1644543062787702084,,,,gyr,0.0,0.254818081856,0.0226892791688
652,1644543062788202524,,,,gyr,-0.0296705961227,0.132645025849,0.0715584978461
653,1644543062788659096,0.0392265990376,-9.62032318115,-0.402072638273,acc,,,
654,1644543062788705349,,,,gyr,-0.0314159244299,0.350811183453,0.0418879017234
655,1644543062789207697,,,,gyr,0.0802851468325,0.228638127446,-0.0174532923847
656,1644543062789756536,,,,gyr,-0.0104719754308,0.218166157603,0.106465086341
657,1644543062790211201,,,,gyr,-0.0558505356312,0.191986218095,-0.0785398185253
658,1644543062790675879,0.12748645246,-9.61051654816,-0.402072638273,acc,,,
659,1644543062790711641,,,,gyr,0.0837758034468,0.228638127446,0.0523598790169
660,1644543062791214466,,,,gyr,-0.0191986225545,0.291469991207,0.0872664600611
661,1644543062791717052,,,,gyr,0.0069813169539,0.214675500989,-0.0383972451091
662,1644543062792265654,,,,gyr,0.0436332300305,0.211184844375,-0.0139626339078
663,1644543062792692184,0.12748645246,-9.57129001617,-0.529559075832,acc,,,
664,1644543062792720318,,,,gyr,0.0209439508617,0.237364768982,0.0872664600611
665,1644543062793220758,,,,gyr,-0.0174532923847,0.244346097112,0.0802851468325
666,1644543062793723345,,,,gyr,-0.0069813169539,0.214675500989,-0.0610865242779
667,1644543062794226170,,,,gyr,0.0314159244299,0.202458187938,0.069813169539
668,1644543062794708490,0.12748645246,-9.61051654816,-0.598205626011,acc,,,
669,1644543062794774771,,,,gyr,0.00174532923847,0.235619440675,0.00523598771542
670,1644543062795229197,,,,gyr,-0.0767944902182,0.158824965358,0.0837758034468
671,1644543062795729637,,,,gyr,0.176278248429,0.167551606894,0.0261799395084
672,1644543062796232462,,,,gyr,-0.130899697542,0.240855440497,-0.111701071262
673,1644543062796725035,0.176519691944,-9.58109664917,-0.725692093372,acc,,,
674,1644543062796735048,,,,gyr,0.11344639957,0.102974422276,0.104719758034
675,1644543062797283649,,,,gyr,-0.0069813169539,0.137881010771,0.0314159244299
676,1644543062797738314,,,,gyr,0.0209439508617,0.141371667385,0.0174532923847
677,1644543062798238754,,,,gyr,-0.0209439508617,0.106465086341,-0.00174532923847
678,1644543062798741341,0.245166242123,-9.66935634613,-0.725692093372,acc,,,
679,1644543062798741341,,,,gyr,-0.0209439508617,0.0593411922455,-0.0558505356312
680,1644543062799244165,,,,gyr,-0.0418879017234,0.0593411922455,0.0523598790169
681,1644543062799792767,,,,gyr,0.0680678412318,0.150098308921,0.0872664600611
682,1644543062800247431,,,,gyr,0.0209439508617,-0.0750491544604,-0.101229093969
683,1644543062800747871,,,,gyr,-0.00174532923847,0.0785398185253,-0.0104719754308
684,1644543062800755978,-0.0784531980753,-9.45361042023,-0.696272134781,acc,,,
685,1644543062801250458,,,,gyr,-0.0296705961227,0.0715584978461,0.122173048556
686,1644543062801753283,,,,gyr,0.0506145469844,0.0,-0.0296705961227
687,1644543062802301645,,,,gyr,-0.0471238903701,0.0314159244299,-0.00523598771542
688,1644543062802756310,,,,gyr,0.00523598771542,0.0855211317539,-0.0436332300305
689,1644543062802774429,0.00980664975941,-9.66935634613,-0.421685934067,acc,,,
690,1644543062803256989,,,,gyr,0.0523598790169,-0.0104719754308,0.0069813169539
691,1644543062803759575,,,,gyr,-0.0349065847695,0.118682384491,0.0296705961227
692,1644543062804262161,,,,gyr,0.0261799395084,0.0191986225545,-0.148352980614
693,1644543062804790735,0.176519691944,-9.61051654816,-0.313812792301,acc,,,
694,1644543062804810762,,,,gyr,-0.141371667385,0.137881010771,0.144862323999
695,1644543062805265427,,,,gyr,0.069813169539,0.0645771846175,-0.0104719754308
696,1644543062805766106,,,,gyr,-0.0174532923847,0.0925024524331,0.00349065847695
697,1644543062806268454,,,,gyr,0.101229093969,0.104719758034,0.0942477807403
698,1644543062806769371,,,,gyr,-0.0174532923847,0.0418879017234,-0.141371667385
699,1644543062806823254,0.166713044047,-9.61051654816,-0.362846046686,acc,,,
700,1644543062807319880,,,,gyr,-0.0680678412318,0.157079637051,0.127409040928
701,1644543062807774305,,,,gyr,-0.0261799395084,0.185004904866,-0.106465086341
702,1644543062808275223,,,,gyr,0.123918376863,0.0296705961227,0.167551606894
703,1644543062808777571,,,,gyr,-0.104719758034,0.150098308921,-0.069813169539
704,1644543062808821678,-0.0392265990376,-9.61051654816,-0.38245934248,acc,,,
705,1644543062809278250,,,,gyr,-0.0523598790169,0.132645025849,0.00523598771542
706,1644543062809828758,,,,gyr,0.0977384373546,0.0942477807403,0.0226892791688
707,1644543062810283422,,,,gyr,0.0349065847695,0.144862323999,0.0418879017234
708,1644543062810784101,,,,gyr,-0.0715584978461,0.188495561481,-0.0925024524331
709,1644543062810840130,0.0686465501785,-9.67916297913,-0.451105892658,acc,,,
710,1644543062811286688,,,,gyr,0.0261799395084,0.102974422276,0.165806278586
711,1644543062811787367,,,,gyr,0.0226892791688,0.200712859631,-0.0558505356312
712,1644543062812337875,,,,gyr,0.00872664619237,0.11344639957,0.104719758034
713,1644543062812792540,,,,gyr,-0.0261799395084,0.167551606894,-0.0925024524331
714,1644543062812856674,0.137293100357,-9.57129001617,-0.402072638273,acc,,,
715,1644543062813293219,,,,gyr,0.0,0.141371667385,0.0872664600611
716,1644543062813795567,,,,gyr,0.0750491544604,0.141371667385,-0.139626339078
717,1644543062814296484,,,,gyr,-0.0471238903701,0.069813169539,0.0558505356312
718,1644543062814847231,,,,gyr,0.0261799395084,0.0104719754308,-0.0226892791688
719,1644543062814872980,0.343232750893,-9.61051654816,-0.774725317955,acc,,,
720,1644543062815301418,,,,gyr,-0.104719758034,0.0680678412318,0.0174532923847
721,1644543062815802336,,,,gyr,0.0523598790169,-0.0349065847695,-0.0855211317539
722,1644543062816304922,,,,gyr,0.0,0.0209439508617,0.0645771846175
723,1644543062816807270,,,,gyr,0.0104719754308,-0.0436332300305,0.0471238903701
724,1644543062816889763,-0.0686465501785,-9.53206348419,-0.686465501785,acc,,,
725,1644543062817356110,,,,gyr,0.0139626339078,0.0296705961227,-0.0506145469844
726,1644543062817810535,,,,gyr,-0.0855211317539,0.0610865242779,-0.00174532923847
727,1644543062818311214,,,,gyr,0.069813169539,-0.0837758034468,0.0261799395084
728,1644543062818814039,,,,gyr,-0.0174532923847,0.0104719754308,-0.0069813169539
729,1644543062818906069,0.12748645246,-9.78703689575,-0.529559075832,acc,,,
730,1644543062819314480,,,,gyr,-0.0226892791688,-0.0069813169539,-0.0349065847695
731,1644543062819865227,,,,gyr,0.0383972451091,-0.0261799395084,0.0959931090474
732,1644543062820319653,,,,gyr,-0.0523598790169,0.0349065847695,-0.069813169539
733,1644543062820922375,0.0294199492782,-9.39477062225,-0.451105892658,acc,,,
734,1644543062821322918,,,,gyr,-0.0802851468325,0.0837758034468,-0.0872664600611
735,1644543062821823597,,,,gyr,0.0314159244299,-0.00872664619237,-0.0680678412318
736,1644543062822374344,,,,gyr,0.0593411922455,-0.0645771846175,0.00523598771542
737,1644543062822828770,,,,gyr,-0.0418879017234,0.0959931090474,0.0767944902182
738,1644543062822938919,0.137293100357,-9.62032318115,-0.490332484245,acc,,,
739,1644543062823329449,,,,gyr,-0.0261799395084,-0.00349065847695,0.0436332300305
740,1644543062823832035,,,,gyr,-0.0139626339078,0.0174532923847,-0.0506145469844
741,1644543062824332476,,,,gyr,0.0,-0.0104719754308,-0.0139626339078
742,1644543062824883223,,,,gyr,0.0314159244299,0.0226892791688,0.104719758034
743,1644543062824955225,0.0784531980753,-9.66935634613,-0.402072638273,acc,,,
744,1644543062825337887,,,,gyr,-0.0610865242779,-0.0261799395084,-0.0872664600611
745,1644543062825838327,,,,gyr,-0.0139626339078,0.0279252678156,-0.0261799395084
746,1644543062826341152,,,,gyr,0.0069813169539,-0.069813169539,0.0645771846175
747,1644543062826841593,,,,gyr,-0.0296705961227,0.0785398185253,-0.0593411922455
748,1644543062826971769,0.0784531980753,-9.56148338318,-0.402072638273,acc,,,
749,1644543062827392340,,,,gyr,-0.0104719754308,-0.0104719754308,-0.0104719754308
750,1644543062827847004,,,,gyr,0.0209439508617,-0.0436332300305,-0.0069813169539
751,1644543062828347445,,,,gyr,-0.0296705961227,-0.0174532923847,-0.0471238903701
752,1644543062828850031,,,,gyr,0.0104719754308,0.0209439508617,0.0959931090474
753,1644543062828988314,0.0686465501785,-9.56148338318,-0.470719188452,acc,,,
754,1644543062829350471,,,,gyr,0.0436332300305,-0.00872664619237,0.0296705961227
755,1644543062829901457,,,,gyr,-0.0436332300305,0.0750491544604,-0.0750491544604
756,1644543062830355883,,,,gyr,0.0104719754308,-0.0558505356312,0.0174532923847
757,1644543062830856562,,,,gyr,-0.0104719754308,-0.0139626339078,-0.123918376863
758,1644543062831004620,0.0784531980753,-9.64974308014,-0.451105892658,acc,,,
759,1644543062831359148,,,,gyr,-0.0436332300305,0.0383972451091,0.171042263508
