,field.header.stamp,field.linear_acceleration.x,field.linear_acceleration.y,field.linear_acceleration.z,type,field.angular_velocity.x,field.angular_velocity.y,field.angular_velocity.z
0,1644543081628155708,,,,gyr,-0.0296705961227,0.0296705961227,0.0209439508617
1,1644543081628658533,,,,gyr,0.069813169539,-0.0349065847695,-0.148352980614
2,1644543081629159212,,,,gyr,-0.0837758034468,0.0383972451091,0.127409040928
3,1644543081629653692,-0.0392265990376,-9.61051654816,0.12748645246,acc,,,
4,1644543081629709959,,,,gyr,0.0191986225545,0.0,-0.11344639957
5,1644543081630164623,,,,gyr,0.0174532923847,-0.0610865242779,0.0296705961227
6,1644543081630665302,,,,gyr,-0.0139626339078,0.0471238903701,0.0610865242779
7,1644543081631167889,,,,gyr,0.00872664619237,0.069813169539,-0.0209439508617
8,1644543081631668806,,,,gyr,-0.0314159244299,-0.0523598790169,-0.0383972451091
9,1644543081631670713,-0.0686465501785,-9.66935634613,0.176519691944,acc,,,
10,1644543081632219553,,,,gyr,0.0209439508617,-0.0383972451091,-0.0296705961227
11,1644543081632673979,,,,gyr,-0.0296705961227,0.00523598771542,0.132645025849
12,1644543081633174896,,,,gyr,-0.0261799395084,0.00349065847695,-0.165806278586
13,1644543081633677483,,,,gyr,0.00174532923847,0.0593411922455,0.0523598790169
14,1644543081633685350,-0.0686465501785,-9.66935634613,0.0980664938688,acc,,,
15,1644543081634180069,,,,gyr,0.0296705961227,-0.069813169539,0.0139626339078
16,1644543081634728670,,,,gyr,-0.0226892791688,-0.0383972451091,0.0
17,1644543081635702133,-0.0294199492782,-9.66935634613,0.166713044047,acc,,,
18,1644543081637718916,-0.0392265990376,-9.67916297913,0.166713044047,acc,,,
19,1644543081639735699,0.0,-9.64974308014,0.166713044047,acc,,,
20,1644543081641750574,0.0,-9.62032318115,0.166713044047,acc,,,
21,1644543081643767118,-0.0294199492782,-9.64974308014,0.0784531980753,acc,,,
22,1644543081645781994,0.0,-9.66935634613,0.0980664938688,acc,,,
23,1644543081647798538,-0.0294199492782,-9.66935634613,0.0686465501785,acc,,,
24,1644543081649815321,-0.00980664975941,-9.64974308014,0.12748645246,acc,,,
25,1644543081651832342,0.0,-9.64974308014,0.12748645246,acc,,,
26,1644543081653846979,-0.00980664975941,-9.61051654816,0.12748645246,acc,,,
27,1644543081655863762,-0.00980664975941,-9.61051654816,0.176519691944,acc,,,
28,1644543081657768250,,,,gyr,0.104719758034,0.0436332300305,-0.0296705961227
29,1644543081657880306,-0.00980664975941,-9.61051654816,0.225552946329,acc,,,
30,1644543081658771753,,,,gyr,0.0104719754308,0.0558505356312,-0.00174532923847
31,1644543081659897327,0.00980664975941,-9.58109664917,0.245166242123,acc,,,
32,1644543082379533768,,,,gyr,0.0436332300305,-0.0750491544604,-0.0872664600611
33,1644543082379987955,,,,gyr,0.0139626339078,0.0558505356312,0.0209439508617
34,1644543082380490303,,,,gyr,0.0802851468325,0.0104719754308,0.0436332300305
35,1644543082380992651,,,,gyr,0.104719758034,-0.0558505356312,0.0715584978461
36,1644543082381248713,-0.0294199492782,-9.61051654816,0.558979034424,acc,,,
37,1644543082381492853,,,,gyr,0.0855211317539,0.0715584978461,-0.197222203016
38,1644543082382041216,,,,gyr,0.0296705961227,-0.00523598771542,0.150098308921
39,1644543082382495403,,,,gyr,0.0296705961227,-0.0296705961227,-0.0104719754308
40,1644543082382997751,,,,gyr,0.109955742955,-0.0209439508617,0.0069813169539
41,1644543082383263826,-0.0392265990376,-9.64974308014,0.57859236002,acc,,,
42,1644543082383497953,,,,gyr,0.0104719754308,0.101229093969,0.00349065847695
43,1644543082384000301,,,,gyr,0.0174532923847,-0.0558505356312,-0.0209439508617
44,1644543082384548664,,,,gyr,0.171042263508,-0.0383972451091,0.115191727877
45,1644543082385002851,,,,gyr,0.0436332300305,0.0174532923847,-0.122173048556
46,1644543082385278940,-0.0392265990376,-9.62032318115,0.627625584602,acc,,,
47,1644543082385505199,,,,gyr,0.0872664600611,-0.0610865242779,-0.0069813169539
48,1644543082386007547,,,,gyr,0.0506145469844,0.0471238903701,0.0506145469844
49,1644543082387292147,-0.0294199492782,-9.64974308014,0.558979034424,acc,,,
50,1644543082389015436,,,,gyr,-0.0191986225545,-0.0104719754308,-0.137881010771
51,1644543082389307499,-0.0294199492782,-9.66935634613,0.598205626011,acc,,,
52,1644543082390520334,,,,gyr,0.0296705961227,0.0209439508617,-0.0610865242779
53,1644543082391020536,,,,gyr,0.11344639957,-0.069813169539,0.122173048556
54,1644543082391322851,0.0,-9.64974308014,0.686465501785,acc,,,
55,1644543082392071009,,,,gyr,0.0872664600611,-0.0785398185253,0.0296705961227
56,1644543082392525434,,,,gyr,0.069813169539,-0.0104719754308,0.111701071262
57,1644543082393027782,,,,gyr,0.101229093969,0.0785398185253,-0.102974422276
58,1644543082393337965,-0.0294199492782,-9.62032318115,0.666852176189,acc,,,
59,1644543082394030333,,,,gyr,0.0069813169539,-0.0349065847695,-0.106465086341
60,1644543082394578695,,,,gyr,0.0314159244299,0.0226892791688,0.0191986225545
61,1644543082395351171,-0.0294199492782,-9.64974308014,0.598205626011,acc,,,
62,1644543082395535231,,,,gyr,0.0837758034468,0.0,-0.0209439508617
63,1644543082396035433,,,,gyr,0.0139626339078,-0.0349065847695,-0.069813169539
64,1644543082396537781,,,,gyr,0.0104719754308,0.0436332300305,0.130899697542
65,1644543082397086143,,,,gyr,0.0436332300305,0.0104719754308,-0.0349065847695
66,1644543082397366285,-0.0392265990376,-9.61051654816,0.598205626011,acc,,,
67,1644543082397540331,,,,gyr,0.0296705961227,-0.0296705961227,-0.0872664600611
68,1644543082398042679,,,,gyr,0.0977384373546,0.0261799395084,0.150098308921
69,1644543082398542881,,,,gyr,0.0925024524331,-0.0069813169539,-0.150098308921
70,1644543082399045229,,,,gyr,-0.0104719754308,0.0610865242779,0.0977384373546
71,1644543082399381638,-0.0392265990376,-9.57129001617,0.57859236002,acc,,,
72,1644543082399593592,,,,gyr,0.0785398185253,-0.0209439508617,0.0209439508617
73,1644543082400047779,,,,gyr,0.0506145469844,0.0610865242779,-0.0383972451091
74,1644543082400550365,,,,gyr,0.0418879017234,-0.0314159244299,-0.0785398185253
75,1644543082401050568,,,,gyr,0.0209439508617,-0.0349065847695,0.0977384373546
76,1644543082401394844,-0.0294199492782,-9.61051654816,0.57859236002,acc,,,
77,1644543082401552677,,,,gyr,0.122173048556,-0.102974422276,0.0802851468325
78,1644543082402101040,,,,gyr,-0.0925024524331,0.0802851468325,-0.153588980436
79,1644543082402555466,,,,gyr,0.23212878406,0.0296705961227,0.104719758034
80,1644543082403057575,,,,gyr,-0.0174532923847,-0.0471238903701,-0.00872664619237
81,1644543082403409958,-0.0294199492782,-9.62032318115,0.627625584602,acc,,,
82,1644543082403557777,,,,gyr,0.0558505356312,0.0139626339078,-0.0471238903701
83,1644543082404060364,,,,gyr,0.0279252678156,0.0349065847695,-0.0349065847695
84,1644543082404608727,,,,gyr,-0.0174532923847,0.0436332300305,0.0139626339078
85,1644543082405062675,,,,gyr,0.0785398185253,-0.069813169539,0.11344639957
86,1644543082405426979,0.00980664975941,-9.64974308014,0.696272134781,acc,,,
87,1644543082405565262,,,,gyr,0.0383972451091,0.0,-0.0191986225545
88,1644543082406065464,,,,gyr,0.0436332300305,-0.0209439508617,-0.0715584978461
89,1644543082406567574,,,,gyr,0.0436332300305,0.0,0.0959931090474
90,1644543082407115936,,,,gyr,-0.0261799395084,0.0610865242779,-0.11344639957
91,1644543082407440186,-0.0294199492782,-9.61051654816,0.686465501785,acc,,,
92,1644543082407570362,,,,gyr,0.0523598790169,0.0436332300305,0.0872664600611
93,1644543082408072472,,,,gyr,-0.0261799395084,-0.0785398185253,-0.0471238903701
94,1644543082408572912,,,,gyr,0.130899697542,0.0785398185253,0.0191986225545
95,1644543082409075260,,,,gyr,-0.0436332300305,-0.0209439508617,0.0349065847695
96,1644543082409455538,0.00980664975941,-9.57129001617,0.666852176189,acc,,,
97,1644543082409623623,,,,gyr,0.0349065847695,-0.0174532923847,-0.069813169539
98,1644543082410077810,,,,gyr,0.0785398185253,-0.00349065847695,-0.00523598771542
99,1644543082410580158,,,,gyr,0.0226892791688,0.0523598790169,0.0523598790169
100,1644543082411080360,,,,gyr,0.0069813169539,-0.0506145469844,-0.0872664600611
101,1644543082411468744,0.0,-9.62032318115,0.696272134781,acc,,,
102,1644543082411582708,,,,gyr,-0.0383972451091,0.0104719754308,0.0104719754308
103,1644543082412131071,,,,gyr,0.0680678412318,-0.0471238903701,-0.0349065847695
104,1644543082412585258,,,,gyr,0.0069813169539,0.0418879017234,0.0645771846175
105,1644543082413087606,,,,gyr,-0.0506145469844,-0.0296705961227,-0.0104719754308
106,1644543082413483858,-0.0392265990376,-9.61051654816,0.725692093372,acc,,,
107,1644543082413587809,,,,gyr,0.0383972451091,0.0209439508617,-0.0209439508617
108,1644543082414090157,,,,gyr,0.0279252678156,-0.0349065847695,0.00174532923847
109,1644543082414638519,,,,gyr,-0.102974422276,0.0680678412318,-0.0349065847695
110,1644543082415092707,,,,gyr,0.0174532923847,-0.0767944902182,-0.0226892791688
111,1644543082415498972,-0.00980664975941,-9.58109664917,0.666852176189,acc,,,
112,1644543082415595055,,,,gyr,-0.0104719754308,0.0506145469844,0.0959931090474
113,1644543082416095495,,,,gyr,0.0436332300305,-0.0523598790169,-0.0558505356312
114,1644543082416597605,,,,gyr,-0.00349065847695,-0.00523598771542,0.0174532923847
115,1644543082417145967,,,,gyr,-0.0471238903701,0.0645771846175,0.0174532923847
116,1644543082417514086,-0.00980664975941,-9.62032318115,0.558979034424,acc,,,
117,1644543082417600393,,,,gyr,-0.0872664600611,-0.0209439508617,-0.0506145469844
118,1644543082418102503,,,,gyr,0.144862323999,0.0,0.104719758034
119,1644543082418602705,,,,gyr,-0.144862323999,-0.0139626339078,-0.179768905044
120,1644543082419105291,,,,gyr,0.0279252678156,0.0471238903701,0.132645025849
121,1644543082419531584,0.00980664975941,-9.62032318115,0.666852176189,acc,,,
122,1644543082419653654,,,,gyr,-0.0436332300305,-0.0296705961227,-0.0191986225545
123,1644543082420107603,,,,gyr,0.0226892791688,0.0104719754308,-0.0610865242779
124,1644543082420610189,,,,gyr,0.0296705961227,-0.00523598771542,0.0750491544604
125,1644543082421110392,,,,gyr,-0.104719758034,0.0,0.00174532923847
126,1644543082421544790,-0.00980664975941,-9.61051654816,0.686465501785,acc,,,
127,1644543082421612501,,,,gyr,-0.0296705961227,0.104719758034,-0.165806278586
128,1644543082422160864,,,,gyr,0.0069813169539,-0.0610865242779,0.0680678412318
129,1644543082422615290,,,,gyr,-0.0296705961227,0.0191986225545,0.0383972451091
130,1644543082423117399,,,,gyr,-0.0296705961227,-0.0872664600611,0.0872664600611
131,1644543082423559904,-0.0392265990376,-9.58109664917,0.696272134781,acc,,,
132,1644543082423617840,,,,gyr,-0.00872664619237,0.0069813169539,-0.00523598771542
133,1644543082424120188,,,,gyr,-0.0209439508617,-0.0104719754308,-0.101229093969
134,1644543082424668550,,,,gyr,-0.0680678412318,0.118682384491,0.0593411922455
135,1644543082425122738,,,,gyr,-0.0680678412318,-0.0785398185253,0.00349065847695
136,1644543082425573111,-0.0392265990376,-9.57129001617,0.725692093372,acc,,,
137,1644543082425625086,,,,gyr,0.0069813169539,0.0069813169539,-0.0191986225545
138,1644543082426125288,,,,gyr,-0.0471238903701,0.0436332300305,0.0261799395084
139,1644543082426627636,,,,gyr,-0.101229093969,-0.0715584978461,-0.069813169539
140,1644543082427175999,,,,gyr,-0.0314159244299,0.0226892791688,0.130899697542
141,1644543082427588224,0.0,-9.61051654816,0.666852176189,acc,,,
142,1644543082427630186,,,,gyr,-0.0383972451091,0.0349065847695,-0.0610865242779
143,1644543082428132534,,,,gyr,0.0,0.0209439508617,-0.0506145469844
144,1644543082428632736,,,,gyr,-0.0767944902182,-0.069813169539,0.00349065847695
145,1644543082429135084,,,,gyr,-0.0349065847695,0.0296705961227,0.0209439508617
146,1644543082429603338,-0.00980664975941,-9.61051654816,0.558979034424,acc,,,
147,1644543082429683447,,,,gyr,-0.069813169539,0.0296705961227,-0.0296705961227
148,1644543082430137634,,,,gyr,-0.00872664619237,-0.0645771846175,0.0977384373546
149,1644543082430639982,,,,gyr,-0.106465086341,0.069813169539,-0.150098308921
150,1644543082431140184,,,,gyr,-0.0436332300305,-0.0506145469844,0.0523598790169
151,1644543082431618452,-0.0784531980753,-9.64974308014,0.549172401428,acc,,,
152,1644543082431642532,,,,gyr,-0.0802851468325,-0.0349065847695,-0.0383972451091
153,1644543082432190895,,,,gyr,-0.0383972451091,0.0959931090474,0.0959931090474
154,1644543082432645082,,,,gyr,-0.00523598771542,-0.0296705961227,-0.0872664600611
155,1644543082433147430,,,,gyr,-0.0610865242779,-0.0174532923847,0.0296705961227
156,1644543082433633804,-0.0392265990376,-9.61051654816,0.558979034424,acc,,,
157,1644543082433647633,,,,gyr,-0.0523598790169,-0.0645771846175,0.0174532923847
158,1644543082434149981,,,,gyr,-0.0226892791688,0.0959931090474,-0.0069813169539
159,1644543082434698343,,,,gyr,-0.0610865242779,-0.0523598790169,-0.0296705961227
160,1644543082435152531,,,,gyr,0.0,0.0855211317539,0.0610865242779
161,1644543082435648918,0.00980664975941,-9.61051654816,0.598205626011,acc,,,
162,1644543082435654879,,,,gyr,-0.0314159244299,-0.141371667385,-0.069813169539
163,1644543082436155319,,,,gyr,-0.0610865242779,0.11344639957,-0.0069813169539
164,1644543082436657429,,,,gyr,-0.0785398185253,-0.0680678412318,-0.0139626339078
165,1644543082437205791,,,,gyr,-0.0645771846175,-0.0139626339078,0.0750491544604
166,1644543082437660217,,,,gyr,0.00349065847695,0.0855211317539,-0.153588980436
167,1644543082437664032,0.0294199492782,-9.66935634613,0.627625584602,acc,,,
168,1644543082438162327,,,,gyr,-0.0523598790169,-0.0558505356312,0.188495561481
169,1644543082438662529,,,,gyr,-0.0296705961227,-0.00523598771542,-0.0942477807403
170,1644543082439165115,,,,gyr,-0.0104719754308,-0.0104719754308,0.0872664600611
171,1644543082439677238,-0.0392265990376,-9.61051654816,0.549172401428,acc,,,
172,1644543082439713478,,,,gyr,-0.0593411922455,0.0174532923847,-0.118682384491
173,1644543082440167427,,,,gyr,-0.0436332300305,0.00349065847695,0.0349065847695
174,1644543082440670013,,,,gyr,-0.0383972451091,0.0191986225545,-0.0383972451091
175,1644543082441170216,,,,gyr,-0.0174532923847,-0.0471238903701,0.0
176,1644543082441672325,,,,gyr,-0.0174532923847,0.0558505356312,0.0558505356312
177,1644543082441692352,-0.0294199492782,-9.61051654816,0.598205626011,acc,,,
178,1644543082442220688,,,,gyr,-0.0139626339078,-0.0139626339078,-0.0715584978461
179,1644543082442675114,,,,gyr,-0.0872664600611,0.0139626339078,0.0872664600611
180,1644543082443177223,,,,gyr,-0.0296705961227,-0.0209439508617,-0.0226892791688
181,1644543082443677664,,,,gyr,0.0226892791688,-0.0209439508617,-0.0069813169539
182,1644543082443707466,-0.0294199492782,-9.67916297913,0.549172401428,acc,,,
183,1644543082444180012,,,,gyr,-0.0349065847695,-0.0296705961227,0.00523598771542
184,1644543082444728374,,,,gyr,-0.0139626339078,0.0436332300305,-0.104719758034
185,1644543082445182562,,,,gyr,-0.0558505356312,-0.0872664600611,0.0925024524331
186,1644543082445684910,,,,gyr,-0.0767944902182,0.11344639957,-0.0977384373546
187,1644543082445720673,-0.0294199492782,-9.67916297913,0.549172401428,acc,,,
188,1644543082446185112,,,,gyr,-0.0104719754308,-0.0349065847695,0.0959931090474
189,1644543082446687460,,,,gyr,-0.0209439508617,0.0226892791688,-0.0471238903701
190,1644543082447235584,,,,gyr,0.0,-0.0296705961227,-0.00174532923847
191,1644543082447690010,,,,gyr,-0.0645771846175,-0.0191986225545,0.127409040928
192,1644543082447736025,-0.0392265990376,-9.61051654816,0.529559075832,acc,,,
193,1644543082448192358,,,,gyr,-0.0296705961227,-0.0139626339078,-0.130899697542
194,1644543082448692560,,,,gyr,-0.0104719754308,0.00872664619237,0.115191727877
195,1644543082449194908,,,,gyr,-0.069813169539,0.00523598771542,-0.0785398185253
196,1644543082449743271,,,,gyr,0.0872664600611,-0.0104719754308,-0.0226892791688
197,1644543082449751139,-0.0392265990376,-9.61051654816,0.558979034424,acc,,,
198,1644543082450197458,,,,gyr,-0.0383972451091,-0.0383972451091,0.0
199,1644543082450699806,,,,gyr,-0.0279252678156,0.0610865242779,0.0558505356312
200,1644543082451200008,,,,gyr,0.00523598771542,0.00523598771542,-0.0610865242779
201,1644543082451702356,,,,gyr,-0.0104719754308,-0.0104719754308,0.0680678412318
202,1644543082451766253,-0.0686465501785,-9.66935634613,0.57859236002,acc,,,
203,1644543082452250719,,,,gyr,-0.0436332300305,-0.0349065847695,-0.0226892791688
204,1644543082452704906,,,,gyr,0.0209439508617,0.0,-0.0209439508617
205,1644543082453207254,,,,gyr,-0.0174532923847,0.0104719754308,0.0314159244299
206,1644543082453707457,,,,gyr,0.0209439508617,-0.0296705961227,0.0139626339078
207,1644543082453781605,-0.00980664975941,-9.61051654816,0.558979034424,acc,,,
208,1644543082454209805,,,,gyr,-0.130899697542,0.0593411922455,-0.0645771846175
209,1644543082454758167,,,,gyr,-0.0069813169539,-0.069813169539,-0.0104719754308
210,1644543082455212355,,,,gyr,0.130899697542,-0.0471238903701,0.115191727877
211,1644543082455712557,,,,gyr,-0.104719758034,0.0750491544604,-0.0785398185253
212,1644543082455796719,-0.00980664975941,-9.61051654816,0.598205626011,acc,,,
213,1644543082456215143,,,,gyr,0.0471238903701,-0.0436332300305,-0.0174532923847
214,1644543082456717253,,,,gyr,-0.0436332300305,0.0174532923847,0.0558505356312
215,1644543082457265615,,,,gyr,0.0296705961227,-0.0610865242779,0.0523598790169
216,1644543082457720041,,,,gyr,0.0209439508617,0.0750491544604,-0.104719758034
217,1644543082457812071,-0.0686465501785,-9.61051654816,0.57859236002,acc,,,
218,1644543082458222151,,,,gyr,0.00523598771542,0.0,0.00523598771542
219,1644543082458722353,,,,gyr,0.0226892791688,0.0139626339078,0.0523598790169
220,1644543082459224939,,,,gyr,-0.0471238903701,-0.0261799395084,-0.0715584978461
221,1644543082459773064,,,,gyr,0.00349065847695,0.0069813169539,0.0645771846175
222,1644543082459825277,-0.00980664975941,-9.61051654816,0.598205626011,acc,,,
223,1644543082460227251,,,,gyr,0.0069813169539,0.0,-0.0226892791688
224,1644543082460729837,,,,gyr,0.0174532923847,-0.0436332300305,0.069813169539
225,1644543082461230040,,,,gyr,-0.0523598790169,0.0593411922455,-0.23212878406
226,1644543082461732149,,,,gyr,0.0174532923847,-0.0558505356312,0.25830873847
227,1644543082461840391,-0.00980664975941,-9.61051654816,0.598205626011,acc,,,
228,1644543082462280512,,,,gyr,0.0383972451091,-0.0191986225545,-0.0296705961227
229,1644543082462734938,,,,gyr,-0.00523598771542,0.0314159244299,-0.0837758034468
230,1644543082463237047,,,,gyr,0.00349065847695,0.0383972451091,-0.0226892791688
231,1644543082463737249,,,,gyr,0.0383972451091,-0.0523598790169,0.0383972451091
232,1644543082463855505,-0.0392265990376,-9.62032318115,0.627625584602,acc,,,
233,1644543082464239836,,,,gyr,0.0,0.0261799395084,-0.0959931090474
234,1644543082464788198,,,,gyr,-0.0296705961227,-0.0209439508617,0.21991148591
235,1644543082465242147,,,,gyr,-0.0558505356312,0.0349065847695,-0.205948844552
236,1644543082465744734,,,,gyr,0.158824965358,-0.0593411922455,0.167551606894
237,1644543082465870619,-0.0686465501785,-9.66935634613,0.598205626011,acc,,,
238,1644543082466244936,,,,gyr,-0.0610865242779,-0.0069813169539,0.0436332300305
239,1644543082466747046,,,,gyr,-0.0261799395084,0.0750491544604,-0.129154369235
240,1644543082467295408,,,,gyr,0.0209439508617,-0.0558505356312,0.0296705961227
241,1644543082467749834,,,,gyr,-0.0680678412318,0.0209439508617,-0.00174532923847
242,1644543082467883825,0.0,-9.62032318115,0.598205626011,acc,,,
243,1644543082468251944,,,,gyr,0.0174532923847,-0.106465086341,0.0471238903701
244,1644543082468752146,,,,gyr,0.0279252678156,0.0785398185253,-0.0506145469844
245,1644543082469254732,,,,gyr,0.0610865242779,-0.00349065847695,0.0209439508617
246,1644543082469803095,,,,gyr,0.0104719754308,0.0523598790169,0.069813169539
247,1644543082469898939,0.0,-9.64974308014,0.666852176189,acc,,,
248,1644543082470257044,,,,gyr,0.00872664619237,-0.0471238903701,-0.104719758034
249,1644543082470759630,,,,gyr,-0.0471238903701,-0.0349065847695,0.0959931090474
250,1644543082471259832,,,,gyr,0.0314159244299,0.0296705961227,-0.0872664600611
251,1644543082471761942,,,,gyr,0.00523598771542,-0.0139626339078,0.0977384373546
252,1644543082471914053,-0.0294199492782,-9.62032318115,0.57859236002,acc,,,
253,1644543082472310305,,,,gyr,0.0296705961227,0.0104719754308,-0.0785398185253
254,1644543082472764730,,,,gyr,0.0349065847695,0.0209439508617,0.102974422276
255,1644543082473264933,,,,gyr,-0.0523598790169,-0.0471238903701,-0.111701071262
256,1644543082473767281,,,,gyr,0.0645771846175,0.0785398185253,0.0349065847695
257,1644543082473927259,-0.0392265990376,-9.62032318115,0.57859236002,acc,,,
258,1644543082474269629,,,,gyr,-0.0069813169539,-0.0383972451091,0.00523598771542
259,1644543082474817753,,,,gyr,0.0610865242779,0.0139626339078,-0.0139626339078
260,1644543082475272179,,,,gyr,-0.0209439508617,-0.0349065847695,0.0069813169539
261,1644543082475772381,,,,gyr,0.0349065847695,0.0314159244299,0.0645771846175
262,1644543082475942612,-0.00980664975941,-9.58109664917,0.598205626011,acc,,,
263,1644543082476274729,,,,gyr,0.00174532923847,-0.0942477807403,-0.0349065847695
264,1644543082476777077,,,,gyr,0.0558505356312,0.0610865242779,-0.0802851468325
265,1644543082477325201,,,,gyr,0.0523598790169,0.0209439508617,0.0802851468325
266,1644543082477779627,,,,gyr,0.0558505356312,-0.0296705961227,0.0226892791688
267,1644543082477957726,-0.0686465501785,-9.61051654816,0.598205626011,acc,,,
268,1644543082478279829,,,,gyr,0.00349065847695,0.0349065847695,-0.0558505356312
269,1644543082478782177,,,,gyr,-0.0174532923847,0.0296705961227,0.00174532923847
270,1644543082479284525,,,,gyr,0.0349065847695,-0.130899697542,-0.0209439508617
271,1644543082479832649,,,,gyr,0.122173048556,0.0872664600611,0.0610865242779
272,1644543082479972839,-0.0392265990376,-9.62032318115,0.637432217598,acc,,,
273,1644543082480287075,,,,gyr,-0.0855211317539,-0.0104719754308,0.0436332300305
274,1644543082480787277,,,,gyr,0.0837758034468,-0.0296705961227,-0.0104719754308
275,1644543082481289625,,,,gyr,-0.0296705961227,0.0558505356312,0.0
276,1644543082481791973,,,,gyr,0.0715584978461,-0.104719758034,-0.0296705961227
277,1644543082481986046,-0.00980664975941,-9.61051654816,0.598205626011,acc,,,
278,1644543082482340336,,,,gyr,-0.0593411922455,0.0977384373546,0.0383972451091
279,1644543082482794523,,,,gyr,0.0959931090474,-0.0785398185253,0.0104719754308
280,1644543082483294725,,,,gyr,0.0296705961227,0.0383972451091,0.0296705961227
281,1644543082483797073,,,,gyr,0.0610865242779,-0.0104719754308,0.00174532923847
282,1644543082484001160,-0.0392265990376,-9.61051654816,0.627625584602,acc,,,
283,1644543082484299421,,,,gyr,-0.0523598790169,0.0209439508617,-0.0925024524331
284,1644543082484847546,,,,gyr,0.0837758034468,-0.0209439508617,0.0593411922455
285,1644543082485301971,,,,gyr,0.0750491544604,0.0139626339078,0.0104719754308
286,1644543082485802174,,,,gyr,-0.00174532923847,0.0523598790169,-0.0645771846175
287,1644543082486016273,-0.00980664975941,-9.64974308014,0.598205626011,acc,,,
288,1644543082486304522,,,,gyr,-0.0296705961227,-0.0610865242779,0.0802851468325
289,1644543082486806870,,,,gyr,0.101229093969,-0.153588980436,-0.0855211317539
290,1644543082487355232,,,,gyr,0.00174532923847,0.139626339078,0.0645771846175
291,1644543082487809420,,,,gyr,0.0872664600611,-0.0767944902182,-0.0296705961227
292,1644543082488031387,-0.00980664975941,-9.62032318115,0.598205626011,acc,,,
293,1644543082488309860,,,,gyr,0.0226892791688,0.0523598790169,0.0785398185253
294,1644543082488811970,,,,gyr,-0.0209439508617,0.0,-0.0471238903701
295,1644543082489314318,,,,gyr,0.0680678412318,0.0104719754308,0.0436332300305
296,1644543082489862442,,,,gyr,0.0837758034468,-0.0785398185253,-0.0349065847695
297,1644543082490046740,-0.12748645246,-9.62032318115,0.549172401428,acc,,,
298,1644543082490316868,,,,gyr,0.00523598771542,-0.0279252678156,-0.0645771846175
299,1644543082490817070,,,,gyr,0.0139626339078,0.0942477807403,0.136135682464
300,1644543082491319656,,,,gyr,0.158824965358,0.0139626339078,-0.118682384491
301,1644543082491821766,,,,gyr,0.0436332300305,-0.0610865242779,-0.0226892791688
302,1644543082492059708,-0.0392265990376,-9.64974308014,0.637432217598,acc,,,
303,1644543082492370129,,,,gyr,-0.0261799395084,0.102974422276,0.0785398185253
304,1644543082492824316,,,,gyr,0.153588980436,-0.0872664600611,0.0
305,1644543082493324757,,,,gyr,-0.0261799395084,0.0,-0.0349065847695
306,1644543082493826866,,,,gyr,0.118682384491,0.0349065847695,0.0104719754308
307,1644543082494075060,-0.00980664975941,-9.64974308014,0.57859236002,acc,,,
308,1644543082494329214,,,,gyr,0.0139626339078,-0.0436332300305,0.0872664600611
309,1644543082494877338,,,,gyr,0.0174532923847,0.0383972451091,-0.130899697542
310,1644543082495331764,,,,gyr,0.0523598790169,-0.0191986225545,-0.0104719754308
311,1644543082495831966,,,,gyr,0.104719758034,-0.0296705961227,0.069813169539
312,1644543082496090412,0.0,-9.62032318115,0.598205626011,acc,,,
313,1644543082496334553,,,,gyr,0.0855211317539,-0.00523598771542,-0.0558505356312
314,1644543082496836662,,,,gyr,0.0523598790169,0.0942477807403,0.0558505356312
315,1644543082497385025,,,,gyr,0.0349065847695,-0.0139626339078,-0.0383972451091
316,1644543082497839451,,,,gyr,0.0855211317539,-0.0593411922455,-0.0645771846175
317,1644543082498105526,-0.00980664975941,-9.64974308014,0.666852176189,acc,,,
318,1644543082498339653,,,,gyr,0.127409040928,-0.0226892791688,0.0942477807403
319,1644543082498841763,,,,gyr,0.0349065847695,0.0506145469844,0.0174532923847
320,1644543082499344349,,,,gyr,0.0959931090474,-0.102974422276,0.0226892791688
321,1644543082499892235,,,,gyr,0.0610865242779,0.0645771846175,-0.0942477807403
322,1644543082500120640,-0.00980664975941,-9.58109664917,0.598205626011,acc,,,
323,1644543082500346661,,,,gyr,0.069813169539,-0.0558505356312,0.141371667385
324,1644543082500846863,,,,gyr,0.0191986225545,0.0139626339078,-0.0872664600611
325,1644543082501349449,,,,gyr,0.0558505356312,0.0506145469844,0.0506145469844
326,1644543082501851559,,,,gyr,0.122173048556,-0.0226892791688,-0.0872664600611
327,1644543082502135754,0.00980664975941,-9.64974308014,0.598205626011,acc,,,
328,1644543082502399921,,,,gyr,0.0069813169539,-0.0279252678156,0.0296705961227
329,1644543082502854347,,,,gyr,0.120427720249,-0.00174532923847,-0.0174532923847
330,1644543082503354549,,,,gyr,0.0523598790169,-0.0959931090474,0.0226892791688
331,1644543082503856659,,,,gyr,0.141371667385,0.0523598790169,-0.0104719754308
332,1644543082504150867,-0.00980664975941,-9.64974308014,0.627625584602,acc,,,
333,1644543082504359245,,,,gyr,0.0349065847695,0.0383972451091,0.0785398185253
334,1644543082504907370,,,,gyr,0.127409040928,-0.0610865242779,-0.0104719754308
335,1644543082505361557,,,,gyr,0.0226892791688,0.0174532923847,-0.0593411922455
336,1644543082505861759,,,,gyr,0.127409040928,0.069813169539,0.0523598790169
337,1644543082506164074,-0.0686465501785,-9.61051654816,0.598205626011,acc,,,
338,1644543082506364346,,,,gyr,0.0471238903701,-0.129154369235,-0.069813169539
339,1644543082506866455,,,,gyr,0.0104719754308,0.0209439508617,0.0436332300305
340,1644543082507414818,,,,gyr,0.162315621972,0.0558505356312,0.00523598771542
341,1644543082507869244,,,,gyr,0.0506145469844,-0.0750491544604,0.00872664619237
342,1644543082508179188,-0.00980664975941,-9.61051654816,0.558979034424,acc,,,
343,1644543082508369446,,,,gyr,0.069813169539,-0.0349065847695,0.0209439508617
344,1644543082508871555,,,,gyr,0.0890117883682,0.0104719754308,-0.0296705961227
345,1644543082509371758,,,,gyr,0.120427720249,0.0139626339078,-0.0226892791688
346,1644543082509922266,,,,gyr,0.0296705961227,0.0191986225545,0.0
347,1644543082510196447,0.0,-9.64974308014,0.666852176189,acc,,,
348,1644543082510376453,,,,gyr,0.11344639957,-0.0523598790169,0.0139626339078
349,1644543082510876656,,,,gyr,0.0959931090474,0.0226892791688,0.111701071262
350,1644543082511379242,,,,gyr,0.0593411922455,-0.0436332300305,-0.120427720249
351,1644543082511881351,,,,gyr,0.111701071262,-0.0872664600611,0.136135682464
352,1644543082512209415,-0.00980664975941,-9.61051654816,0.637432217598,acc,,,
353,1644543082512429714,,,,gyr,0.0436332300305,0.171042263508,-0.0855211317539
354,1644543082512884140,,,,gyr,0.0209439508617,-0.0872664600611,0.0174532923847
355,1644543082513384342,,,,gyr,0.118682384491,0.0296705961227,-0.0715584978461
356,1644543082513886452,,,,gyr,0.150098308921,-0.127409040928,0.0802851468325
357,1644543082514224768,-0.0294199492782,-9.58109664917,0.57859236002,acc,,,
358,1644543082514388800,,,,gyr,0.0418879017234,-0.00174532923847,-0.115191727877
359,1644543082514937162,,,,gyr,0.11344639957,0.0104719754308,0.102974422276
360,1644543082515391350,,,,gyr,0.0261799395084,0.00174532923847,-0.0349065847695
361,1644543082515891552,,,,gyr,0.0680678412318,-0.0436332300305,0.0872664600611
362,1644543082516239882,-0.00980664975941,-9.61051654816,0.666852176189,acc,,,
363,1644543082516394138,,,,gyr,0.136135682464,-0.0139626339078,-0.0209439508617
364,1644543082516896248,,,,gyr,0.0977384373546,-0.069813169539,-0.118682384491
365,1644543082517444611,,,,gyr,0.104719758034,-0.00523598771542,0.122173048556
366,1644543082517899036,,,,gyr,0.0279252678156,0.0209439508617,-0.0069813169539
367,1644543082518255234,0.0,-9.64974308014,0.627625584602,acc,,,
368,1644543082518399239,,,,gyr,0.130899697542,0.0069813169539,-0.0593411922455
369,1644543082518901348,,,,gyr,0.0209439508617,-0.00174532923847,-0.0349065847695
370,1644543082519403696,,,,gyr,0.188495561481,-0.0506145469844,0.11344639957
371,1644543082519952059,,,,gyr,0.0349065847695,-0.0104719754308,-0.0977384373546
372,1644543082520268202,-0.00980664975941,-9.61051654816,0.686465501785,acc,,,
373,1644543082520406246,,,,gyr,0.0977384373546,-0.0279252678156,0.0349065847695
374,1644543082520906448,,,,gyr,-0.00872664619237,0.0139626339078,0.0174532923847
375,1644543082521409035,,,,gyr,0.157079637051,-0.00174532923847,-0.0942477807403
376,1644543082521911144,,,,gyr,0.0593411922455,0.00872664619237,0.111701071262
377,1644543082522283554,-0.00980664975941,-9.62032318115,0.627625584602,acc,,,
378,1644543082522459507,,,,gyr,0.118682384491,-0.0226892791688,0.0261799395084
379,1644543082522913933,,,,gyr,0.0785398185253,0.00523598771542,0.00872664619237
380,1644543082523414135,,,,gyr,0.106465086341,-0.0610865242779,-0.0837758034468
381,1644543082523916245,,,,gyr,0.102974422276,-0.00174532923847,-0.0471238903701
382,1644543082524298668,-0.00980664975941,-9.62032318115,0.558979034424,acc,,,
383,1644543082524418592,,,,gyr,0.0645771846175,-0.0436332300305,0.185004904866
384,1644543082524966955,,,,gyr,0.0959931090474,0.0471238903701,-0.144862323999
385,1644543082525421143,,,,gyr,0.176278248429,-0.0226892791688,0.0349065847695
386,1644543082525921583,,,,gyr,0.0069813169539,-0.0209439508617,0.00523598771542
387,1644543082526313782,-0.00980664975941,-9.64974308014,0.57859236002,acc,,,
388,1644543082526423931,,,,gyr,0.193731546402,-0.109955742955,0.130899697542
389,1644543082526924133,,,,gyr,0.0296705961227,0.0767944902182,-0.193731546402
390,1644543082527474403,,,,gyr,0.153588980436,-0.0226892791688,0.0785398185253
391,1644543082527928829,,,,gyr,0.150098308921,-0.0680678412318,-0.0506145469844
392,1644543082528328896,0.00980664975941,-9.58109664917,0.558979034424,acc,,,
393,1644543082528429031,,,,gyr,0.0383972451091,0.0,0.106465086341
394,1644543082528931141,,,,gyr,0.185004904866,0.0349065847695,-0.0226892791688
395,1644543082529431581,,,,gyr,0.120427720249,-0.00174532923847,-0.0226892791688
396,1644543082529981852,,,,gyr,0.0436332300305,-0.0209439508617,-0.0610865242779
397,1644543082530344009,-0.0392265990376,-9.62032318115,0.598205626011,acc,,,
398,1644543082530436039,,,,gyr,0.176278248429,-0.0261799395084,0.102974422276
399,1644543082530936480,,,,gyr,0.158824965358,-0.0209439508617,0.0226892791688
400,1644543082531438828,,,,gyr,0.141371667385,-0.0523598790169,-0.0872664600611
401,1644543082531939030,,,,gyr,0.150098308921,0.0383972451091,0.101229093969
402,1644543082532357216,0.0,-9.64974308014,0.627625584602,acc,,,
403,1644543082532489300,,,,gyr,0.0767944902182,-0.0296705961227,-0.0436332300305
404,1644543082532943487,,,,gyr,0.111701071262,-0.0418879017234,0.0349065847695
405,1644543082533443928,,,,gyr,0.136135682464,0.0383972451091,-0.0139626339078
406,1644543082533946037,,,,gyr,0.137881010771,-0.0174532923847,-0.0610865242779
407,1644543082534372330,0.0,-9.64974308014,0.627625584602,acc,,,
408,1644543082534446478,,,,gyr,0.165806278586,-0.0506145469844,0.0314159244299
409,1644543082534996748,,,,gyr,0.162315621972,-0.0226892791688,-0.102974422276
410,1644543082535450935,,,,gyr,0.0925024524331,0.0,0.069813169539
411,1644543082535951138,,,,gyr,0.130899697542,-0.0104719754308,0.0680678412318
412,1644543082536387444,0.0,-9.61051654816,0.558979034424,acc,,,
413,1644543082536453724,,,,gyr,0.136135682464,-0.0209439508617,-0.0523598790169
414,1644543082536953926,,,,gyr,0.197222203016,-0.0279252678156,0.0
415,1644543082537504196,,,,gyr,0.109955742955,0.0558505356312,0.0523598790169
416,1644543082537958384,,,,gyr,0.150098308921,-0.0506145469844,-0.00523598771542
417,1644543082538402557,-0.00980664975941,-9.58109664917,0.549172401428,acc,,,
418,1644543082538458824,,,,gyr,0.167551606894,-0.0645771846175,-0.0436332300305
419,1644543082538960934,,,,gyr,0.144862323999,0.0104719754308,0.109955742955
420,1644543082539461374,,,,gyr,0.197222203016,0.0069813169539,-0.0349065847695
421,1644543082540011644,,,,gyr,0.179768905044,-0.0261799395084,-0.0645771846175
422,1644543082540417910,-0.00980664975941,-9.64974308014,0.558979034424,acc,,,
423,1644543082540465832,,,,gyr,0.106465086341,-0.0139626339078,0.0349065847695
424,1644543082540966034,,,,gyr,0.144862323999,-0.0279252678156,-0.0750491544604
425,1644543082541468620,,,,gyr,0.214675500989,-0.00523598771542,0.0872664600611
426,1644543082541968822,,,,gyr,0.0837758034468,0.0,-0.0715584978461
427,1644543082542433023,0.0,-9.61051654816,0.57859236002,acc,,,
428,1644543082542519093,,,,gyr,0.228638127446,-0.069813169539,0.11344639957
429,1644543082542973280,,,,gyr,0.202458187938,0.0506145469844,-0.0349065847695
430,1644543082543473721,,,,gyr,0.205948844552,-0.0139626339078,-0.0104719754308
431,1644543082543975830,,,,gyr,0.144862323999,-0.0279252678156,-0.0645771846175
432,1644543082544448137,0.0,-9.64974308014,0.637432217598,acc,,,
433,1644543082544476271,,,,gyr,0.144862323999,0.0261799395084,0.0523598790169
434,1644543082545026541,,,,gyr,0.214675500989,0.0139626339078,0.0645771846175
435,1644543082545480728,,,,gyr,0.23212878406,-0.0959931090474,-0.0942477807403
436,1644543082545980930,,,,gyr,0.139626339078,0.0349065847695,0.0349065847695
437,1644543082546461344,-0.00980664975941,-9.62032318115,0.57859236002,acc,,,
438,1644543082546483517,,,,gyr,0.150098308921,0.0139626339078,0.0209439508617
439,1644543082546983719,,,,gyr,0.228638127446,-0.0610865242779,-0.069813169539
440,1644543082547533989,,,,gyr,0.185004904866,0.0680678412318,0.0645771846175
441,1644543082547988176,,,,gyr,0.21991148591,-0.141371667385,-0.0226892791688
442,1644543082548478603,0.00980664975941,-9.62032318115,0.549172401428,acc,,,
443,1644543082548488617,,,,gyr,0.185004904866,-0.00174532923847,0.069813169539
444,1644543082548990726,,,,gyr,0.21991148591,0.069813169539,-0.111701071262
445,1644543082549490929,,,,gyr,0.193731546402,-0.0069813169539,0.144862323999
446,1644543082550041437,,,,gyr,0.185004904866,-0.0785398185253,-0.0593411922455
447,1644543082550491810,0.0,-9.64974308014,0.627625584602,acc,,,
448,1644543082550495625,,,,gyr,0.197222203016,0.0610865242779,0.0209439508617
449,1644543082550995827,,,,gyr,0.211184844375,-0.0785398185253,0.0261799395084
450,1644543082551498175,,,,gyr,0.205948844552,-0.0558505356312,-0.0296705961227
451,1644543082551998615,,,,gyr,0.254818081856,0.106465086341,0.0104719754308
452,1644543082552506924,-0.0392265990376,-9.58109664917,0.558979034424,acc,,,
453,1644543082552548885,,,,gyr,0.193731546402,-0.0767944902182,0.0349065847695
454,1644543082553003073,,,,gyr,0.188495561481,-0.0069813169539,-0.0209439508617
455,1644543082553503513,,,,gyr,0.179768905044,-0.0226892791688,-0.0785398185253
456,1644543082554005623,,,,gyr,0.280998021364,-0.0610865242779,0.0977384373546
457,1644543082554505825,,,,gyr,0.205948844552,0.0471238903701,-0.0104719754308
458,1644543082554520130,-0.0686465501785,-9.61051654816,0.57859236002,acc,,,
459,1644543082555056095,,,,gyr,0.235619440675,0.0,-0.104719758034
460,1644543082555510521,,,,gyr,0.211184844375,-0.0209439508617,0.0471238903701
461,1644543082556010723,,,,gyr,0.261799395084,-0.0523598790169,0.0296705961227
462,1644543082556513071,,,,gyr,0.197222203016,-0.0558505356312,0.0436332300305
463,1644543082556535244,0.0,-9.58109664917,0.627625584602,acc,,,
464,1644543082557013512,,,,gyr,0.21991148591,0.0104719754308,-0.0872664600611
465,1644543082557563782,,,,gyr,0.23212878406,-0.0191986225545,0.0471238903701
466,1644543082558017969,,,,gyr,0.270526021719,-0.0174532923847,-0.0069813169539
467,1644543082558518410,,,,gyr,0.202458187938,0.0523598790169,0.069813169539
468,1644543082558550358,0.00980664975941,-9.62032318115,0.57859236002,acc,,,
469,1644543082559020519,,,,gyr,0.275762021542,-0.0959931090474,-0.0610865242779
470,1644543082559520721,,,,gyr,0.148352980614,0.069813169539,0.0104719754308
471,1644543082560070992,,,,gyr,0.32637655735,-0.0959931090474,0.0593411922455
472,1644543082560523510,,,,gyr,0.193731546402,0.0523598790169,-0.104719758034
473,1644543082560565472,0.00980664975941,-9.66935634613,0.598205626011,acc,,,
474,1644543082561025620,,,,gyr,0.211184844375,0.0104719754308,0.127409040928
475,1644543082561527967,,,,gyr,0.237364768982,-0.0296705961227,-0.0593411922455
476,1644543082562028408,,,,gyr,0.28274333477,-0.0610865242779,0.0593411922455
477,1644543082562578678,,,,gyr,0.211184844375,0.0349065847695,-0.069813169539
478,1644543082562578678,-0.0686465501785,-9.58109664917,0.666852176189,acc,,,
479,1644543082563030720,,,,gyr,0.280998021364,-0.0977384373546,0.0715584978461
480,1644543082563533306,,,,gyr,0.214675500989,0.0174532923847,-0.0593411922455
481,1644543082564035416,,,,gyr,0.23212878406,0.0139626339078,-0.0750491544604
482,1644543082564535618,,,,gyr,0.336848556995,-0.0680678412318,0.174532920122
483,1644543082564593792,-0.0784531980753,-9.64974308014,0.686465501785,acc,,,
484,1644543082565085888,,,,gyr,0.171042263508,-0.0174532923847,-0.0767944902182
485,1644543082565538406,,,,gyr,0.211184844375,0.0558505356312,-0.0802851468325
486,1644543082566040516,,,,gyr,0.272271364927,-0.0785398185253,0.158824965358
487,1644543082566542864,,,,gyr,0.244346097112,0.0610865242779,-0.144862323999
488,1644543082566608906,-0.0392265990376,-9.58109664917,0.696272134781,acc,,,
489,1644543082567043304,,,,gyr,0.25830873847,-0.0593411922455,0.0680678412318
490,1644543082567593575,,,,gyr,0.279252678156,-0.0174532923847,-0.102974422276
491,1644543082568047523,,,,gyr,0.185004904866,-0.0104719754308,0.0645771846175
492,1644543082568548203,,,,gyr,0.319395244122,-0.0383972451091,-0.0383972451091
493,1644543082568624020,0.0294199492782,-9.66935634613,0.696272134781,acc,,,
494,1644543082569050312,,,,gyr,0.197222203016,0.0680678412318,0.0645771846175
495,1644543082569550514,,,,gyr,0.237364768982,-0.0436332300305,0.00523598771542
496,1644543082570100784,,,,gyr,0.300196617842,-0.111701071262,0.0418879017234
497,1644543082570553303,,,,gyr,0.188495561481,0.0645771846175,-0.111701071262
498,1644543082570637226,-0.0294199492782,-9.66935634613,0.764918684959,acc,,,
499,1644543082571055412,,,,gyr,0.179768905044,-0.0296705961227,-0.0174532923847
500,1644543082571557522,,,,gyr,0.32637655735,-0.0942477807403,0.0802851468325
501,1644543082572058201,,,,gyr,0.162315621972,0.0785398185253,0.0209439508617
502,1644543082572608471,,,,gyr,0.253072738647,-0.0383972451091,-0.11344639957
503,1644543082572652340,-0.137293100357,-9.58109664917,0.764918684959,acc,,,
504,1644543082573062420,,,,gyr,0.275762021542,-0.0558505356312,0.132645025849
505,1644543082573563099,,,,gyr,0.176278248429,0.0418879017234,-0.0767944902182
506,1644543082574065208,,,,gyr,0.214675500989,-0.0680678412318,0.0139626339078
507,1644543082574565411,,,,gyr,0.275762021542,-0.0383972451091,0.00523598771542
508,1644543082574667454,-0.0686465501785,-9.62032318115,0.813951909542,acc,,,
509,1644543082575115681,,,,gyr,0.300196617842,-0.0279252678156,0.0436332300305
510,1644543082575568199,,,,gyr,0.205948844552,0.0471238903701,-0.0436332300305
511,1644543082576070309,,,,gyr,0.176278248429,-0.0523598790169,-0.0925024524331
512,1644543082576572418,,,,gyr,0.253072738647,-0.0209439508617,0.0959931090474
513,1644543082576682568,0.0294199492782,-9.66935634613,0.804145276546,acc,,,
514,1644543082577072859,,,,gyr,0.153588980436,0.0506145469844,-0.0715584978461
515,1644543082577623367,,,,gyr,0.280998021364,-0.0436332300305,0.0174532923847
516,1644543082578075409,,,,gyr,0.188495561481,-0.0174532923847,0.0802851468325
517,1644543082578577518,,,,gyr,0.249582082033,-0.0767944902182,-0.0645771846175
518,1644543082578695774,-0.0294199492782,-9.67916297913,0.804145276546,acc,,,
519,1644543082579080105,,,,gyr,0.211184844375,0.0523598790169,-0.0139626339078
520,1644543082579580307,,,,gyr,0.179768905044,-0.0261799395084,0.0645771846175
521,1644543082580130577,,,,gyr,0.226892799139,-0.0226892791688,-0.0296705961227
522,1644543082580582857,,,,gyr,0.21991148591,0.0104719754308,0.0523598790169
523,1644543082580710888,-0.12748645246,-9.57129001617,0.833565235138,acc,,,
524,1644543082581085205,,,,gyr,0.202458187938,-0.0925024524331,-0.179768905044
525,1644543082581587315,,,,gyr,0.136135682464,0.0523598790169,0.188495561481
526,1644543082582087755,,,,gyr,0.305432617664,-0.102974422276,-0.0837758034468
527,1644543082582638025,,,,gyr,0.0959931090474,0.0139626339078,0.0436332300305
528,1644543082582726002,-0.0686465501785,-9.64974308014,0.843371868134,acc,,,
529,1644543082583090305,,,,gyr,0.235619440675,0.0296705961227,-0.122173048556
530,1644543082583592415,,,,gyr,0.179768905044,-0.0436332300305,0.11344639957
531,1644543082584095001,,,,gyr,0.191986218095,-0.0139626339078,-0.0296705961227
532,1644543082584595203,,,,gyr,0.200712859631,-0.0104719754308,0.0471238903701
533,1644543082584741116,0.0,-9.62032318115,0.882598459721,acc,,,
534,1644543082585143566,,,,gyr,0.228638127446,-0.069813169539,-0.0750491544604
535,1644543082585597754,,,,gyr,0.0890117883682,0.0436332300305,0.0610865242779
536,1644543082586100101,,,,gyr,0.249582082033,-0.0558505356312,-0.0349065847695
537,1644543082586602211,,,,gyr,0.162315621972,-0.0925024524331,0.0261799395084
538,1644543082586756229,0.0,-9.64974308014,0.872791826725,acc,,,
539,1644543082587102652,,,,gyr,0.150098308921,0.0610865242779,-0.069813169539
540,1644543082587652922,,,,gyr,0.21991148591,-0.0471238903701,0.106465086341
541,1644543082588105202,,,,gyr,0.162315621972,0.0750491544604,-0.0750491544604
542,1644543082588607311,,,,gyr,0.171042263508,-0.129154369235,0.104719758034
543,1644543082588769436,-0.0980664938688,-9.62032318115,0.813951909542,acc,,,
544,1644543082589109659,,,,gyr,0.0837758034468,0.0925024524331,-0.174532920122
545,1644543082589610100,,,,gyr,0.291469991207,-0.127409040928,0.11344639957
546,1644543082590158463,,,,gyr,0.102974422276,0.0349065847695,-0.0523598790169
547,1644543082590612650,,,,gyr,0.176278248429,-0.0593411922455,0.0261799395084
548,1644543082590784550,-0.0392265990376,-9.62032318115,0.735498726368,acc,,,
549,1644543082591114998,,,,gyr,0.200712859631,-0.0279252678156,-0.069813169539
550,1644543082591617107,,,,gyr,0.132645025849,-0.0750491544604,0.0471238903701
551,1644543082592117548,,,,gyr,0.122173048556,0.0593411922455,-0.069813169539
552,1644543082592667818,,,,gyr,0.237364768982,-0.0645771846175,0.102974422276
553,1644543082592799902,0.0,-9.62032318115,0.833565235138,acc,,,
554,1644543082593120098,,,,gyr,0.0942477807403,-0.0610865242779,-0.0802851468325
555,1644543082593622208,,,,gyr,0.165806278586,0.0383972451091,0.0506145469844
556,1644543082594124556,,,,gyr,0.179768905044,-0.139626339078,-0.0471238903701
557,1644543082594624758,,,,gyr,0.102974422276,0.0610865242779,0.0418879017234
558,1644543082594815016,-0.0392265990376,-9.64974308014,0.843371868134,acc,,,
559,1644543082595175266,,,,gyr,0.136135682464,-0.0610865242779,0.0959931090474
560,1644543082595627546,,,,gyr,0.167551606894,-0.00174532923847,-0.132645025849
561,1644543082596129656,,,,gyr,0.153588980436,0.00523598771542,0.0139626339078
562,1644543082596632004,,,,gyr,0.141371667385,-0.0750491544604,0.0558505356312
563,1644543082596828222,-0.0784531980753,-9.58109664917,0.843371868134,acc,,,
564,1644543082597132206,,,,gyr,0.106465086341,-0.0506145469844,-0.0296705961227
565,1644543082597680569,,,,gyr,0.144862323999,0.0471238903701,-0.0104719754308
566,1644543082598134756,,,,gyr,0.106465086341,-0.104719758034,-0.0174532923847
567,1644543082598637104,,,,gyr,0.130899697542,0.0645771846175,-0.069813169539
568,1644543082598843336,-0.0392265990376,-9.64974308014,0.951245009899,acc,,,
569,1644543082599139452,,,,gyr,0.136135682464,-0.0977384373546,0.141371667385
570,1644543082599639654,,,,gyr,0.0872664600611,-0.00872664619237,-0.0209439508617
571,1644543082600189924,,,,gyr,0.136135682464,-0.0226892791688,-0.0750491544604
572,1644543082600642443,,,,gyr,0.11344639957,-0.0750491544604,0.0872664600611
573,1644543082600858450,0.00980664975941,-9.66935634613,0.912018418312,acc,,,
574,1644543082601144552,,,,gyr,0.136135682464,0.0226892791688,-0.0296705961227
575,1644543082601644754,,,,gyr,0.0506145469844,0.0436332300305,0.0104719754308
576,1644543082602147102,,,,gyr,0.109955742955,-0.0802851468325,-0.0785398185253
577,1644543082602695465,,,,gyr,0.0750491544604,-0.069813169539,-0.0349065847695
578,1644543082602871656,-0.0294199492782,-9.62032318115,0.912018418312,acc,,,
579,1644543082603149652,,,,gyr,0.136135682464,-0.069813169539,0.139626339078
580,1644543082603652000,,,,gyr,0.0226892791688,0.0593411922455,-0.0715584978461
581,1644543082604152441,,,,gyr,0.0436332300305,-0.0104719754308,-0.0715584978461
582,1644543082604654551,,,,gyr,0.122173048556,-0.0558505356312,0.0959931090474
583,1644543082604886770,-0.0686465501785,-9.61051654816,0.921825051308,acc,,,
584,1644543082605202913,,,,gyr,0.127409040928,-0.141371667385,0.0226892791688
585,1644543082605657339,,,,gyr,0.0471238903701,0.0296705961227,-0.069813169539
586,1644543082606159449,,,,gyr,0.0209439508617,-0.0436332300305,0.0296705961227
587,1644543082606661558,,,,gyr,0.132645025849,-0.0715584978461,0.0191986225545
588,1644543082606901884,-0.0392265990376,-9.64974308014,0.990471601486,acc,,,
589,1644543082607161999,,,,gyr,0.0,0.00349065847695,-0.137881010771
590,1644543082607712507,,,,gyr,0.104719758034,-0.0436332300305,0.0593411922455
591,1644543082608164549,,,,gyr,-0.0139626339078,-0.0174532923847,-0.0925024524331
592,1644543082608666658,,,,gyr,0.185004904866,-0.0506145469844,0.214675500989
593,1644543082608916998,-0.00980664975941,-9.64974308014,0.990471601486,acc,,,
594,1644543082609167337,,,,gyr,-0.130899697542,0.0226892791688,-0.197222203016
595,1644543082609669447,,,,gyr,0.167551606894,-0.0174532923847,0.130899697542
596,1644543082610217810,,,,gyr,0.0209439508617,-0.171042263508,0.0174532923847
597,1644543082610671759,,,,gyr,0.00523598771542,0.0890117883682,-0.0959931090474
598,1644543082610932112,0.00980664975941,-9.58109664917,1.01989161968,acc,,,
599,1644543082611174345,,,,gyr,0.0296705961227,-0.0593411922455,0.0593411922455
600,1644543082611674547,,,,gyr,0.0226892791688,0.00349065847695,0.0785398185253
601,1644543082612176657,,,,gyr,-0.0139626339078,-0.0471238903701,-0.0837758034468
602,1644543082612725019,,,,gyr,0.0139626339078,-0.0349065847695,0.0523598790169
603,1644543082612945318,-0.0784531980753,-9.64974308014,0.990471601486,acc,,,
604,1644543082613179445,,,,gyr,0.0383972451091,-0.0610865242779,-0.0680678412318
605,1644543082613681555,,,,gyr,0.0383972451091,0.0,0.0523598790169
606,1644543082614181995,,,,gyr,-0.102974422276,0.0942477807403,-0.104719758034
607,1644543082614684343,,,,gyr,0.104719758034,-0.0977384373546,0.165806278586
608,1644543082614960432,-0.0686465501785,-9.62032318115,1.01989161968,acc,,,
609,1644543082615232706,,,,gyr,-0.0314159244299,-0.0680678412318,-0.0872664600611
610,1644543082615686655,,,,gyr,-0.0872664600611,0.0139626339078,0.0261799395084
611,1644543082616189241,,,,gyr,0.0471238903701,-0.0523598790169,-0.0226892791688
612,1644543082616689444,,,,gyr,-0.0139626339078,0.0296705961227,0.0383972451091
613,1644543082616975546,-0.00980664975941,-9.62032318115,0.921825051308,acc,,,
614,1644543082617191553,,,,gyr,0.0,-0.0959931090474,0.00523598771542
615,1644543082617739916,,,,gyr,0.0139626339078,0.00174532923847,-0.0645771846175
616,1644543082618194342,,,,gyr,-0.101229093969,0.0750491544604,0.136135682464
617,1644543082618696451,,,,gyr,-0.0471238903701,-0.0942477807403,-0.122173048556
618,1644543082618990660,-0.0294199492782,-9.62032318115,0.951245009899,acc,,,
619,1644543082619196892,,,,gyr,0.0471238903701,0.0104719754308,-0.0471238903701
620,1644543082619699001,,,,gyr,-0.0942477807403,0.0296705961227,0.0383972451091
621,1644543082620247364,,,,gyr,0.0226892791688,-0.0785398185253,-0.0104719754308
622,1644543082620701551,,,,gyr,-0.0349065847695,-0.0436332300305,0.0471238903701
623,1644543082621005774,0.00980664975941,-9.61051654816,0.882598459721,acc,,,
624,1644543082621203899,,,,gyr,-0.0209439508617,0.0506145469844,-0.0104719754308
625,1644543082621704340,,,,gyr,-0.069813169539,-0.069813169539,0.118682384491
626,1644543082622206450,,,,gyr,-0.0226892791688,0.0104719754308,-0.144862323999
627,1644543082622754812,,,,gyr,-0.0209439508617,-0.0104719754308,0.0296705961227
628,1644543082623018980,-0.0294199492782,-9.62032318115,0.951245009899,acc,,,
629,1644543082623209000,,,,gyr,-0.0261799395084,-0.0436332300305,-0.0069813169539
630,1644543082623711348,,,,gyr,-0.0802851468325,0.0209439508617,0.0750491544604
631,1644543082624211788,,,,gyr,-0.0959931090474,-0.0645771846175,0.0349065847695
632,1644543082624713898,,,,gyr,-0.0261799395084,0.0296705961227,-0.0593411922455
633,1644543082625034094,-0.0686465501785,-9.58109664917,0.951245009899,acc,,,
634,1644543082625262260,,,,gyr,-0.102974422276,-0.0750491544604,-0.00174532923847
635,1644543082625716448,,,,gyr,-0.111701071262,0.0593411922455,0.00523598771542
636,1644543082626218796,,,,gyr,-0.0296705961227,0.00349065847695,0.0959931090474
637,1644543082626718998,,,,gyr,-0.0349065847695,-0.0767944902182,-0.0750491544604
638,1644543082627049208,-0.0294199492782,-9.58109664917,0.951245009899,acc,,,
639,1644543082627221346,,,,gyr,-0.0942477807403,0.0,0.00174532923847
640,1644543082627769709,,,,gyr,-0.0942477807403,0.0,0.00174532923847
641,1644543082628223896,,,,gyr,-0.11344639957,0.0,0.0261799395084
642,1644543082628726244,,,,gyr,0.00174532923847,-0.0226892791688,-0.0349065847695
643,1644543082629064560,-0.0392265990376,-9.61051654816,0.843371868134,acc,,,
644,1644543082629226446,,,,gyr,-0.148352980614,-0.0349065847695,0.0261799395084
645,1644543082629728794,,,,gyr,-0.0383972451091,0.0209439508617,-0.0209439508617
646,1644543082630277157,,,,gyr,-0.0174532923847,-0.0610865242779,0.0226892791688
647,1644543082630731344,,,,gyr,-0.0942477807403,0.0436332300305,0.00174532923847
648,1644543082631077528,-0.0294199492782,-9.62032318115,0.843371868134,acc,,,
649,1644543082631233692,,,,gyr,-0.11344639957,-0.0715584978461,0.0383972451091
650,1644543082631733894,,,,gyr,-0.109955742955,0.0436332300305,-0.0750491544604
651,1644543082632236004,,,,gyr,-0.0279252678156,-0.0523598790169,0.0977384373546
652,1644543082632784367,,,,gyr,-0.115191727877,-0.0680678412318,-0.0890117883682
653,1644543082633092880,-0.0392265990376,-9.66935634613,0.804145276546,acc,,,
654,1644543082633238792,,,,gyr,-0.0523598790169,0.0558505356312,-0.0069813169539
655,1644543082633740902,,,,gyr,-0.106465086341,0.0104719754308,0.0942477807403
656,1644543082634241104,,,,gyr,0.0,-0.0645771846175,-0.0471238903701
657,1644543082634743690,,,,gyr,-0.0645771846175,-0.0314159244299,0.0209439508617
658,1644543082635109901,0.0294199492782,-9.66935634613,0.804145276546,acc,,,
659,1644543082635292053,,,,gyr,-0.104719758034,0.0471238903701,0.0104719754308
660,1644543082635746002,,,,gyr,-0.0610865242779,-0.0436332300305,0.0383972451091
661,1644543082636248589,,,,gyr,-0.0471238903701,0.0209439508617,-0.0558505356312
662,1644543082636748791,,,,gyr,-0.111701071262,-0.0471238903701,0.0436332300305
663,1644543082637123108,-0.0294199492782,-9.62032318115,0.813951909542,acc,,,
664,1644543082637250900,,,,gyr,-0.069813169539,0.0174532923847,-0.0890117883682
665,1644543082637799263,,,,gyr,0.0,0.0,0.246091425419
666,1644543082638253689,,,,gyr,-0.0872664600611,-0.0104719754308,-0.144862323999
667,1644543082638755798,,,,gyr,-0.0872664600611,0.00523598771542,0.00872664619237
668,1644543082639138222,-0.225552946329,-9.24767112732,1.20621788502,acc,,,
669,1644543082639256001,,,,gyr,-0.130899697542,-0.00349065847695,-0.0645771846175
670,1644543082639758348,,,,gyr,-0.162315621972,-0.0174532923847,-0.00523598771542
671,1644543082640306711,,,,gyr,-0.32637655735,-0.0593411922455,0.0610865242779
672,1644543082640760899,,,,gyr,-0.361283153296,0.0785398185253,-0.193731546402
673,1644543082641151190,-1.31409108639,-8.44352531433,4.16782617569,acc,,,
674,1644543082641263247,,,,gyr,-0.474729537964,-0.0506145469844,-0.197222203016
675,1644543082641763449,,,,gyr,-0.640535831451,-0.00523598771542,-0.0558505356312
676,1644543082642265797,,,,gyr,-0.544542729855,-0.0436332300305,-0.165806278586
677,1644543082642814159,,,,gyr,-0.689405024052,0.11344639957,-0.0209439508617
678,1644543082643166304,-0.421685934067,-10.0616226196,2.64779543877,acc,,,
679,1644543082643268347,,,,gyr,-0.745255589485,-0.137881010771,-0.188495561481
680,1644543082643770695,,,,gyr,-0.637045145035,-0.0680678412318,-0.111701071262
681,1644543082644270897,,,,gyr,-0.680678427219,-0.0349065847695,-0.0174532923847
682,1644543082644773245,,,,gyr,-0.762708902359,-0.0506145469844,-0.0523598790169
683,1644543082645181417,0.833565235138,-9.86548995972,0.402072638273,acc,,,
684,1644543082645321608,,,,gyr,-0.666715741158,0.0715584978461,-0.120427720249
685,1644543082645775795,,,,gyr,-0.637045145035,-0.0436332300305,-0.0383972451091
686,1644543082646278143,,,,gyr,-0.567232012749,-0.0680678412318,-0.0785398185253
687,1644543082646778345,,,,gyr,-0.593411922455,-0.0610865242779,-0.0349065847695
688,1644543082647196531,0.490332484245,-9.5222568512,-0.362846046686,acc,,,
689,1644543082647280693,,,,gyr,-0.523598790169,-0.00872664619237,-0.141371667385
690,1644543082647828817,,,,gyr,-0.532325446606,-0.0855211317539,0.0226892791688
691,1644543082648283243,,,,gyr,-0.490437507629,0.0279252678156,-0.0349065847695
692,1644543082648785353,,,,gyr,-0.413643032312,-0.102974422276,-0.00872664619237
693,1644543082649209738,-0.0294199492782,-10.0616226196,0.362846046686,acc,,,
694,1644543082649285793,,,,gyr,-0.575958669186,0.0349065847695,0.123918376863
695,1644543082649788141,,,,gyr,-0.488692194223,-0.0523598790169,-0.137881010771
696,1644543082650790453,,,,gyr,-0.490437507629,-0.104719758034,-0.0610865242779
697,1644543082651224852,0.0686465501785,-9.66935634613,1.01989161968,acc,,,
698,1644543082651293039,,,,gyr,-0.596902608871,-0.0191986225545,-0.0436332300305
699,1644543082651793242,,,,gyr,-0.457276254892,-0.0506145469844,0.0104719754308
700,1644543082652295351,,,,gyr,-0.507890820503,0.0226892791688,0.0436332300305
701,1644543082652843714,,,,gyr,-0.42760565877,-0.130899697542,-0.0558505356312
702,1644543082653239965,0.402072638273,-9.78703689575,0.882598459721,acc,,,
703,1644543082653298140,,,,gyr,-0.596902608871,-0.0069813169539,0.0226892791688
704,1644543082653800249,,,,gyr,-0.544542729855,0.0610865242779,0.0977384373546
705,1644543082654300451,,,,gyr,-0.488692194223,-0.0785398185253,-0.0610865242779
706,1644543082654803038,,,,gyr,-0.474729537964,-0.0226892791688,0.104719758034
707,1644543082655255079,0.0686465501785,-9.78703689575,0.686465501785,acc,,,
708,1644543082655351162,,,,gyr,-0.532325446606,-0.0139626339078,-0.0383972451091
709,1644543082655805349,,,,gyr,-0.570722639561,-0.0750491544604,0.153588980436
710,1644543082656307697,,,,gyr,-0.42760565877,-0.0139626339078,-0.0785398185253
711,1644543082656808138,,,,gyr,-0.413643032312,0.0174532923847,0.0890117883682
712,1644543082657268286,-0.225552946329,-9.49283695221,0.402072638273,acc,,,
713,1644543082657310247,,,,gyr,-0.518362760544,-0.069813169539,-0.0593411922455
714,1644543082657858610,,,,gyr,-0.42760565877,0.0,0.0942477807403
715,1644543082658312798,,,,gyr,-0.546288073063,-0.0226892791688,-0.0209439508617
716,1644543082658815145,,,,gyr,-0.363028466702,-0.0104719754308,0.0872664600611
717,1644543082659285307,0.0784531980753,-9.78703689575,0.362846046686,acc,,,
718,1644543082659315348,,,,gyr,-0.462512254715,-0.0593411922455,-0.0785398185253
719,1644543082659817696,,,,gyr,-0.368264466524,0.0471238903701,0.0959931090474
720,1644543082660366058,,,,gyr,-0.436332315207,-0.0645771846175,0.0436332300305
721,1644543082660820246,,,,gyr,-0.446804285049,-0.0104719754308,-0.0523598790169
722,1644543082661298513,0.196132987738,-9.86548995972,0.421685934067,acc,,,
723,1644543082661322594,,,,gyr,-0.335103213787,0.0,0.0471238903701
724,1644543082661822796,,,,gyr,-0.394444406033,-0.0523598790169,0.0349065847695
725,1644543082662325144,,,,gyr,-0.387463092804,0.00523598771542,0.0785398185253
726,1644543082662873268,,,,gyr,-0.28274333477,-0.0349065847695,-0.0436332300305
727,1644543082663313627,-0.00980664975941,-9.62032318115,0.245166242123,acc,,,
728,1644543082663327694,,,,gyr,-0.406661719084,0.0349065847695,0.0837758034468
729,1644543082663829803,,,,gyr,-0.253072738647,-0.167551606894,0.136135682464
730,1644543082664330244,,,,gyr,-0.448549628258,0.144862323999,-0.153588980436
731,1644543082664832592,,,,gyr,-0.165806278586,-0.150098308921,0.115191727877
732,1644543082665328741,0.0,-9.7478094101,0.0686465501785,acc,,,
733,1644543082665380955,,,,gyr,-0.275762021542,0.0785398185253,0.0890117883682
734,1644543082665834904,,,,gyr,-0.25830873847,-0.0139626339078,-0.0104719754308
735,1644543082666337490,,,,gyr,-0.280998021364,-0.0872664600611,-0.0383972451091
736,1644543082666837692,,,,gyr,-0.179768905044,0.0506145469844,0.165806278586
737,1644543082667339802,,,,gyr,-0.179768905044,-0.0139626339078,-0.0296705961227
738,1644543082667341709,0.00980664975941,-9.67916297913,0.166713044047,acc,,,
739,1644543082667888165,,,,gyr,-0.21991148591,-0.0436332300305,-0.0296705961227
740,1644543082668342590,,,,gyr,-0.197222203016,0.0261799395084,0.127409040928
741,1644543082668844700,,,,gyr,-0.141371667385,-0.0872664600611,0.069813169539
742,1644543082669344902,,,,gyr,-0.188495561481,0.0104719754308,-0.0436332300305
743,1644543082669356823,-0.00980664975941,-9.64974308014,0.264779537916,acc,,,
744,1644543082669847488,,,,gyr,-0.102974422276,0.0436332300305,0.0523598790169
745,1644543082670395613,,,,gyr,-0.202458187938,-0.0296705961227,-0.0349065847695
746,1644543082670849800,,,,gyr,-0.127409040928,-0.0349065847695,0.0436332300305
747,1644543082671352148,,,,gyr,-0.171042263508,0.0,-0.0226892791688
748,1644543082671370029,-0.0784531980753,-9.58109664917,0.421685934067,acc,,,
749,1644543082671852589,,,,gyr,-0.167551606894,0.118682384491,0.122173048556
750,1644543082672354698,,,,gyr,-0.0977384373546,-0.165806278586,-0.0593411922455
751,1644543082672903061,,,,gyr,-0.0139626339078,0.0104719754308,0.185004904866
752,1644543082673357248,,,,gyr,-0.183259576559,0.0261799395084,-0.0436332300305
753,1644543082673385143,-0.137293100357,-9.58109664917,0.490332484245,acc,,,
754,1644543082673859596,,,,gyr,-0.157079637051,-0.00174532923847,0.00523598771542
755,1644543082674359798,,,,gyr,-0.0436332300305,0.0523598790169,-0.0506145469844
756,1644543082674862146,,,,gyr,-0.148352980614,-0.0872664600611,0.111701071262
757,1644543082675400496,-0.0294199492782,-9.62032318115,0.558979034424,acc,,,
758,1644543082675410509,,,,gyr,-0.0314159244299,-0.0104719754308,-0.0506145469844
759,1644543082675864697,,,,gyr,-0.183259576559,0.0069813169539,0.00174532923847
760,1644543082676367044,,,,gyr,-0.0471238903701,0.0837758034468,0.069813169539
761,1644543082676867247,,,,gyr,-0.132645025849,-0.0837758034468,0.0767944902182
762,1644543082677369595,,,,gyr,0.0104719754308,-0.0069813169539,-0.127409040928
763,1644543082677415609,-0.0392265990376,-9.57129001617,0.509945809841,acc,,,
