,field.header.stamp,field.linear_acceleration.x,field.linear_acceleration.y,field.linear_acceleration.z,type,field.angular_velocity.x,field.angular_velocity.y,field.angular_velocity.z
0,1644542388414987803,0.598205626011,-9.62032318115,0.245166242123,acc,,,
1,1644542388416251659,,,,gyr,-0.00523598771542,0.0,0.00174532923847
2,1644542388417003632,0.598205626011,-9.64974308014,0.225552946329,acc,,,
3,1644542388419017553,0.57859236002,-9.64974308014,0.196132987738,acc,,,
4,1644542388421031475,0.57859236002,-9.61051654816,0.196132987738,acc,,,
5,1644542388421263456,,,,gyr,0.0,0.0,0.00174532923847
6,1644542388423047304,0.598205626011,-9.66935634613,0.166713044047,acc,,,
7,1644542388425061226,0.558979034424,-9.62032318115,0.245166242123,acc,,,
8,1644542388426273108,,,,gyr,-0.00523598771542,-0.00349065847695,0.00174532923847
9,1644542388427075148,0.509945809841,-9.56148338318,0.245166242123,acc,,,
10,1644542388429091215,0.558979034424,-9.61051654816,0.137293100357,acc,,,
11,1644542388431105137,0.558979034424,-9.62032318115,0.137293100357,acc,,,
12,1644542388431287050,,,,gyr,-0.00349065847695,-0.00174532923847,0.0
13,1644542388433119059,0.598205626011,-9.62032318115,0.176519691944,acc,,,
14,1644542388435135126,0.57859236002,-9.64974308014,0.196132987738,acc,,,
15,1644542388436296940,,,,gyr,-0.00349065847695,-0.00349065847695,0.00174532923847
16,1644542388437148809,0.558979034424,-9.64974308014,0.137293100357,acc,,,
17,1644542388439164877,0.558979034424,-9.58109664917,0.0980664938688,acc,,,
18,1644542388441178799,0.549172401428,-9.56148338318,0.137293100357,acc,,,
19,1644542388441308498,,,,gyr,-0.00523598771542,0.0,0.00174532923847
20,1644542388443194628,0.57859236002,-9.57129001617,0.137293100357,acc,,,
21,1644542388445208549,0.549172401428,-9.56148338318,0.137293100357,acc,,,
22,1644542388446320534,,,,gyr,-0.00174532923847,-0.00174532923847,0.0
23,1644542388451332331,,,,gyr,0.0,0.0,0.0
24,1644542388456343889,,,,gyr,-0.00523598771542,0.0,0.00349065847695
25,1644542388461355925,,,,gyr,-0.00523598771542,-0.00174532923847,-0.00174532923847
26,1644542388466367722,,,,gyr,0.0,0.00174532923847,0.0
27,1644542388471379280,,,,gyr,-0.00349065847695,-0.00349065847695,0.00174532923847
28,1644542388476391315,,,,gyr,-0.00349065847695,-0.00523598771542,0.00174532923847
29,1644542388481403112,,,,gyr,0.0,0.0,0.0
30,1644542388486414909,,,,gyr,0.0,-0.00174532923847,0.0
31,1644542388491424561,,,,gyr,-0.0069813169539,-0.00349065847695,0.00174532923847
32,1644542389180496693,0.627625584602,-9.61051654816,0.12748645246,acc,,,
33,1644542389182510614,0.627625584602,-9.66935634613,0.0686465501785,acc,,,
34,1644542389183028460,,,,gyr,-0.00174532923847,0.0,-0.00349065847695
35,1644542389184524298,0.627625584602,-9.66935634613,0.0686465501785,acc,,,
36,1644542389186540365,0.637432217598,-9.61051654816,0.12748645246,acc,,,
37,1644542389188040257,,,,gyr,-0.00349065847695,0.0,0.0
38,1644542389188554287,0.598205626011,-9.66935634613,0.137293100357,acc,,,
39,1644542389190568209,0.57859236002,-9.64974308014,0.137293100357,acc,,,
40,1644542389192584038,0.57859236002,-9.61051654816,0.12748645246,acc,,,
41,1644542389193050146,,,,gyr,-0.00174532923847,-0.00349065847695,0.00349065847695
42,1644542389194597960,0.627625584602,-9.70858287811,0.166713044047,acc,,,
43,1644542389196611881,0.558979034424,-9.62032318115,0.12748645246,acc,,,
44,1644542389198061705,,,,gyr,-0.00174532923847,0.0,0.00174532923847
45,1644542389198627710,0.549172401428,-9.62032318115,0.12748645246,acc,,,
46,1644542389200641632,0.57859236002,-9.67916297913,0.137293100357,acc,,,
47,1644542389202655554,0.598205626011,-9.58109664917,0.166713044047,acc,,,
48,1644542389203073502,,,,gyr,-0.00523598771542,-0.00174532923847,0.0
49,1644542389204669476,0.57859236002,-9.61051654816,0.12748645246,acc,,,
50,1644542389206685305,0.598205626011,-9.62032318115,0.176519691944,acc,,,
51,1644542389208085537,,,,gyr,-0.00349065847695,0.0,0.00523598771542
52,1644542389208699226,0.549172401428,-9.62032318115,0.176519691944,acc,,,
53,1644542389210713148,0.57859236002,-9.58109664917,0.12748645246,acc,,,
54,1644542389212727070,0.57859236002,-9.62032318115,0.137293100357,acc,,,
55,1644542389213097095,,,,gyr,-0.00349065847695,0.0,0.0
56,1644542389214740992,0.549172401428,-9.62032318115,0.166713044047,acc,,,
57,1644542389216754913,0.549172401428,-9.62032318115,0.137293100357,acc,,,
58,1644542389218108892,,,,gyr,0.0,0.0,0.00349065847695
59,1644542389218770981,0.549172401428,-9.62032318115,0.166713044047,acc,,,
60,1644542389220784903,0.558979034424,-9.62032318115,0.137293100357,acc,,,
61,1644542389222798824,0.558979034424,-9.64974308014,0.137293100357,acc,,,
62,1644542389223120689,,,,gyr,0.0,0.0,0.0
63,1644542389224812746,0.549172401428,-9.64974308014,0.176519691944,acc,,,
64,1644542389226826668,0.529559075832,-9.62032318115,0.0980664938688,acc,,,
65,1644542389228132486,,,,gyr,-0.00174532923847,0.00174532923847,0.0
66,1644542389228840590,0.549172401428,-9.61051654816,0.137293100357,acc,,,
67,1644542389230856419,0.558979034424,-9.64974308014,0.196132987738,acc,,,
68,1644542389232870340,0.549172401428,-9.61051654816,0.137293100357,acc,,,
69,1644542389233144283,,,,gyr,-0.00523598771542,-0.00174532923847,0.0
70,1644542389234884262,0.549172401428,-9.61051654816,0.196132987738,acc,,,
71,1644542389236898184,0.549172401428,-9.61051654816,0.176519691944,acc,,,
72,1644542389238156080,,,,gyr,-0.00523598771542,-0.00174532923847,0.00349065847695
73,1644542389238912106,0.549172401428,-9.58109664917,0.176519691944,acc,,,
74,1644542389240927935,0.558979034424,-9.64974308014,0.225552946329,acc,,,
75,1644542389242941856,0.57859236002,-9.64974308014,0.225552946329,acc,,,
76,1644542389243167639,,,,gyr,0.0,0.0,0.0
77,1644542389244955778,0.57859236002,-9.58109664917,0.225552946329,acc,,,
78,1644542389246969700,0.57859236002,-9.62032318115,0.196132987738,acc,,,
79,1644542389248179674,,,,gyr,-0.00174532923847,-0.00349065847695,0.0
80,1644542389248983622,0.549172401428,-9.62032318115,0.196132987738,acc,,,
81,1644542389250999451,0.558979034424,-9.61051654816,0.196132987738,acc,,,
82,1644542389253013372,0.549172401428,-9.61051654816,0.225552946329,acc,,,
83,1644542389253191471,,,,gyr,-0.00349065847695,-0.00174532923847,-0.00174532923847
84,1644542389255027294,0.598205626011,-9.58109664917,0.245166242123,acc,,,
85,1644542389257041216,0.549172401428,-9.62032318115,0.245166242123,acc,,,
86,1644542389258201122,,,,gyr,-0.00174532923847,0.0,-0.00349065847695
87,1644542389259055138,0.549172401428,-9.62032318115,0.225552946329,acc,,,
88,1644542389261070967,0.558979034424,-9.66935634613,0.196132987738,acc,,,
89,1644542389263084888,0.558979034424,-9.64974308014,0.225552946329,acc,,,
90,1644542389263212919,,,,gyr,0.0,0.0,0.0
91,1644542389265098810,0.627625584602,-9.62032318115,0.176519691944,acc,,,
92,1644542389267112732,0.598205626011,-9.64974308014,0.225552946329,acc,,,
93,1644542389268224955,,,,gyr,0.0,-0.00174532923847,0.0
94,1644542389269126654,0.637432217598,-9.62032318115,0.264779537916,acc,,,
95,1644542389271142483,0.627625584602,-9.62032318115,0.225552946329,acc,,,
96,1644542389273156404,0.57859236002,-9.61051654816,0.274586200714,acc,,,
97,1644542389273236513,,,,gyr,0.0,-0.00174532923847,0.0
98,1644542389275170326,0.57859236002,-9.66935634613,0.274586200714,acc,,,
99,1644542389277184248,0.598205626011,-9.66935634613,0.313812792301,acc,,,
100,1644542389278248310,,,,gyr,-0.00523598771542,-0.00174532923847,0.00174532923847
101,1644542389279198170,0.598205626011,-9.62032318115,0.196132987738,acc,,,
102,1644542389281213999,0.598205626011,-9.67916297913,0.274586200714,acc,,,
103,1644542389283227921,0.598205626011,-9.66935634613,0.225552946329,acc,,,
104,1644542389283260107,,,,gyr,-0.00349065847695,0.0,0.0
105,1644542389285241842,0.57859236002,-9.64974308014,0.225552946329,acc,,,
106,1644542389287255764,0.627625584602,-9.61051654816,0.264779537916,acc,,,
107,1644542389288271904,,,,gyr,-0.00174532923847,-0.00174532923847,0.0
108,1644542389289269686,0.57859236002,-9.64974308014,0.245166242123,acc,,,
109,1644542389291283607,0.598205626011,-9.62032318115,0.225552946329,acc,,,
110,1644542389293283701,,,,gyr,0.0,0.0,0.0
111,1644542389293297529,0.57859236002,-9.62032318115,0.245166242123,acc,,,
112,1644542389295311451,0.627625584602,-9.64974308014,0.294199496508,acc,,,
113,1644542389297325373,0.57859236002,-9.62032318115,0.196132987738,acc,,,
114,1644542389298295498,,,,gyr,-0.00174532923847,0.0,0.0
115,1644542389299339294,0.627625584602,-9.64974308014,0.245166242123,acc,,,
116,1644542389301353216,0.627625584602,-9.66935634613,0.196132987738,acc,,,
117,1644542389303307295,,,,gyr,0.0,-0.00174532923847,0.00523598771542
118,1644542389303367138,0.598205626011,-9.64974308014,0.225552946329,acc,,,
119,1644542389305382967,0.598205626011,-9.66935634613,0.176519691944,acc,,,
120,1644542389307396889,0.598205626011,-9.64974308014,0.176519691944,acc,,,
121,1644542389308319092,,,,gyr,0.0,0.0,0.0
122,1644542389309410810,0.558979034424,-9.62032318115,0.176519691944,acc,,,
123,1644542389311424732,0.598205626011,-9.66935634613,0.176519691944,acc,,,
124,1644542389313330889,,,,gyr,0.0,-0.00174532923847,0.00349065847695
125,1644542389313438654,0.598205626011,-9.61051654816,0.196132987738,acc,,,
126,1644542389315452576,0.549172401428,-9.62032318115,0.166713044047,acc,,,
127,1644542389317466497,0.57859236002,-9.62032318115,0.225552946329,acc,,,
128,1644542389318342447,,,,gyr,0.0,-0.00174532923847,0.0
129,1644542389319480419,0.57859236002,-9.58109664917,0.12748645246,acc,,,
130,1644542389321494341,0.598205626011,-9.64974308014,0.196132987738,acc,,,
131,1644542389323352337,,,,gyr,-0.00174532923847,0.0,0.0
132,1644542389323508263,0.558979034424,-9.64974308014,0.0784531980753,acc,,,
133,1644542389325522184,0.57859236002,-9.57129001617,0.137293100357,acc,,,
134,1644542389327538252,0.57859236002,-9.61051654816,0.176519691944,acc,,,
135,1644542389328364372,,,,gyr,-0.00174532923847,0.0,0.00174532923847
136,1644542389329552174,0.598205626011,-9.62032318115,0.12748645246,acc,,,
137,1644542389331566095,0.598205626011,-9.61051654816,0.137293100357,acc,,,
138,1644542389333375931,,,,gyr,-0.00174532923847,0.0,0.00174532923847
139,1644542389333580017,0.549172401428,-9.61051654816,0.0980664938688,acc,,,
140,1644542389335593939,0.529559075832,-9.61051654816,0.12748645246,acc,,,
141,1644542389337607861,0.57859236002,-9.57129001617,0.0686465501785,acc,,,
142,1644542389338387728,,,,gyr,0.0,0.0,0.0
143,1644542389339621782,0.558979034424,-9.61051654816,0.0980664938688,acc,,,
144,1644542389341637611,0.549172401428,-9.58109664917,0.137293100357,acc,,,
145,1644542389343399763,,,,gyr,0.0,0.0,0.00174532923847
146,1644542389343651533,0.57859236002,-9.62032318115,0.137293100357,acc,,,
147,1644542389345665455,0.529559075832,-9.58109664917,0.12748645246,acc,,,
148,1644542389347679377,0.549172401428,-9.61051654816,0.12748645246,acc,,,
149,1644542389348411322,,,,gyr,-0.00174532923847,0.0,0.0
150,1644542389349693298,0.549172401428,-9.62032318115,0.137293100357,acc,,,
151,1644542389351707220,0.549172401428,-9.61051654816,0.0980664938688,acc,,,
152,1644542389353423119,,,,gyr,-0.00174532923847,-0.00174532923847,0.00349065847695
153,1644542389353721142,0.549172401428,-9.61051654816,0.166713044047,acc,,,
154,1644542389355735064,0.57859236002,-9.58109664917,0.12748645246,acc,,,
155,1644542389357748985,0.549172401428,-9.58109664917,0.12748645246,acc,,,
156,1644542389358435154,,,,gyr,0.0,-0.00349065847695,0.0
157,1644542389359762907,0.529559075832,-9.62032318115,0.137293100357,acc,,,
158,1644542389361776829,0.529559075832,-9.62032318115,0.12748645246,acc,,,
159,1644542389363446712,,,,gyr,-0.00349065847695,0.00174532923847,0.0
160,1644542389363790751,0.57859236002,-9.61051654816,0.0980664938688,acc,,,
161,1644542389365804672,0.558979034424,-9.64974308014,0.137293100357,acc,,,
162,1644542389367818594,0.57859236002,-9.62032318115,0.137293100357,acc,,,
163,1644542389368458509,,,,gyr,-0.00349065847695,-0.00349065847695,0.0
164,1644542389369834423,0.57859236002,-9.58109664917,0.225552946329,acc,,,
165,1644542389371848345,0.598205626011,-9.64974308014,0.166713044047,acc,,,
166,1644542389373470306,,,,gyr,-0.00349065847695,0.0,0.00174532923847
167,1644542389373862267,0.598205626011,-9.62032318115,0.225552946329,acc,,,
168,1644542389375876188,0.549172401428,-9.67916297913,0.225552946329,acc,,,
169,1644542389377892017,0.627625584602,-9.64974308014,0.225552946329,acc,,,
170,1644542389378482103,,,,gyr,-0.00174532923847,0.0,0.0
171,1644542389379905939,0.598205626011,-9.61051654816,0.176519691944,acc,,,
172,1644542389381919861,0.57859236002,-9.64974308014,0.166713044047,acc,,,
173,1644542389383493900,,,,gyr,0.0,0.0,0.0
174,1644542389383933783,0.627625584602,-9.64974308014,0.176519691944,acc,,,
175,1644542389385947704,0.598205626011,-9.70858287811,0.245166242123,acc,,,
176,1644542389387961626,0.637432217598,-9.62032318115,0.274586200714,acc,,,
177,1644542389388503551,,,,gyr,-0.00174532923847,0.00349065847695,0.0
178,1644542389389977455,0.598205626011,-9.64974308014,0.196132987738,acc,,,
179,1644542389391991377,0.637432217598,-9.62032318115,0.245166242123,acc,,,
180,1644542389393515348,,,,gyr,0.0,-0.00349065847695,0.0
181,1644542389394005299,0.598205626011,-9.66935634613,0.196132987738,acc,,,
182,1644542389396019220,0.637432217598,-9.64974308014,0.245166242123,acc,,,
183,1644542389398033142,0.598205626011,-9.62032318115,0.264779537916,acc,,,
184,1644542389398527384,,,,gyr,-0.00349065847695,0.00174532923847,0.0
185,1644542389400049210,0.627625584602,-9.66935634613,0.176519691944,acc,,,
186,1644542389402063131,0.598205626011,-9.64974308014,0.245166242123,acc,,,
187,1644542389403539181,,,,gyr,0.0,0.00174532923847,0.00174532923847
188,1644542389404077053,0.598205626011,-9.64974308014,0.225552946329,acc,,,
189,1644542389406090975,0.57859236002,-9.64974308014,0.196132987738,acc,,,
190,1644542389408107042,0.637432217598,-9.67916297913,0.225552946329,acc,,,
191,1644542389408550739,,,,gyr,-0.00349065847695,0.0,0.00174532923847
192,1644542389410120964,0.637432217598,-9.64974308014,0.264779537916,acc,,,
193,1644542389412134647,0.558979034424,-9.64974308014,0.274586200714,acc,,,
194,1644542389413562775,,,,gyr,-0.00174532923847,0.0,0.0
195,1644542389414148569,0.627625584602,-9.64974308014,0.245166242123,acc,,,
196,1644542389416162491,0.627625584602,-9.66935634613,0.245166242123,acc,,,
197,1644542389418176413,0.598205626011,-9.66935634613,0.225552946329,acc,,,
198,1644542389418574572,,,,gyr,-0.00174532923847,0.0,0.00523598771542
199,1644542389420192480,0.627625584602,-9.66935634613,0.245166242123,acc,,,
200,1644542389422206402,0.598205626011,-9.58109664917,0.196132987738,acc,,,
201,1644542389423586130,,,,gyr,-0.00174532923847,0.0,0.0
202,1644542389424220324,0.598205626011,-9.62032318115,0.274586200714,acc,,,
203,1644542389426236153,0.558979034424,-9.64974308014,0.245166242123,acc,,,
204,1644542389428250074,0.598205626011,-9.61051654816,0.245166242123,acc,,,
205,1644542389428598166,,,,gyr,-0.00349065847695,0.0,0.00349065847695
206,1644542389430263996,0.627625584602,-9.66935634613,0.196132987738,acc,,,
207,1644542389432277918,0.549172401428,-9.61051654816,0.294199496508,acc,,,
208,1644542389433609962,,,,gyr,-0.00349065847695,-0.00349065847695,0.0
209,1644542389434291840,0.558979034424,-9.66935634613,0.264779537916,acc,,,
210,1644542389436307669,0.549172401428,-9.62032318115,0.225552946329,acc,,,
211,1644542389438321590,0.558979034424,-9.61051654816,0.196132987738,acc,,,
212,1644542389438621521,,,,gyr,-0.00174532923847,-0.00174532923847,0.0
213,1644542389440335512,0.549172401428,-9.61051654816,0.225552946329,acc,,,
214,1644542389442349434,0.549172401428,-9.58109664917,0.264779537916,acc,,,
215,1644542389443633318,,,,gyr,-0.0069813169539,0.0,0.0
216,1644542389444365501,0.549172401428,-9.61051654816,0.166713044047,acc,,,
217,1644542389446379423,0.509945809841,-9.62032318115,0.264779537916,acc,,,
218,1644542389448393345,0.549172401428,-9.61051654816,0.264779537916,acc,,,
219,1644542389448643208,,,,gyr,0.0,-0.00523598771542,0.00523598771542
220,1644542389450407267,0.57859236002,-9.61051654816,0.225552946329,acc,,,
221,1644542389452423096,0.529559075832,-9.61051654816,0.245166242123,acc,,,
222,1644542389453655005,,,,gyr,-0.00174532923847,0.0,0.0
223,1644542389454437017,0.549172401428,-9.62032318115,0.176519691944,acc,,,
224,1644542389456450939,0.529559075832,-9.58109664917,0.176519691944,acc,,,
225,1644542389458464861,0.549172401428,-9.56148338318,0.245166242123,acc,,,
226,1644542389458666801,,,,gyr,-0.00349065847695,0.0,0.00349065847695
227,1644542389460480690,0.57859236002,-9.58109664917,0.176519691944,acc,,,
228,1644542389462494612,0.558979034424,-9.61051654816,0.166713044047,acc,,,
229,1644542389463678598,,,,gyr,0.0,0.0,-0.00174532923847
230,1644542389464508533,0.529559075832,-9.64974308014,0.0980664938688,acc,,,
231,1644542389466522455,0.549172401428,-9.64974308014,0.196132987738,acc,,,
232,1644542389468538284,0.529559075832,-9.58109664917,0.176519691944,acc,,,
233,1644542389468690395,,,,gyr,-0.00174532923847,0.0,0.0
234,1644542389470552206,0.558979034424,-9.64974308014,0.196132987738,acc,,,
235,1644542389472566128,0.558979034424,-9.61051654816,0.166713044047,acc,,,
236,1644542389473702192,,,,gyr,0.0,-0.00174532923847,0.0
237,1644542389474582195,0.57859236002,-9.62032318115,0.166713044047,acc,,,
238,1644542389476596117,0.549172401428,-9.61051654816,0.0980664938688,acc,,,
239,1644542389478610039,0.549172401428,-9.62032318115,0.12748645246,acc,,,
240,1644542389478714228,,,,gyr,0.0,-0.00349065847695,0.0
241,1644542389480625868,0.598205626011,-9.61051654816,0.166713044047,acc,,,
242,1644542389482639790,0.627625584602,-9.66935634613,0.137293100357,acc,,,
243,1644542389483725786,,,,gyr,-0.00174532923847,-0.00174532923847,0.0
244,1644542389484653711,0.598205626011,-9.62032318115,0.0980664938688,acc,,,
245,1644542389486667633,0.57859236002,-9.64974308014,0.12748645246,acc,,,
246,1644542389488681555,0.666852176189,-9.64974308014,0.176519691944,acc,,,
247,1644542389488737583,,,,gyr,-0.00523598771542,-0.00174532923847,-0.00174532923847
248,1644542389490697622,0.57859236002,-9.62032318115,0.12748645246,acc,,,
249,1644542389492711544,0.627625584602,-9.64974308014,0.12748645246,acc,,,
250,1644542389493749619,,,,gyr,-0.00174532923847,0.0,0.0
251,1644542389494725227,0.598205626011,-9.61051654816,0.166713044047,acc,,,
252,1644542389496739149,0.598205626011,-9.67916297913,0.176519691944,acc,,,
253,1644542389498753071,0.598205626011,-9.64974308014,0.12748645246,acc,,,
254,1644542389498761177,,,,gyr,-0.00523598771542,-0.00174532923847,0.00349065847695
255,1644542389500769138,0.637432217598,-9.64974308014,0.0784531980753,acc,,,
256,1644542389502783060,0.598205626011,-9.64974308014,0.12748645246,acc,,,
257,1644542389503772974,,,,gyr,0.0,0.0,0.0
258,1644542389504796982,0.598205626011,-9.66935634613,0.137293100357,acc,,,
259,1644542389506812811,0.598205626011,-9.66935634613,0.12748645246,acc,,,
260,1644542389508784771,,,,gyr,0.0,0.0,0.00349065847695
261,1644542389508826971,0.598205626011,-9.64974308014,0.166713044047,acc,,,
262,1644542389510840893,0.627625584602,-9.66935634613,0.12748645246,acc,,,
263,1644542389512856722,0.57859236002,-9.61051654816,0.12748645246,acc,,,
264,1644542389513796568,,,,gyr,-0.00174532923847,0.0,0.0
265,1644542389514870644,0.627625584602,-9.64974308014,0.176519691944,acc,,,
266,1644542389516884565,0.598205626011,-9.64974308014,0.166713044047,acc,,,
267,1644542389518806458,,,,gyr,-0.00349065847695,-0.00349065847695,0.0
268,1644542389518900394,0.627625584602,-9.62032318115,0.176519691944,acc,,,
269,1644542389520914316,0.598205626011,-9.64974308014,0.137293100357,acc,,,
270,1644542389522928238,0.57859236002,-9.64974308014,0.137293100357,acc,,,
271,1644542389523818016,,,,gyr,0.0,-0.00174532923847,0.00349065847695
272,1644542389524942160,0.558979034424,-9.61051654816,0.196132987738,acc,,,
273,1644542389526957989,0.558979034424,-9.61051654816,0.264779537916,acc,,,
274,1644542389528830051,,,,gyr,-0.00174532923847,0.0,-0.00174532923847
275,1644542389528971910,0.57859236002,-9.62032318115,0.245166242123,acc,,,
276,1644542389530985832,0.558979034424,-9.67916297913,0.176519691944,acc,,,
277,1644542389532999754,0.598205626011,-9.62032318115,0.264779537916,acc,,,
278,1644542389533841848,,,,gyr,-0.00174532923847,0.00174532923847,0.0
279,1644542389535013676,0.549172401428,-9.61051654816,0.245166242123,acc,,,
280,1644542389537029505,0.627625584602,-9.64974308014,0.264779537916,acc,,,
281,1644542389538853407,,,,gyr,-0.00174532923847,0.0,0.0
282,1644542389539043427,0.627625584602,-9.66935634613,0.264779537916,acc,,,
283,1644542389541057587,0.558979034424,-9.62032318115,0.225552946329,acc,,,
284,1644542389543073416,0.558979034424,-9.62032318115,0.245166242123,acc,,,
285,1644542389543865442,,,,gyr,-0.00174532923847,0.0,0.0
286,1644542389545087337,0.558979034424,-9.58109664917,0.264779537916,acc,,,
287,1644542389547101259,0.598205626011,-9.58109664917,0.245166242123,acc,,,
288,1644542389548877239,,,,gyr,0.0,0.0,0.00174532923847
289,1644542389549117088,0.529559075832,-9.61051654816,0.245166242123,acc,,,
290,1644542389551131010,0.558979034424,-9.62032318115,0.274586200714,acc,,,
291,1644542389553144932,0.529559075832,-9.61051654816,0.264779537916,acc,,,
292,1644542389553888798,,,,gyr,-0.00174532923847,0.0,0.00174532923847
293,1644542389555158854,0.549172401428,-9.58109664917,0.245166242123,acc,,,
294,1644542389557174921,0.549172401428,-9.64974308014,0.274586200714,acc,,,
295,1644542389558900833,,,,gyr,-0.00349065847695,0.0,0.0
296,1644542389559188604,0.598205626011,-9.62032318115,0.245166242123,acc,,,
297,1644542389561202526,0.549172401428,-9.62032318115,0.225552946329,acc,,,
298,1644542389563218594,0.57859236002,-9.58109664917,0.245166242123,acc,,,
299,1644542389563912630,,,,gyr,0.0,0.00174532923847,0.00349065847695
300,1644542389565232515,0.558979034424,-9.58109664917,0.245166242123,acc,,,
301,1644542389567246675,0.558979034424,-9.62032318115,0.225552946329,acc,,,
302,1644542389568924427,,,,gyr,-0.00174532923847,-0.00174532923847,0.0
303,1644542389569260597,0.558979034424,-9.62032318115,0.225552946329,acc,,,
304,1644542389571276426,0.558979034424,-9.61051654816,0.196132987738,acc,,,
305,1644542389573290348,0.57859236002,-9.62032318115,0.264779537916,acc,,,
306,1644542389573936224,,,,gyr,-0.00174532923847,0.00174532923847,0.00174532923847
307,1644542389575304270,0.627625584602,-9.64974308014,0.294199496508,acc,,,
308,1644542389577320099,0.558979034424,-9.61051654816,0.313812792301,acc,,,
309,1644542389578948021,,,,gyr,-0.00523598771542,0.00174532923847,0.00174532923847
310,1644542389579334021,0.598205626011,-9.66935634613,0.313812792301,acc,,,
311,1644542389581347942,0.627625584602,-9.66935634613,0.362846046686,acc,,,
312,1644542389583361864,0.666852176189,-9.71838951111,0.38245934248,acc,,,
313,1644542389583957672,,,,gyr,-0.0209439508617,-0.00349065847695,0.0104719754308
314,1644542389585377693,0.637432217598,-9.67916297913,0.38245934248,acc,,,
315,1644542389587391615,0.666852176189,-9.67916297913,0.313812792301,acc,,,
316,1644542389588969707,,,,gyr,-0.0558505356312,-0.0104719754308,0.0296705961227
317,1644542389589405537,0.725692093372,-9.70858287811,0.343232750893,acc,,,
318,1644542389591419458,0.686465501785,-9.75761604309,0.402072638273,acc,,,
319,1644542389593435526,0.598205626011,-9.66935634613,0.313812792301,acc,,,
320,1644542389593981504,,,,gyr,-0.0890117883682,-0.0209439508617,0.0418879017234
321,1644542389595449448,0.598205626011,-9.71838951111,0.294199496508,acc,,,
322,1644542389597463369,0.529559075832,-9.61051654816,0.137293100357,acc,,,
323,1644542389598993063,,,,gyr,-0.123918376863,-0.0296705961227,0.0610865242779
324,1644542389599479198,0.490332484245,-9.58109664917,0.0784531980753,acc,,,
325,1644542389601493120,0.490332484245,-9.57129001617,0.0784531980753,acc,,,
326,1644542389603507042,0.490332484245,-9.57129001617,0.0294199492782,acc,,,
327,1644542389604005098,,,,gyr,-0.130899697542,-0.0314159244299,0.0645771846175
328,1644542389605520964,0.490332484245,-9.57129001617,0.0294199492782,acc,,,
329,1644542389607536793,0.490332484245,-9.57129001617,0.0686465501785,acc,,,
330,1644542389609016895,,,,gyr,-0.101229093969,-0.0296705961227,0.0471238903701
331,1644542389609550714,0.509945809841,-9.58109664917,0.0686465501785,acc,,,
332,1644542389611564636,0.529559075832,-9.58109664917,0.0392265990376,acc,,,
333,1644542389613580465,0.529559075832,-9.61051654816,0.0686465501785,acc,,,
334,1644542389614028454,,,,gyr,-0.069813169539,-0.0139626339078,0.0349065847695
335,1644542389615594387,0.549172401428,-9.61051654816,0.0392265990376,acc,,,
336,1644542389617610693,0.558979034424,-9.61051654816,0.0686465501785,acc,,,
337,1644542389619040489,,,,gyr,-0.0523598790169,-0.0104719754308,0.0296705961227
338,1644542389619624615,0.549172401428,-9.64974308014,0.137293100357,acc,,,
339,1644542389621638536,0.637432217598,-9.66935634613,0.12748645246,acc,,,
340,1644542389623654366,0.57859236002,-9.61051654816,0.0784531980753,acc,,,
341,1644542389624052286,,,,gyr,-0.0349065847695,-0.0069813169539,0.0174532923847
342,1644542389625668287,0.57859236002,-9.62032318115,0.0784531980753,acc,,,
343,1644542389627684116,0.558979034424,-9.61051654816,0.0392265990376,acc,,,
344,1644542389629064083,,,,gyr,-0.0261799395084,-0.00523598771542,0.0139626339078
345,1644542389629698038,0.529559075832,-9.61051654816,0.0784531980753,acc,,,
346,1644542389631711960,0.57859236002,-9.61051654816,0.0686465501785,acc,,,
347,1644542389633727789,0.57859236002,-9.62032318115,0.0686465501785,acc,,,
348,1644542389634075880,,,,gyr,-0.0209439508617,-0.00523598771542,0.0069813169539
349,1644542389635741711,0.598205626011,-9.66935634613,0.12748645246,acc,,,
350,1644542389637757778,0.598205626011,-9.62032318115,0.0784531980753,acc,,,
351,1644542389639087677,,,,gyr,-0.0139626339078,-0.00523598771542,0.00872664619237
352,1644542389639771700,0.598205626011,-9.66935634613,0.0686465501785,acc,,,
353,1644542389641785622,0.57859236002,-9.64974308014,0.0686465501785,acc,,,
354,1644542389643799543,0.57859236002,-9.62032318115,0.12748645246,acc,,,
355,1644542389644099474,,,,gyr,-0.0139626339078,-0.00523598771542,0.0069813169539
356,1644542389645815372,0.558979034424,-9.62032318115,0.12748645246,acc,,,
357,1644542389647829294,0.558979034424,-9.66935634613,0.12748645246,acc,,,
358,1644542389649109364,,,,gyr,-0.0174532923847,-0.00523598771542,0.0069813169539
359,1644542389649843216,0.57859236002,-9.71838951111,0.137293100357,acc,,,
360,1644542389651859045,0.598205626011,-9.66935634613,0.137293100357,acc,,,
361,1644542389653872967,0.598205626011,-9.66935634613,0.196132987738,acc,,,
362,1644542389654121161,,,,gyr,-0.0174532923847,-0.0069813169539,0.00872664619237
363,1644542389655886889,0.627625584602,-9.66935634613,0.166713044047,acc,,,
364,1644542389657902718,0.57859236002,-9.70858287811,0.176519691944,acc,,,
365,1644542389659132719,,,,gyr,-0.0296705961227,-0.00872664619237,0.0174532923847
366,1644542389659916639,0.57859236002,-9.67916297913,0.176519691944,acc,,,
367,1644542389661930561,0.598205626011,-9.66935634613,0.137293100357,acc,,,
368,1644542389663944483,0.57859236002,-9.62032318115,0.176519691944,acc,,,
369,1644542389664144516,,,,gyr,-0.0436332300305,-0.0104719754308,0.0226892791688
370,1644542389665960312,0.549172401428,-9.67916297913,0.176519691944,acc,,,
371,1644542389667974234,0.549172401428,-9.67916297913,0.196132987738,acc,,,
372,1644542389669156075,,,,gyr,-0.0645771846175,-0.0139626339078,0.0314159244299
373,1644542389669988155,0.549172401428,-9.64974308014,0.0980664938688,acc,,,
374,1644542389672003984,0.529559075832,-9.64974308014,0.196132987738,acc,,,
375,1644542389674017906,0.529559075832,-9.64974308014,0.166713044047,acc,,,
376,1644542389674167633,,,,gyr,-0.0767944902182,-0.0226892791688,0.0383972451091
377,1644542389676031590,0.549172401428,-9.62032318115,0.176519691944,acc,,,
378,1644542389678045511,0.529559075832,-9.62032318115,0.166713044047,acc,,,
379,1644542389679179430,,,,gyr,-0.0855211317539,-0.0296705961227,0.0471238903701
380,1644542389680061340,0.529559075832,-9.66935634613,0.196132987738,acc,,,
381,1644542389682075262,0.549172401428,-9.66935634613,0.245166242123,acc,,,
382,1644542389684089184,0.529559075832,-9.66935634613,0.245166242123,acc,,,
383,1644542389684190989,,,,gyr,-0.101229093969,-0.0296705961227,0.0523598790169
384,1644542389686104774,0.549172401428,-9.70858287811,0.274586200714,acc,,,
385,1644542389688118696,0.529559075832,-9.66935634613,0.196132987738,acc,,,
386,1644542389689202547,,,,gyr,-0.111701071262,-0.0349065847695,0.0558505356312
387,1644542389690132618,0.529559075832,-9.67916297913,0.196132987738,acc,,,
388,1644542389692148447,0.558979034424,-9.66935634613,0.245166242123,acc,,,
389,1644542389694162369,0.529559075832,-9.58109664917,0.176519691944,acc,,,
390,1644542389694214344,,,,gyr,-0.130899697542,-0.0383972451091,0.0680678412318
391,1644542389696176052,0.490332484245,-9.62032318115,0.166713044047,acc,,,
392,1644542389698191881,0.490332484245,-9.58109664917,0.0980664938688,acc,,,
393,1644542389699225903,,,,gyr,-0.137881010771,-0.0418879017234,0.0715584978461
394,1644542389700205803,0.470719188452,-9.56148338318,0.12748645246,acc,,,
395,1644542389702219725,0.451105892658,-9.58109664917,0.0392265990376,acc,,,
396,1644542389704233646,0.470719188452,-9.58109664917,0.0686465501785,acc,,,
397,1644542389704237700,,,,gyr,-0.137881010771,-0.0436332300305,0.069813169539
398,1644542389706247807,0.451105892658,-9.58109664917,0.0392265990376,acc,,,
399,1644542389708263874,0.421685934067,-9.53206348419,0.0392265990376,acc,,,
400,1644542389709247828,,,,gyr,-0.122173048556,-0.0349065847695,0.0610865242779
401,1644542389710277796,0.421685934067,-9.61051654816,0.0294199492782,acc,,,
402,1644542389712291956,0.470719188452,-9.53206348419,0.0,acc,,,
403,1644542389714260101,,,,gyr,-0.0942477807403,-0.0279252678156,0.0471238903701
404,1644542389714307785,0.451105892658,-9.57129001617,0.00980664975941,acc,,,
405,1644542389716321945,0.509945809841,-9.58109664917,-0.0294199492782,acc,,,
406,1644542389718336105,0.451105892658,-9.58109664917,-0.0686465501785,acc,,,
407,1644542389719271898,,,,gyr,-0.0610865242779,-0.0139626339078,0.0296705961227
408,1644542389720350027,0.470719188452,-9.58109664917,-0.00980664975941,acc,,,
409,1644542389722364187,0.470719188452,-9.57129001617,-0.0294199492782,acc,,,
410,1644542389724284172,,,,gyr,-0.0279252678156,-0.00523598771542,0.0139626339078
411,1644542389724380016,0.490332484245,-9.61051654816,0.0294199492782,acc,,,
412,1644542389726394176,0.509945809841,-9.58109664917,0.0686465501785,acc,,,
413,1644542389728410482,0.529559075832,-9.61051654816,0.0686465501785,acc,,,
414,1644542389729296446,,,,gyr,0.00174532923847,0.0,0.0
415,1644542389730424404,0.470719188452,-9.62032318115,0.0392265990376,acc,,,
416,1644542389732436419,0.549172401428,-9.58109664917,0.0,acc,,,
417,1644542389734308243,,,,gyr,0.0191986225545,0.00523598771542,-0.00872664619237
418,1644542389734452486,0.470719188452,-9.56148338318,-0.00980664975941,acc,,,
419,1644542389736466646,0.509945809841,-9.64974308014,0.0,acc,,,
420,1644542389738480568,0.529559075832,-9.61051654816,-0.0294199492782,acc,,,
421,1644542389739320517,,,,gyr,0.0436332300305,0.0069813169539,-0.0226892791688
422,1644542389740494728,0.490332484245,-9.57129001617,-0.0294199492782,acc,,,
423,1644542389742510796,0.470719188452,-9.57129001617,0.0,acc,,,
424,1644542389744332790,,,,gyr,0.069813169539,0.0174532923847,-0.0349065847695
425,1644542389744524717,0.490332484245,-9.58109664917,0.0,acc,,,
426,1644542389746538877,0.529559075832,-9.58109664917,-0.0392265990376,acc,,,
427,1644542389748554945,0.490332484245,-9.64974308014,0.0,acc,,,
428,1644542389749345064,,,,gyr,0.101229093969,0.0226892791688,-0.0523598790169
429,1644542389750570774,0.529559075832,-9.61051654816,0.0686465501785,acc,,,
430,1644542389752584934,0.558979034424,-9.62032318115,0.0686465501785,acc,,,
431,1644542389754356861,,,,gyr,0.122173048556,0.0349065847695,-0.0610865242779
432,1644542389754598856,0.549172401428,-9.64974308014,0.0392265990376,acc,,,
433,1644542389756613016,0.558979034424,-9.62032318115,0.137293100357,acc,,,
434,1644542389758627176,0.549172401428,-9.62032318115,0.0980664938688,acc,,,
435,1644542389759369135,,,,gyr,0.127409040928,0.0349065847695,-0.0680678412318
436,1644542389760641098,0.57859236002,-9.61051654816,0.0784531980753,acc,,,
437,1644542389762657166,0.57859236002,-9.66935634613,0.12748645246,acc,,,
438,1644542389764381409,,,,gyr,0.122173048556,0.0349065847695,-0.0610865242779
439,1644542389764671087,0.57859236002,-9.66935634613,0.137293100357,acc,,,
440,1644542389766685247,0.637432217598,-9.67916297913,0.225552946329,acc,,,
441,1644542389768699408,0.637432217598,-9.67916297913,0.264779537916,acc,,,
442,1644542389769391298,,,,gyr,0.11344639957,0.0296705961227,-0.0593411922455
443,1644542389770715237,0.637432217598,-9.75761604309,0.245166242123,acc,,,
444,1644542389772729397,0.686465501785,-9.75761604309,0.313812792301,acc,,,
445,1644542389774403572,,,,gyr,0.0837758034468,0.0226892791688,-0.0418879017234
446,1644542389774743319,0.637432217598,-9.67916297913,0.362846046686,acc,,,
447,1644542389776757479,0.598205626011,-9.70858287811,0.343232750893,acc,,,
448,1644542389778773785,0.598205626011,-9.67916297913,0.225552946329,acc,,,
449,1644542389779415607,,,,gyr,0.0349065847695,0.0104719754308,-0.0191986225545
450,1644542389780787706,0.57859236002,-9.62032318115,0.0980664938688,acc,,,
451,1644542389782801867,0.549172401428,-9.61051654816,0.0980664938688,acc,,,
452,1644542389784427643,,,,gyr,0.0,0.0,0.0
453,1644542389784815788,0.490332484245,-9.58109664917,0.0392265990376,acc,,,
454,1644542389786829948,0.470719188452,-9.56148338318,0.00980664975941,acc,,,
455,1644542389788844109,0.490332484245,-9.56148338318,0.00980664975941,acc,,,
456,1644542389789439917,,,,gyr,-0.0069813169539,-0.00349065847695,0.0
457,1644542389790859938,0.490332484245,-9.57129001617,0.00980664975941,acc,,,
458,1644542389792874098,0.470719188452,-9.57129001617,-0.0294199492782,acc,,,
459,1644542389794452190,,,,gyr,0.00523598771542,-0.00523598771542,-0.00523598771542
460,1644542389794888020,0.490332484245,-9.48303031921,-0.0980664938688,acc,,,
461,1644542389796902180,0.451105892658,-9.53206348419,-0.0980664938688,acc,,,
462,1644542389798916340,0.470719188452,-9.49283695221,-0.12748645246,acc,,,
463,1644542389799464226,,,,gyr,0.0279252678156,-0.0104719754308,-0.0139626339078
464,1644542389800932169,0.509945809841,-9.56148338318,-0.12748645246,acc,,,
465,1644542389802946329,0.509945809841,-9.56148338318,-0.137293100357,acc,,,
466,1644542389804476261,,,,gyr,0.0680678412318,-0.0314159244299,-0.0349065847695
467,1644542389804960489,0.509945809841,-9.5222568512,-0.137293100357,acc,,,
468,1644542389806976318,0.470719188452,-9.5222568512,-0.12748645246,acc,,,
469,1644542389808990479,0.529559075832,-9.5222568512,-0.12748645246,acc,,,
470,1644542389809488535,,,,gyr,0.111701071262,-0.0715584978461,-0.0558505356312
471,1644542389811004400,0.490332484245,-9.57129001617,-0.0686465501785,acc,,,
472,1644542389813018560,0.529559075832,-9.58109664917,-0.0784531980753,acc,,,
473,1644542389814500570,,,,gyr,0.162315621972,-0.111701071262,-0.0785398185253
474,1644542389815034628,0.558979034424,-9.57129001617,-0.0392265990376,acc,,,
475,1644542389817048550,0.558979034424,-9.58109664917,-0.0294199492782,acc,,,
476,1644542389819064617,0.57859236002,-9.57129001617,0.00980664975941,acc,,,
477,1644542389819512606,,,,gyr,0.200712859631,-0.141371667385,-0.101229093969
478,1644542389821078777,0.558979034424,-9.56148338318,0.0686465501785,acc,,,
479,1644542389823092699,0.549172401428,-9.62032318115,0.166713044047,acc,,,
480,1644542389824524879,,,,gyr,0.226892799139,-0.162315621972,-0.106465086341
481,1644542389825106859,0.57859236002,-9.62032318115,0.362846046686,acc,,,
482,1644542389827123165,0.627625584602,-9.70858287811,0.470719188452,acc,,,
483,1644542389829136848,0.57859236002,-9.67916297913,0.490332484245,acc,,,
484,1644542389829537153,,,,gyr,0.237364768982,-0.137881010771,-0.11344639957
485,1644542389831151009,0.57859236002,-9.62032318115,0.470719188452,acc,,,
486,1644542389833167076,0.558979034424,-9.64974308014,0.470719188452,acc,,,
487,1644542389834547043,,,,gyr,0.23212878406,-0.0645771846175,-0.0959931090474
488,1644542389835181236,0.549172401428,-9.70858287811,0.509945809841,acc,,,
489,1644542389837195396,0.529559075832,-9.66935634613,0.451105892658,acc,,,
490,1644542389839209318,0.490332484245,-9.58109664917,0.264779537916,acc,,,
491,1644542389839559317,,,,gyr,0.21991148591,0.0,-0.0942477807403
492,1644542389841223478,0.549172401428,-9.42419052124,-0.166713044047,acc,,,
493,1644542389843237400,0.57859236002,-9.98316955566,0.137293100357,acc,,,
494,1644542389844571590,,,,gyr,0.23212878406,0.0558505356312,-0.0959931090474
495,1644542389845253468,0.961051702499,-11.1697740555,4.26589250565,acc,,,
496,1644542389847265482,1.61809718609,-8.92405128479,-1.47099745274,acc,,,
497,1644542389849281549,0.196132987738,-9.86548995972,0.735498726368,acc,,,
498,1644542389849583387,,,,gyr,0.120427720249,0.0610865242779,-0.0890117883682
499,1644542389851295710,0.951245009899,-9.86548995972,0.549172401428,acc,,,
500,1644542389853311777,0.421685934067,-9.48303031921,0.294199496508,acc,,,
501,1644542389854595661,,,,gyr,0.0104719754308,0.0523598790169,-0.0174532923847
502,1644542389855325699,0.735498726368,-9.78703689575,0.470719188452,acc,,,
503,1644542389857341766,0.470719188452,-9.57129001617,0.274586200714,acc,,,
504,1644542389859355927,0.598205626011,-9.70858287811,0.402072638273,acc,,,
505,1644542389859607935,,,,gyr,0.00349065847695,0.0750491544604,0.0
506,1644542389861369848,0.490332484245,-9.49283695221,0.343232750893,acc,,,
507,1644542389863384008,0.57859236002,-9.7478094101,0.274586200714,acc,,,
508,1644542389864619970,,,,gyr,0.00523598771542,0.104719758034,-0.00174532923847
509,1644542389865397930,0.451105892658,-9.58109664917,0.549172401428,acc,,,
510,1644542389867413998,0.666852176189,-9.64974308014,0.38245934248,acc,,,
511,1644542389869428158,0.470719188452,-9.62032318115,0.490332484245,acc,,,
512,1644542389869632006,,,,gyr,0.0104719754308,0.153588980436,-0.00174532923847
513,1644542389871442080,0.558979034424,-9.64974308014,0.274586200714,acc,,,
514,1644542389873456240,0.725692093372,-9.67916297913,0.0,acc,,,
515,1644542389874644279,,,,gyr,0.0209439508617,0.228638127446,0.0
516,1644542389875470161,0.764918684959,-9.58109664917,-0.274586200714,acc,,,
517,1644542389877484322,0.666852176189,-9.70858287811,-0.362846046686,acc,,,
518,1644542389879500389,0.833565235138,-9.56148338318,-0.451105892658,acc,,,
519,1644542389879656553,,,,gyr,0.0855211317539,0.280998021364,0.0174532923847
520,1644542389881514311,0.813951909542,-9.67916297913,-0.38245934248,acc,,,
521,1644542389883528471,0.774725317955,-9.64974308014,-0.274586200714,acc,,,
522,1644542389884668350,,,,gyr,0.214675500989,0.246091425419,0.0436332300305
523,1644542389885544777,0.696272134781,-9.57129001617,-0.12748645246,acc,,,
524,1644542389887558699,0.735498726368,-9.62032318115,-0.00980664975941,acc,,,
525,1644542389889574766,0.57859236002,-9.58109664917,0.166713044047,acc,,,
526,1644542389889680624,,,,gyr,0.308923274279,0.158824965358,0.069813169539
527,1644542389891588926,0.490332484245,-9.64974308014,0.402072638273,acc,,,
528,1644542389893604755,0.529559075832,-9.57129001617,0.421685934067,acc,,,
529,1644542389894692898,,,,gyr,0.335103213787,0.102974422276,0.0837758034468
530,1644542389895618916,0.549172401428,-9.61051654816,0.529559075832,acc,,,
531,1644542389897633076,0.470719188452,-9.61051654816,0.549172401428,acc,,,
532,1644542389899648905,0.490332484245,-9.57129001617,0.598205626011,acc,,,
533,1644542389899703026,,,,gyr,0.298451304436,0.0855211317539,0.0715584978461
534,1644542389901663065,0.490332484245,-9.62032318115,0.666852176189,acc,,,
535,1644542389903676987,0.509945809841,-9.58109664917,0.558979034424,acc,,,
536,1644542389904715061,,,,gyr,0.21991148591,0.0593411922455,0.0523598790169
537,1644542389905691147,0.470719188452,-9.62032318115,0.549172401428,acc,,,
538,1644542389907707214,0.529559075832,-9.57129001617,0.470719188452,acc,,,
539,1644542389909721136,0.529559075832,-9.61051654816,0.509945809841,acc,,,
540,1644542389909727335,,,,gyr,0.127409040928,0.0349065847695,0.0349065847695
541,1644542389911735296,0.470719188452,-9.61051654816,0.421685934067,acc,,,
542,1644542389913749456,0.490332484245,-9.62032318115,0.509945809841,acc,,,
543,1644542389914739609,,,,gyr,0.0645771846175,0.0139626339078,0.0139626339078
544,1644542389915763378,0.509945809841,-9.57129001617,0.549172401428,acc,,,
545,1644542389917779446,0.509945809841,-9.57129001617,0.402072638273,acc,,,
546,1644542389919751644,,,,gyr,0.0104719754308,0.0,0.0
547,1644542389919793606,0.549172401428,-9.62032318115,0.362846046686,acc,,,
548,1644542389921807528,0.558979034424,-9.61051654816,0.421685934067,acc,,,
549,1644542389923821688,0.529559075832,-9.62032318115,0.451105892658,acc,,,
550,1644542389924763680,,,,gyr,-0.0314159244299,-0.0104719754308,-0.00872664619237
551,1644542389925837994,0.558979034424,-9.64974308014,0.421685934067,acc,,,
552,1644542389927851915,0.509945809841,-9.62032318115,0.402072638273,acc,,,
553,1644542389929775953,,,,gyr,-0.0680678412318,-0.0191986225545,-0.0209439508617
554,1644542389929866076,0.598205626011,-9.64974308014,0.402072638273,acc,,,
555,1644542389931879997,0.529559075832,-9.66935634613,0.313812792301,acc,,,
556,1644542389933896065,0.558979034424,-9.61051654816,0.402072638273,acc,,,
557,1644542389934787989,,,,gyr,-0.0925024524331,-0.0261799395084,-0.0226892791688
558,1644542389935910225,0.558979034424,-9.64974308014,0.38245934248,acc,,,
559,1644542389937924147,0.558979034424,-9.62032318115,0.362846046686,acc,,,
560,1644542389939800262,,,,gyr,-0.109955742955,-0.0261799395084,-0.0296705961227
561,1644542389939940214,0.598205626011,-9.58109664917,0.402072638273,acc,,,
562,1644542389941954374,0.598205626011,-9.64974308014,0.421685934067,acc,,,
563,1644542389943968296,0.558979034424,-9.64974308014,0.402072638273,acc,,,
564,1644542389944812298,,,,gyr,-0.136135682464,-0.0349065847695,-0.0349065847695
565,1644542389945982456,0.627625584602,-9.64974308014,0.402072638273,acc,,,
566,1644542389947998524,0.637432217598,-9.64974308014,0.421685934067,acc,,,
567,1644542389949824572,,,,gyr,-0.157079637051,-0.0383972451091,-0.0383972451091
568,1644542389950012445,0.558979034424,-9.64974308014,0.509945809841,acc,,,
569,1644542389952026606,0.549172401428,-9.62032318115,0.57859236002,acc,,,
570,1644542389954040527,0.549172401428,-9.62032318115,0.764918684959,acc,,,
571,1644542389954836607,,,,gyr,-0.179768905044,-0.0296705961227,-0.0436332300305
572,1644542389956054688,0.529559075832,-9.64974308014,0.804145276546,acc,,,
573,1644542389958070755,0.549172401428,-9.62032318115,0.637432217598,acc,,,
574,1644542389959846973,,,,gyr,-0.237364768982,0.00872664619237,-0.0506145469844
575,1644542389960084677,0.529559075832,-9.64974308014,0.57859236002,acc,,,
576,1644542389962098837,0.529559075832,-9.66935634613,0.558979034424,acc,,,
577,1644542389964114904,0.598205626011,-9.66935634613,0.470719188452,acc,,,
578,1644542389964858770,,,,gyr,-0.308923274279,0.0523598790169,-0.0645771846175
579,1644542389966128826,0.598205626011,-9.70858287811,0.402072638273,acc,,,
580,1644542389968142986,2.04958987236,-10.2675619125,-2.19668960571,acc,,,
581,1644542389969871044,,,,gyr,-0.336848556995,0.0925024524331,-0.0680678412318
582,1644542389970157146,-0.686465501785,-8.78675842285,-1.86326348782,acc,,,
583,1644542389972173214,1.17679798603,-10.2185287476,2.42224240303,acc,,,
584,1644542389974187374,0.696272134781,-9.58109664917,0.470719188452,acc,,,
585,1644542389974883318,,,,gyr,-0.0610865242779,0.150098308921,-0.00872664619237
586,1644542389976201534,0.274586200714,-9.30651092529,-0.549172401428,acc,,,
587,1644542389978217363,0.598205626011,-9.81645679474,0.637432217598,acc,,,
588,1644542389979895592,,,,gyr,-0.0209439508617,0.223402142525,0.0069813169539
589,1644542389980231524,0.735498726368,-9.78703689575,0.882598459721,acc,,,
590,1644542389982245684,0.470719188452,-9.30651092529,-0.137293100357,acc,,,
591,1644542389984261513,0.627625584602,-9.78703689575,0.402072638273,acc,,,
592,1644542389984907627,,,,gyr,-0.00349065847695,0.289724647999,0.00349065847695
593,1644542389986275673,0.558979034424,-9.64974308014,0.764918684959,acc,,,
594,1644542389988289833,0.804145276546,-9.53206348419,-0.421685934067,acc,,,
595,1644542389989919662,,,,gyr,0.00349065847695,0.32637655735,0.0
596,1644542389990305662,0.470719188452,-9.57129001617,0.38245934248,acc,,,
597,1644542389992319822,0.686465501785,-9.70858287811,0.0784531980753,acc,,,
598,1644542389994333982,0.558979034424,-9.53206348419,-0.0294199492782,acc,,,
599,1644542389994931936,,,,gyr,0.0069813169539,0.300196617842,0.0
600,1644542389996349812,0.627625584602,-9.61051654816,0.0392265990376,acc,,,
601,1644542389998363972,0.558979034424,-9.75761604309,0.0686465501785,acc,,,
602,1644542389999944210,,,,gyr,0.0226892791688,0.253072738647,0.0
603,1644542390000375986,0.725692093372,-9.53206348419,-0.0980664938688,acc,,,
604,1644542390002392054,0.764918684959,-9.66935634613,-0.245166242123,acc,,,
605,1644542390004406214,0.637432217598,-9.61051654816,-0.38245934248,acc,,,
606,1644542390004956245,,,,gyr,0.0523598790169,0.202458187938,0.00523598771542
607,1644542390006422281,0.666852176189,-9.61051654816,-0.196132987738,acc,,,
608,1644542390008436203,0.764918684959,-9.64974308014,-0.0294199492782,acc,,,
609,1644542390009968519,,,,gyr,0.141371667385,0.148352980614,0.0296705961227
610,1644542390010452509,0.529559075832,-9.64974308014,0.12748645246,acc,,,
611,1644542390012468576,0.490332484245,-9.57129001617,0.176519691944,acc,,,
612,1644542390014482737,0.666852176189,-9.57129001617,0.264779537916,acc,,,
613,1644542390014980555,,,,gyr,0.211184844375,0.111701071262,0.0436332300305
614,1644542390016496658,0.558979034424,-9.64974308014,0.313812792301,acc,,,
615,1644542390018512726,0.451105892658,-9.5222568512,0.294199496508,acc,,,
616,1644542390019992590,,,,gyr,0.226892799139,0.0890117883682,0.0506145469844
617,1644542390020526886,0.558979034424,-9.57129001617,0.362846046686,acc,,,
618,1644542390022540808,0.598205626011,-9.61051654816,0.421685934067,acc,,,
619,1644542390024554968,0.451105892658,-9.58109664917,0.402072638273,acc,,,
620,1644542390025004864,,,,gyr,0.218166157603,0.0767944902182,0.0471238903701
621,1644542390026571035,0.529559075832,-9.61051654816,0.402072638273,acc,,,
622,1644542390028584957,0.637432217598,-9.62032318115,0.509945809841,acc,,,
623,1644542390030015230,,,,gyr,0.185004904866,0.0645771846175,0.0436332300305
624,1644542390030599117,0.509945809841,-9.62032318115,0.421685934067,acc,,,
625,1644542390032615185,0.529559075832,-9.62032318115,0.451105892658,acc,,,
626,1644542390034629107,0.627625584602,-9.62032318115,0.470719188452,acc,,,
627,1644542390035027027,,,,gyr,0.153588980436,0.0418879017234,0.0349065847695
628,1644542390036643267,0.529559075832,-9.61051654816,0.451105892658,acc,,,
629,1644542390038657188,0.558979034424,-9.71838951111,0.451105892658,acc,,,
630,1644542390040039301,,,,gyr,0.106465086341,0.0349065847695,0.0209439508617
631,1644542390040671349,0.627625584602,-9.62032318115,0.402072638273,acc,,,
632,1644542390042687416,0.549172401428,-9.61051654816,0.470719188452,acc,,,
633,1644542390044701338,0.57859236002,-9.67916297913,0.529559075832,acc,,,
634,1644542390045051575,,,,gyr,0.0680678412318,0.0139626339078,0.0139626339078
635,1644542390046715498,0.558979034424,-9.62032318115,0.421685934067,acc,,,
636,1644542390048729658,0.627625584602,-9.64974308014,0.470719188452,acc,,,
637,1644542390050063610,,,,gyr,0.0226892791688,0.00174532923847,0.00872664619237
638,1644542390050743580,0.666852176189,-9.64974308014,0.362846046686,acc,,,
639,1644542390052759647,0.627625584602,-9.64974308014,0.245166242123,acc,,,
640,1644542390054773808,0.686465501785,-9.62032318115,0.313812792301,acc,,,
641,1644542390055075884,,,,gyr,-0.00872664619237,-0.00523598771542,-0.00174532923847
642,1644542390056787729,0.627625584602,-9.66935634613,0.362846046686,acc,,,
643,1644542390058804035,0.57859236002,-9.62032318115,0.362846046686,acc,,,
644,1644542390060088158,,,,gyr,-0.0191986225545,-0.00872664619237,-0.00174532923847
645,1644542390060818195,0.637432217598,-9.70858287811,0.470719188452,acc,,,
646,1644542390062832117,0.637432217598,-9.67916297913,0.470719188452,acc,,,
647,1644542390064848185,0.57859236002,-9.62032318115,0.490332484245,acc,,,
648,1644542390065100193,,,,gyr,-0.0436332300305,-0.0139626339078,-0.0104719754308
649,1644542390066862345,0.637432217598,-9.70858287811,0.402072638273,acc,,,
650,1644542390068876266,0.637432217598,-9.62032318115,0.451105892658,acc,,,
651,1644542390070112228,,,,gyr,-0.0890117883682,-0.0261799395084,-0.0174532923847
652,1644542390070892334,0.558979034424,-9.66935634613,0.470719188452,acc,,,
653,1644542390072906494,0.598205626011,-9.70858287811,0.509945809841,acc,,,
654,1644542390074920654,0.57859236002,-9.64974308014,0.549172401428,acc,,,
655,1644542390075124502,,,,gyr,-0.141371667385,-0.0383972451091,-0.0261799395084
656,1644542390076936483,0.57859236002,-9.61051654816,0.549172401428,acc,,,
657,1644542390078950644,0.57859236002,-9.64974308014,0.549172401428,acc,,,
658,1644542390080136776,,,,gyr,-0.193731546402,-0.0558505356312,-0.0436332300305
659,1644542390080964804,0.549172401428,-9.62032318115,0.549172401428,acc,,,
660,1644542390082980633,0.57859236002,-9.61051654816,0.490332484245,acc,,,
661,1644542390084994793,0.627625584602,-9.61051654816,0.421685934067,acc,,,
662,1644542390085148811,,,,gyr,-0.254818081856,-0.0715584978461,-0.0523598790169
663,1644542390087011099,0.558979034424,-9.61051654816,0.402072638273,acc,,,
664,1644542390089025021,0.637432217598,-9.62032318115,0.38245934248,acc,,,
665,1644542390090161085,,,,gyr,-0.308923274279,-0.0890117883682,-0.069813169539
666,1644542390091039181,0.637432217598,-9.64974308014,0.274586200714,acc,,,
667,1644542390093053341,1.12776470184,-9.96355628967,-0.264779537916,acc,,,
668,1644542390095067024,0.666852176189,-9.20844459534,-2.92238163948,acc,,,
669,1644542390095171213,,,,gyr,-0.317649930716,-0.0942477807403,-0.0610865242779
670,1644542390097083330,0.451105892658,-9.61051654816,1.04931151867,acc,,,
671,1644542390099097490,0.696272134781,-9.88510322571,1.04931151867,acc,,,
672,1644542390100183249,,,,gyr,-0.0872664600611,-0.0349065847695,-0.00174532923847
673,1644542390101111412,0.637432217598,-9.45361042023,-0.402072638273,acc,,,
674,1644542390103127480,0.264779537916,-9.64974308014,0.627625584602,acc,,,
675,1644542390105143547,0.813951909542,-9.71838951111,0.176519691944,acc,,,
676,1644542390105195522,,,,gyr,-0.0104719754308,-0.0069813169539,0.0
677,1644542390107157707,0.451105892658,-9.5222568512,0.225552946329,acc,,,
678,1644542390109171629,0.57859236002,-9.80665016174,0.38245934248,acc,,,
679,1644542390110207796,,,,gyr,-0.00523598771542,0.00174532923847,0.00349065847695
680,1644542390111187696,0.509945809841,-9.5222568512,0.137293100357,acc,,,
681,1644542390113201857,0.598205626011,-9.7478094101,0.274586200714,acc,,,
682,1644542390115215778,0.558979034424,-9.57129001617,0.313812792301,acc,,,
683,1644542390115220070,,,,gyr,-0.00174532923847,-0.00174532923847,0.00174532923847
684,1644542390117231846,0.470719188452,-9.57129001617,0.225552946329,acc,,,
685,1644542390119246006,0.57859236002,-9.67916297913,0.294199496508,acc,,,
686,1644542390120232105,,,,gyr,-0.00523598771542,-0.00174532923847,0.00174532923847
687,1644542390121259928,0.598205626011,-9.57129001617,0.225552946329,acc,,,
688,1644542390123276234,0.470719188452,-9.58109664917,0.196132987738,acc,,,
689,1644542390125244141,,,,gyr,-0.00523598771542,-0.00349065847695,0.00349065847695
690,1644542390125290394,0.558979034424,-9.58109664917,0.176519691944,acc,,,
691,1644542390127304554,0.549172401428,-9.53206348419,0.294199496508,acc,,,
692,1644542390129320383,0.529559075832,-9.57129001617,0.245166242123,acc,,,
693,1644542390130256414,,,,gyr,-0.00349065847695,0.0,0.0
694,1644542390131334543,0.549172401428,-9.62032318115,0.196132987738,acc,,,
695,1644542390133348703,0.57859236002,-9.61051654816,0.343232750893,acc,,,
696,1644542390135268450,,,,gyr,0.0,0.00349065847695,0.0
697,1644542390135364532,0.558979034424,-9.70858287811,0.264779537916,acc,,,
698,1644542390137378693,0.666852176189,-9.66935634613,0.225552946329,acc,,,
699,1644542390139392853,0.558979034424,-9.5222568512,0.0,acc,,,
700,1644542390140280724,,,,gyr,-0.00523598771542,-0.0139626339078,0.00349065847695
701,1644542390141408920,0.637432217598,-9.62032318115,0.137293100357,acc,,,
702,1644542390143422842,0.627625584602,-9.62032318115,0.196132987738,acc,,,
703,1644542390145292997,,,,gyr,-0.00174532923847,-0.0436332300305,0.0
704,1644542390145437002,0.598205626011,-9.66935634613,0.0686465501785,acc,,,
705,1644542390147450924,0.696272134781,-9.66935634613,0.0980664938688,acc,,,
706,1644542390149466991,0.637432217598,-9.62032318115,0.245166242123,acc,,,
707,1644542390150305271,,,,gyr,0.0,-0.0802851468325,-0.00174532923847
708,1644542390151481152,0.598205626011,-9.66935634613,0.176519691944,acc,,,
709,1644542390153495312,0.637432217598,-9.62032318115,0.196132987738,acc,,,
710,1644542390155317307,,,,gyr,-0.00174532923847,-0.129154369235,0.0
711,1644542390155511141,0.598205626011,-9.66935634613,0.490332484245,acc,,,
712,1644542390157525301,0.549172401428,-9.62032318115,0.490332484245,acc,,,
713,1644542390159539461,0.529559075832,-9.64974308014,0.402072638273,acc,,,
714,1644542390160327435,,,,gyr,-0.0069813169539,-0.122173048556,0.00349065847695
715,1644542390161553383,0.558979034424,-9.61051654816,0.402072638273,acc,,,
716,1644542390163569689,0.57859236002,-9.67916297913,0.38245934248,acc,,,
717,1644542390165339708,,,,gyr,-0.0104719754308,-0.0610865242779,0.00174532923847
718,1644542390165583849,0.627625584602,-9.64974308014,0.176519691944,acc,,,
719,1644542390167597771,0.598205626011,-9.67916297913,0.343232750893,acc,,,
720,1644542390169613838,0.627625584602,-9.71838951111,0.362846046686,acc,,,
721,1644542390170351744,,,,gyr,-0.00523598771542,-0.0226892791688,0.0
722,1644542390171627998,0.598205626011,-9.61051654816,0.245166242123,acc,,,
723,1644542390173642159,0.627625584602,-9.66935634613,0.294199496508,acc,,,
724,1644542390175364017,,,,gyr,0.0,-0.0104719754308,0.0069813169539
725,1644542390175656080,0.666852176189,-9.66935634613,0.274586200714,acc,,,
726,1644542390177672148,0.637432217598,-9.61051654816,0.225552946329,acc,,,
727,1644542390179686308,0.627625584602,-9.58109664917,0.225552946329,acc,,,
728,1644542390180376291,,,,gyr,-0.00349065847695,0.0,0.00349065847695
729,1644542390181700230,0.686465501785,-9.67916297913,0.196132987738,acc,,,
730,1644542390183714390,0.57859236002,-9.61051654816,0.225552946329,acc,,,
731,1644542390185388327,,,,gyr,-0.00174532923847,-0.00349065847695,0.00174532923847
732,1644542390185730457,0.598205626011,-9.62032318115,0.245166242123,acc,,,
733,1644542390187744379,0.696272134781,-9.70858287811,0.264779537916,acc,,,
734,1644542390189758539,0.627625584602,-9.61051654816,0.225552946329,acc,,,
735,1644542390190400600,,,,gyr,0.0,0.0,0.00349065847695
736,1644542390191772699,0.57859236002,-9.62032318115,0.264779537916,acc,,,
737,1644542390193788767,0.686465501785,-9.66935634613,0.245166242123,acc,,,
738,1644542390195412874,,,,gyr,-0.00523598771542,0.00349065847695,0.0
739,1644542390195802689,0.627625584602,-9.58109664917,0.196132987738,acc,,,
740,1644542390197816849,0.57859236002,-9.58109664917,0.196132987738,acc,,,
741,1644542390199830770,0.666852176189,-9.70858287811,0.274586200714,acc,,,
742,1644542390200425148,,,,gyr,0.0,0.00174532923847,0.0
743,1644542390201846838,0.57859236002,-9.61051654816,0.137293100357,acc,,,
744,1644542390203860998,0.637432217598,-9.67916297913,0.264779537916,acc,,,
745,1644542390205437183,,,,gyr,0.0,0.0,0.00174532923847
746,1644542390205875158,0.598205626011,-9.67916297913,0.264779537916,acc,,,
747,1644542390207889080,0.558979034424,-9.58109664917,0.196132987738,acc,,,
748,1644542390209903240,0.627625584602,-9.62032318115,0.176519691944,acc,,,
749,1644542390210449219,,,,gyr,-0.00523598771542,0.0,0.0
750,1644542390211919546,0.627625584602,-9.61051654816,0.166713044047,acc,,,
751,1644542390213933468,0.558979034424,-9.57129001617,0.0980664938688,acc,,,
752,1644542390215461493,,,,gyr,-0.00174532923847,0.0,0.00174532923847
753,1644542390215947628,0.627625584602,-9.64974308014,0.313812792301,acc,,,
754,1644542390217961788,0.490332484245,-9.57129001617,0.0980664938688,acc,,,
755,1644542390219975471,0.598205626011,-9.58109664917,0.264779537916,acc,,,
756,1644542390220471621,,,,gyr,-0.00349065847695,0.0,0.00174532923847
757,1644542390221989632,0.57859236002,-9.57129001617,0.245166242123,acc,,,
758,1644542390224005938,0.509945809841,-9.58109664917,0.166713044047,acc,,,
759,1644542390225483894,,,,gyr,0.0,-0.00174532923847,0.0
760,1644542390226020098,0.598205626011,-9.58109664917,0.196132987738,acc,,,
761,1644542390228034019,0.558979034424,-9.58109664917,0.176519691944,acc,,,
762,1644542390230048180,0.529559075832,-9.62032318115,0.264779537916,acc,,,
763,1644542390230496168,,,,gyr,0.0,0.00349065847695,0.0
764,1644542390232062101,0.558979034424,-9.58109664917,0.176519691944,acc,,,
765,1644542390234078169,0.558979034424,-9.57129001617,0.274586200714,acc,,,
766,1644542390235508204,,,,gyr,0.00349065847695,0.0,-0.00174532923847
767,1644542390236092329,0.549172401428,-9.62032318115,0.245166242123,acc,,,
768,1644542390238106489,0.558979034424,-9.62032318115,0.245166242123,acc,,,
769,1644542390240120411,0.57859236002,-9.62032318115,0.264779537916,acc,,,
770,1644542390240520477,,,,gyr,0.0069813169539,0.00174532923847,0.0
771,1644542390242134571,0.57859236002,-9.62032318115,0.343232750893,acc,,,
772,1644542390244150639,0.529559075832,-9.57129001617,0.264779537916,acc,,,
773,1644542390245532751,,,,gyr,0.0,0.0,0.00174532923847
774,1644542390246164560,0.529559075832,-9.58109664917,0.274586200714,acc,,,
775,1644542390248178720,0.549172401428,-9.61051654816,0.274586200714,acc,,,
776,1644542390250192881,0.558979034424,-9.61051654816,0.264779537916,acc,,,
777,1644542390250545025,,,,gyr,-0.00174532923847,0.00174532923847,0.0
778,1644542390252206802,0.558979034424,-9.61051654816,0.176519691944,acc,,,
779,1644542390254222870,0.558979034424,-9.62032318115,0.362846046686,acc,,,
780,1644542390255557060,,,,gyr,-0.00349065847695,0.0,0.00174532923847
781,1644542390256237030,0.57859236002,-9.62032318115,0.313812792301,acc,,,
782,1644542390258251190,0.558979034424,-9.57129001617,0.225552946329,acc,,,
783,1644542390260265112,0.529559075832,-9.61051654816,0.343232750893,acc,,,
784,1644542390260569096,,,,gyr,-0.0069813169539,-0.00174532923847,0.0
785,1644542390262279272,0.627625584602,-9.61051654816,0.245166242123,acc,,,
786,1644542390264293432,0.627625584602,-9.62032318115,0.264779537916,acc,,,
787,1644542390265581369,,,,gyr,-0.00349065847695,0.00174532923847,0.00174532923847
788,1644542390266307354,0.598205626011,-9.66935634613,0.343232750893,acc,,,
789,1644542390268321514,0.627625584602,-9.64974308014,0.264779537916,acc,,,
790,1644542390270335674,0.666852176189,-9.62032318115,0.274586200714,acc,,,
791,1644542390270593405,,,,gyr,-0.0104719754308,0.0,0.00349065847695
792,1644542390272349596,0.549172401428,-9.61051654816,0.274586200714,acc,,,
793,1644542390274363756,0.666852176189,-9.67916297913,0.294199496508,acc,,,
794,1644542390275605679,,,,gyr,-0.00872664619237,-0.00523598771542,0.0
795,1644542390276377916,0.598205626011,-9.58109664917,0.245166242123,acc,,,
796,1644542390278391838,0.57859236002,-9.62032318115,0.196132987738,acc,,,
797,1644542390280405998,0.686465501785,-9.67916297913,0.274586200714,acc,,,
798,1644542390280617952,,,,gyr,-0.0104719754308,0.0,0.00174532923847
799,1644542390282422066,0.666852176189,-9.64974308014,0.343232750893,acc,,,
800,1644542390284435987,0.637432217598,-9.62032318115,0.274586200714,acc,,,
801,1644542390285630226,,,,gyr,-0.00174532923847,-0.00174532923847,0.00174532923847
802,1644542390286450148,0.627625584602,-9.66935634613,0.245166242123,acc,,,
