,field.header.stamp,field.linear_acceleration.x,field.linear_acceleration.y,field.linear_acceleration.z,type,delta_x,delta_z,field.angular_velocity.x,field.angular_velocity.y,field.angular_velocity.z,delta_angle,x,z
0,1644542237823688030,0.0294199492782,-9.62032318115,0.294199496508,acc,0.0,0.0,,,,,0,0
1,1644542237825701714,0.0686465501785,-9.66935634613,0.294199496508,acc,2.783564924784993e-07,-1.1929563790746171e-06,,,,,0.0,0.0
2,1644542237826943636,,,,gyr,0.0,0.0,0.0,0.0,-0.00174532923847,,0.0,0.0
3,1644542237827717543,0.0392265990376,-9.62032318115,0.264779537916,acc,1.5939989600349333e-07,-1.0759492753171828e-06,,,,,0.0,0.0
4,1644542237829731226,0.0294199492782,-9.67916297913,0.274586200714,acc,1.1929551791166445e-07,-1.1134248640545938e-06,,,,,1.5939989600349333e-07,-1.0759492753171828e-06
5,1644542237831763029,0.0294199492782,-9.62032318115,0.313812792301,acc,1.2145212394347757e-07,-1.2954893220645862e-06,,,,,2.7869541391515775e-07,-2.1893741393717764e-06
6,1644542237831954718,,,,gyr,1.2146345427280783e-07,-1.2954882597962283e-06,-0.00523598771542,0.00174532923847,0.00174532923847,-8.745987930970724e-06,2.7869541391515775e-07,-2.1893741393717764e-06
7,1644542237833760738,0.0686465501785,-9.64974308014,0.294199496508,acc,2.739574840320078e-07,-1.1741034860053078e-06,,,,,4.001588681879656e-07,-3.4848623991680047e-06
8,1644542237835774422,0.0294199492782,-9.64974308014,0.166713044047,acc,1.192956363965973e-07,-6.760085986938737e-07,,,,,6.741163522199735e-07,-4.658965885173313e-06
9,1644542237836966276,,,,gyr,1.192956363965973e-07,-6.760085986938737e-07,-0.00523598771542,0.0,0.00174532923847,-0.0,6.741163522199735e-07,-4.658965885173313e-06
10,1644542237837788105,0.0294199492782,-9.67916297913,0.176519691944,acc,1.1929551791166445e-07,-7.157730923646017e-07,,,,,7.934119886165707e-07,-5.334974483867186e-06
11,1644542237839801788,0.0392265990376,-9.64974308014,0.225552946329,acc,1.5906069054888596e-07,-9.145989782095978e-07,,,,,9.127075065282351e-07,-6.050747576231787e-06
12,1644542237841815710,0.0294199492782,-9.64974308014,0.264779537916,acc,1.1932383748408468e-07,-1.0739145146933057e-06,,,,,1.071768197077121e-06,-6.965346554441385e-06
13,1644542237841977596,,,,gyr,1.1930505168687717e-07,-1.073916601837814e-06,-0.00349065847695,-0.00349065847695,0.0,1.7492806638709073e-05,1.071768197077121e-06,-6.965346554441385e-06
14,1644542237843831301,0.0686465501785,-9.62032318115,0.264779537916,acc,2.788839607233925e-07,-1.0756952251862937e-06,,,,,1.1910732487639982e-06,-8.039263156279198e-06
15,1644542237845844984,0.0392265990376,-9.61051654816,0.274586200714,acc,1.5906069054888596e-07,-1.1134248640545938e-06,,,,,1.4699572094873906e-06,-9.114958381465493e-06
16,1644542237846988916,,,,gyr,1.5905095207987528e-07,-1.1134262552209575e-06,0.0,-0.00174532923847,0.00174532923847,8.74640331932948e-06,1.4699572094873906e-06,-9.114958381465493e-06
17,1644542237847860813,0.0392265990376,-9.64974308014,0.225552946329,acc,1.5939989600349333e-07,-9.165494095896984e-07,,,,,1.6290081615672659e-06,-1.022838463668645e-05
18,1644542237849874496,0.0686465501785,-9.62032318115,0.294199496508,acc,2.7835621601364845e-07,-1.1929551942252736e-06,,,,,1.7884080575707592e-06,-1.1144934046276148e-05
19,1644542237852000237,,,,gyr,2.783666500723539e-07,-1.1929527595634259e-06,0.0,0.00174532923847,0.00174532923847,-8.74640506465872e-06,1.7884080575707592e-06,-1.1144934046276148e-05
20,1644542237853904009,0.0686465501785,-9.66935634613,0.313812792301,acc,1.1146123202631425e-06,-5.095370468659382e-06,,,,,2.0667747076431133e-06,-1.2337886805839574e-05
21,1644542237855917692,0.0294199492782,-9.70858287811,0.294199496508,acc,1.1929551791166445e-07,-1.1929551942252736e-06,,,,,3.181387027906256e-06,-1.7433257274498957e-05
22,1644542237857011557,,,,gyr,1.193059519743719e-07,-1.1929541507729296e-06,-0.00349065847695,0.00174532923847,0.0,-8.74640331932948e-06,3.181387027906256e-06,-1.7433257274498957e-05
23,1644542237862022877,,,,gyr,1.1931638602795246e-07,-1.1929531072293252e-06,0.0,0.00174532923847,0.0,-8.74640331932948e-06,3.181387027906256e-06,-1.7433257274498957e-05
24,1644542237867034197,,,,gyr,1.192955179116644e-07,-1.1929551942252739e-06,0.0,-0.00349065847695,0.0,1.7492806638709073e-05,3.181387027906256e-06,-1.7433257274498957e-05
25,1644542237872045517,,,,gyr,1.1934768813392512e-07,-1.1929499760509493e-06,0.0104719754308,0.00872664619237,0.00174532923847,-4.3732016596747625e-05,3.181387027906256e-06,-1.7433257274498957e-05
26,1644542237877056837,,,,gyr,1.195981020217611e-07,-1.1929248970558314e-06,0.0750491544604,0.0418879017234,0.00174532923847,-0.00020991367966450886,3.181387027906256e-06,-1.7433257274498957e-05
27,1644542237882068157,,,,gyr,1.201719472923894e-07,-1.1928672261013917e-06,0.202458187938,0.0959931090474,0.00349065847695,-0.0004810521872314165,3.181387027906256e-06,-1.7433257274498957e-05
28,1644542237887079239,,,,gyr,1.2063098170921066e-07,-1.1928208927893348e-06,0.141371667385,0.0767944902182,0.0069813169539,-0.00038482348763159814,3.181387027906256e-06,-1.7433257274498957e-05
29,1644542237892088890,,,,gyr,1.2057883450403587e-07,-1.1928261653285956e-06,-0.00523598771542,-0.00872664619237,0.0,4.371745182425256e-05,3.181387027906256e-06,-1.7433257274498957e-05
30,1644542237897100210,,,,gyr,1.2057883450403587e-07,-1.1928261653285956e-06,-0.0104719754308,0.0,0.0,-0.0,3.181387027906256e-06,-1.7433257274498957e-05
31,1644542237902111292,,,,gyr,1.2056840205617861e-07,-1.192827219864006e-06,-0.0104719754308,-0.00174532923847,0.00349065847695,8.745987930970724e-06,3.181387027906256e-06,-1.7433257274498957e-05
32,1644542238564903975,-0.0392265990376,-8.80637168884,0.12748645246,acc,-0.019717703053155268,-0.06408253773152683,,,,,3.3019554299624347e-06,-1.8626084494362964e-05
33,1644542238566917658,-0.912018418312,-9.17902374268,1.5886772871,acc,-3.69816101750138e-06,-6.441958072970821e-06,,,,,-0.019714401097725306,-0.0641011638160212
34,1644542238568595409,,,,gyr,-4.962820742648531e-06,-5.526810020402208e-06,-0.0558505356312,-0.315904587507,0.0418879017234,0.21054539006085213,-0.019714401097725306,-0.0641011638160212
35,1644542238568931341,-0.38245934248,-10.797121048,1.33370435238,acc,-1.5508417404075745e-06,-5.408063418250314e-06,,,,,-0.019719363918467955,-0.0641066906260416
36,1644542238570947170,-0.0784531980753,-8.62004470825,0.176519691944,acc,-3.18799792007393e-07,-7.172995168781217e-07,,,,,-0.01972091476020836,-0.06411209868945986
37,1644542238572960854,-1.922103405,-9.70858287811,2.20649623871,acc,-7.79398178940609e-06,-8.947172903477984e-06,,,,,-0.019721233560000367,-0.06411281598897674
38,1644542238573606730,,,,gyr,-7.805400749563189e-06,-8.937212889768422e-06,0.0925024524331,-0.254818081856,0.0296705961227,0.0012769752047846919,-0.019721233560000367,-0.06411281598897674
39,1644542238574974537,-0.549172401428,-9.53206348419,0.529559075832,acc,-2.2268497281091876e-06,-2.147319277093805e-06,,,,,-0.01972903896074993,-0.0641217532018665
40,1644542238576990128,0.0,-9.98316955566,1.09834480286,acc,0.0,-4.462143371590531e-06,,,,,-0.019731265810478037,-0.0641239005211436
41,1644542238578617811,,,,gyr,-3.317196354681095e-09,-4.4621421385739895e-06,-0.0383972451091,-0.148352980614,0.0314159244299,0.0007434088024481837,-0.019731265810478037,-0.0641239005211436
42,1644542238579003811,-0.627625584602,-9.48303031921,1.16699135303,acc,-2.544971048783797e-06,-4.732055672213776e-06,,,,,-0.01973126912767439,-0.06412836266328217
43,1644542238581017733,-0.245166242123,-10.2381420135,1.50041747093,acc,-9.943653048153203e-07,-6.085515945882236e-06,,,,,-0.019733814098723174,-0.06413309471895438
44,1644542238583031416,-0.313812792301,-9.67916297913,2.02997660637,acc,-1.2724855243918985e-06,-8.231391166432653e-06,,,,,-0.01973480846402799,-0.06413918023490027
45,1644542238583629608,,,,gyr,-1.2854442877859592e-06,-8.229377432565047e-06,0.104719758034,-0.314159274101,0.0174532923847,0.0015745025074615695,-0.01973480846402799,-0.06413918023490027
46,1644542238585047245,1.48080408573,-9.02211761475,0.774725317955,acc,6.017345960598262e-06,-3.1481478930898375e-06,,,,,-0.019736093908315776,-0.06414740961233284
47,1644542238587061167,1.54945063591,-9.31631755829,0.833565235138,acc,6.284388668403863e-06,-3.3808420847173896e-06,,,,,-0.01973007656235518,-0.06415055776022593
48,1644542238588641167,,,,gyr,6.280510661755476e-06,-3.3880407265755963e-06,0.129154369235,-0.228638127446,0.0296705961227,0.0011458334653451482,-0.01973007656235518,-0.06415055776022593
49,1644542238589074850,1.78481030464,-10.2675619125,1.40235090256,acc,7.2372616163508044e-06,-5.686419634270045e-06,,,,,-0.019723796051693422,-0.06415394580095252
50,1644542238591088772,0.833565235138,-8.70830535889,2.47127580643,acc,3.3808420847173896e-06,-1.0023202620655416e-05,,,,,-0.019716558790077072,-0.06415963222058679
51,1644542238593104839,3.12832117081,-9.88510322571,1.52983736992,acc,1.2715143199628966e-05,-6.218063992975478e-06,,,,,-0.019713177947992353,-0.06416965542320745
52,1644542238593652487,,,,gyr,1.270915488913075e-05,-6.230294408123331e-06,-0.167551606894,-0.191986218095,0.0279252678156,0.0009621043744638353,-0.019713177947992353,-0.06416965542320745
53,1644542238595118761,2.33398270607,-9.78703689575,1.60829055309,acc,9.466358030607737e-06,-6.5230364189071535e-06,,,,,-0.01970046879310322,-0.06417588571761557
54,1644542238597132206,2.99102807045,-9.71838951111,1.97113656998,acc,1.2125510453665815e-05,-7.990910323118284e-06,,,,,-0.019691002435072612,-0.06418240875403447
55,1644542238598664284,,,,gyr,1.2126908235647772e-05,-7.988788906852875e-06,-0.102974422276,0.0349065847695,0.0191986225545,-0.00017494471682802582,-0.019691002435072612,-0.06418240875403447
56,1644542238599146128,2.78508853912,-9.34573745728,1.60829055309,acc,1.1295989978711291e-05,-6.5230364189071535e-06,,,,,-0.019678875526836965,-0.06419039754294133
57,1644542238601159811,2.55953550339,-9.56148338318,1.75539028645,acc,1.037870971845824e-05,-7.117965819007357e-06,,,,,-0.019667579536858253,-0.06419692057936023
58,1644542238603173733,1.9024900198,-10.0420093536,2.17707633972,acc,7.71627468800305e-06,-8.829964351559519e-06,,,,,-0.019657200827139794,-0.06420403854517924
59,1644542238603673935,,,,gyr,7.71279987882641e-06,-8.832999690914962e-06,-0.0191986225545,-0.0785398185253,0.0069813169539,0.00039345708041508767,-0.019657200827139794,-0.06420403854517924
60,1644542238605189800,1.84365010262,-8.53178501129,2.09862303734,acc,7.493564050763417e-06,-8.529908211089836e-06,,,,,-0.019649488027260967,-0.06421287154487015
61,1644542238607203484,1.78481030464,-9.58109664917,1.70635700226,acc,7.237268804436926e-06,-6.919146684431375e-06,,,,,-0.019641994463210206,-0.06422140145308124
62,1644542238608685255,,,,gyr,7.2398705512749e-06,-6.916424292156754e-06,-0.123918376863,0.0750491544604,0.0104719754308,-0.00037609532873049173,-0.019641994463210206,-0.06422140145308124
63,1644542238609217167,0.804145276546,-9.35554409027,1.97113656998,acc,3.260744141148399e-06,-7.992799571705211e-06,,,,,-0.01963475459265893,-0.06422831787737339
64,1644542238611231089,0.912018418312,-10.3950490952,2.55953550339,acc,3.6990389242374426e-06,-1.0381173521178122e-05,,,,,-0.01963149384851778,-0.06423631067694509
65,1644542238613244772,-0.00980664975941,-8.62004470825,2.20649623871,acc,-3.9765172637262036e-08,-8.947164017107848e-06,,,,,-0.019627794809593542,-0.06424669185046626
66,1644542238613697052,,,,gyr,-3.702596739277509e-08,-8.947175772036836e-06,-0.317649930716,0.0610865242779,0.0,-0.00030615325911640637,-0.019627794809593542,-0.06424669185046626
67,1644542238615260839,0.725692093372,-10.2087221146,2.06920313835,acc,2.9495944892622146e-06,-8.410330262359074e-06,,,,,-0.019627831835560935,-0.06425563902623829
68,1644542238617272615,-1.04931151867,-9.1299905777,2.33398270607,acc,-4.24681835686565e-06,-9.446194408795281e-06,,,,,-0.019624882241071673,-0.06426404935650065
69,1644542238618708611,,,,gyr,-4.240537982158642e-06,-9.449015429495086e-06,-0.459021598101,0.132645025849,-0.0139626339078,-0.0006647583730987886,-0.019624882241071673,-0.06426404935650065
70,1644542238619288445,-0.294199496508,-9.8949098587,2.41243577003,acc,-1.1955004212790971e-06,-9.803103042704234e-06,,,,,-0.01962912277905383,-0.06427349837193015
71,1644542238621302128,-1.55925726891,-8.8946313858,2.49088907242,acc,-6.322662275627373e-06,-1.0100353985825432e-05,,,,,-0.01963031827947511,-0.06428330147497285
72,1644542238623316050,-1.01008486748,-10.0125894547,2.64779543877,acc,-4.096784852774258e-06,-1.0739145388704172e-05,,,,,-0.019636640941750737,-0.06429340182895868
73,1644542238623719931,,,,gyr,-4.094248658296956e-06,-1.0740112556844096e-05,-0.942477762699,0.0471238903701,-0.0279252678156,-0.00023615289428948952,-0.019636640941750737,-0.06429340182895868
74,1644542238625329733,-1.2650578022,-9.94394302368,2.33398270607,acc,-5.129707202230583e-06,-9.464111344468103e-06,,,,,-0.019640735190409035,-0.06430414194151553
75,1644542238627345800,-2.11823630333,-8.75733852386,2.5399222374,acc,-8.60962684356346e-06,-1.0323580349040984e-05,,,,,-0.019645864897611266,-0.06431360605285999
76,1644542238628731728,,,,gyr,-8.598695384990418e-06,-1.0332687127976835e-05,-1.1850785017,0.211184844375,-0.0069813169539,-0.0010584155694840919,-0.019645864897611266,-0.06431360605285999
77,1644542238629359722,-1.70635700226,-11.0422878265,2.97141480446,acc,-6.920782347452081e-06,-1.2051707291280598e-05,,,,,-0.019654463592996257,-0.06432393873998797
78,1644542238631373405,-2.62818217278,-7.8943529129,2.31436944008,acc,-1.0657066417864892e-05,-9.384581135150235e-06,,,,,-0.019661384375343708,-0.06433599044727925
79,1644542238633387566,-1.9024900198,-9.86548995972,2.55953550339,acc,-7.718106237664885e-06,-1.0383637616304455e-05,,,,,-0.019672041441761573,-0.0643453750284144
80,1644542238633743525,,,,gyr,-7.698291685153649e-06,-1.0398336365636026e-05,-1.58824956417,0.380481779575,-0.0174532923847,-0.0019068974414286463,-0.019672041441761573,-0.0643453750284144
81,1644542238635403395,-3.10870790482,-9.49283695221,2.2359161377,acc,-1.2632441478257287e-05,-9.08579404195318e-06,,,,,-0.019679739733446725,-0.06435577336478004
82,1644542238637417555,-2.60856890678,-9.56148338318,1.67693710327,acc,-1.0582548002673814e-05,-6.803066365889267e-06,,,,,-0.019692372174924984,-0.064364859158822
83,1644542238638755322,,,,gyr,-1.0567526282107287e-05,-6.826376966192318e-06,-1.81688773632,0.439822971821,-0.0226892791688,-0.0022043034507035725,-0.019692372174924984,-0.064364859158822
84,1644542238639431477,-3.21658110619,-9.25747776031,1.48080408573,acc,-1.3046072837854866e-05,-6.005966373380024e-06,,,,,-0.01970293970120709,-0.06437168553578819
85,1644542238641447544,-3.26561427116,-9.62032318115,1.34351098537,acc,-1.3273174596008666e-05,-5.460735530818587e-06,,,,,-0.019715985774044948,-0.06437769150216156
86,1644542238643461466,-3.76575350761,-9.25747776031,0.961051702499,acc,-1.5273451197964462e-05,-3.897912130248575e-06,,,,,-0.019729258948640957,-0.06438315223769238
87,1644542238643767595,,,,gyr,-1.526516497222982e-05,-3.930237759010105e-06,-2.1991147995,0.422369688749,-0.0349065847695,-0.0021170321869350165,-0.019729258948640957,-0.06438315223769238
88,1644542238645475626,-3.90304660797,-9.75761604309,0.872791826725,acc,-1.583403757445738e-05,-3.5407772356145967e-06,,,,,-0.019744524113613188,-0.06438708247545138
89,1644542238647489548,-3.51078057289,-9.88510322571,0.843371868134,acc,-1.4239311106910203e-05,-3.4206166292217147e-06,,,,,-0.019760358151187644,-0.064390623252687
90,1644542238648779631,,,,gyr,-1.4231434055991761e-05,-3.4532424811244144e-06,-2.33525061607,0.457276254892,-0.0383972451091,-0.0022918850514638805,-0.019760358151187644,-0.064390623252687
91,1644542238649503469,-3.01064157486,-9.06134414673,0.176519691944,acc,-1.221079430989343e-05,-7.159422988019315e-07,,,,,-0.019774589585243637,-0.06439407649516812
92,1644542238651517630,-3.94227313995,-9.1299905777,0.549172401428,acc,-1.5993189239029734e-05,-2.2279070549134508e-06,,,,,-0.01978680037955353,-0.06439479243746693
93,1644542238653531551,-3.24600100517,-9.98316955566,0.470719188452,acc,-1.3165383396952971e-05,-1.9091795037656116e-06,,,,,-0.01980279356879256,-0.06439702034452184
94,1644542238653791428,,,,gyr,-1.316285020704402e-05,-1.926567100644268e-06,-2.62322974205,0.26354470849,-0.0314159244299,-0.0013208325793760565,-0.01980279356879256,-0.06439702034452184
95,1644542238655545712,-3.19696784019,-9.39477062225,-0.196132987738,acc,-1.2969601507596028e-05,7.956810392264999e-07,,,,,-0.019815956418999605,-0.06439894691162248
96,1644542238657559633,-2.8831551075,-9.99297618866,-7.04117441177,acc,-1.1693724777861774e-05,2.855814294207588e-05,,,,,-0.0198289260205072,-0.06439815123058326
97,1644542238658803463,,,,gyr,-1.1749910845140303e-05,2.8535071799658592e-05,-2.56214332581,0.392699092627,0.0,-0.0019682215967147657,-0.0198289260205072,-0.06439815123058326
98,1644542238659573555,-6.76658821106,-7.39421415329,-5.30539751053,acc,-2.744448212276615e-05,2.1518065321888333e-05,,,,,-0.01984067593135234,-0.0643696161587836
99,1644542238661587715,-3.37348747253,-4.53067207336,-3.09890127182,acc,-1.3685700623693871e-05,1.2571748202374733e-05,,,,,-0.019868120413475108,-0.06434809809346172
100,1644542238663603544,-2.34378933907,-9.7478094101,2.04958987236,acc,-9.524143975462839e-06,-8.328644861381943e-06,,,,,-0.0198818061140988,-0.06433552634525934
101,1644542238663815737,,,,gyr,-9.516781443995045e-06,-8.33705671322923e-06,-0.92502450943,0.176278248429,0.153588980436,-0.0008835548813662175,-0.0198818061140988,-0.06433552634525934
102,1644542238665617704,-0.362846046686,-13.6214361191,8.08067893982,acc,-1.4720085394925937e-06,-3.2782025635810646e-05,,,,,-0.019891322895542796,-0.06434386340197257
103,1644542238667631626,-0.598205626011,-8.35526561737,1.05911815166,acc,-2.426251324406395e-06,-4.295658058756999e-06,,,,,-0.019892794904082287,-0.06437664542760838
104,1644542238668827534,,,,gyr,-2.42993279560512e-06,-4.293576627450641e-06,0.692895710468,-0.171042263508,-0.130899697542,0.0008572291031226039,-0.019892794904082287,-0.06437664542760838
105,1644542238669647694,-1.75539028645,-8.30623245239,1.45138418674,acc,-7.134836798050235e-06,-5.89919483068515e-06,,,,,-0.019895224836877893,-0.06438093900423583
106,1644542238671661615,-2.57914876938,-11.7385597229,1.48080408573,acc,-1.0460712221772346e-05,-6.005960408933653e-06,,,,,-0.019902359673675943,-0.06438683819906652
107,1644542238673673630,-1.01008486748,-13.2880105972,-7.9826130867,acc,-4.0890299647298265e-06,3.231524910356808e-05,,,,,-0.019912820385897714,-0.06439284415947545
108,1644542238673837662,,,,gyr,-4.072357498369059e-06,3.231735439486954e-05,-0.0261799395084,-0.102974422276,0.148352980614,0.0005159150363288113,-0.019912820385897714,-0.06439284415947545
109,1644542238675687790,-4.17763280869,-4.78564500809,-10.6107950211,acc,-1.694798999581709e-05,4.304630303821728e-05,,,,,-0.019916892743396083,-0.06436052680508059
110,1644542238677701712,-3.99130654335,-7.83551311493,-3.81478667259,acc,-1.618826765553819e-05,1.547232392048609e-05,,,,,-0.0199338407333919,-0.06431748050204238
111,1644542238678849697,,,,gyr,-1.6187590907587194e-05,1.547303195228364e-05,-0.977384388447,-0.00872664619237,0.275762021542,4.373825614877517e-05,-0.0199338407333919,-0.06431748050204238
112,1644542238679717779,-2.04958987236,-11.7385597229,-4.12859964371,acc,-8.330611629885451e-06,1.6780801208501663e-05,,,,,-0.019950028324299488,-0.06430200747009009
113,1644542238681731701,-1.54945063591,-6.90388154984,-0.735498726368,acc,-6.284388668403863e-06,2.9830959144419052e-06,,,,,-0.019958358935929375,-0.06428522666888159
114,1644542238683747768,0.362846046686,-7.72764015198,-1.37293100357,acc,1.4747972446311073e-06,5.580313964081509e-06,,,,,-0.01996464332459778,-0.06428224357296715
115,1644542238683861732,,,,gyr,1.4831916899547341e-06,5.578088674568002e-06,-0.439822971821,-0.300196617842,0.109955742955,0.0015045959555057284,-0.01996464332459778,-0.06428224357296715
116,1644542238685761690,-0.529559075832,-11.522813797,0.245166242123,acc,-2.1478290293866114e-06,-9.943653048153203e-07,,,,,-0.019963160132907824,-0.06427666548429257
117,1644542238687775850,0.12748645246,-9.78703689575,-0.166713044047,acc,5.171922042549768e-07,6.763282299017466e-07,,,,,-0.019965307961937212,-0.0642776598495974
118,1644542238688873768,,,,gyr,5.182387662742516e-07,6.755266329573492e-07,0.130899697542,-0.308923274279,-0.0174532923847,0.0015483345719242221,-0.019965307961937212,-0.0642776598495974
119,1644542238689789772,1.24544453621,-7.49228048325,-0.343232750893,acc,5.051375854827977e-06,1.3921114750908047e-06,,,,,-0.019964789723170936,-0.06427698432296444
120,1644542238691805840,0.313812792301,-10.73828125,0.637432217598,acc,1.2755015653733056e-06,-2.590862486529156e-06,,,,,-0.019959738347316108,-0.06427559221148935
121,1644542238693819761,0.470719188452,-10.6107950211,0.470719188452,acc,1.9091795037656116e-06,-1.9091795037656116e-06,,,,,-0.019958462845750733,-0.06427818307397587
122,1644542238693885803,,,,gyr,1.9055519848284754e-06,-1.9128001433274916e-06,0.253072738647,-0.378736436367,-0.0383972451091,0.0018982402748466767,-0.019958462845750733,-0.06427818307397587
123,1644542238695835829,0.490332484245,-8.42391204834,0.0980664938688,acc,1.9929711807541446e-06,-3.9859422403771615e-07,,,,,-0.019956557293765904,-0.0642800958741192
124,1644542238697849751,0.598205626011,-9.42419052124,0.166713044047,acc,2.426251324406395e-06,-6.761684048545165e-07,,,,,-0.01995456432258515,-0.06428049446834325
125,1644542238698897839,,,,gyr,2.424880033006646e-06,-6.810697662009188e-07,0.209439516068,-0.403171062469,-0.0383972451091,0.0020207078792528767,-0.01995456432258515,-0.06428049446834325
126,1644542238699863672,0.245166242123,-10.5421485901,0.470719188452,acc,9.943643173241883e-07,-1.9091795037656116e-06,,,,,-0.019952139442552145,-0.06428117553810944
127,1644542238701877832,0.921825051308,-9.7478094101,0.774725317955,acc,3.739697207223093e-06,-3.1429370505936832e-06,,,,,-0.01995114507823482,-0.06428308471761321
128,1644542238703891754,2.04958987236,-10.0420093536,3.71672034264,acc,8.312894306032389e-06,-1.5074578475483393e-05,,,,,-0.0199474053810276,-0.0642862276546638
129,1644542238703909874,,,,gyr,8.285848187198573e-06,-1.5089461480631807e-05,0.331612557173,-0.357792496681,-0.0645771846175,0.0017932685161025556,-0.0199474053810276,-0.0642862276546638
130,1644542238705908060,1.84365010262,-10.2185287476,3.09890127182,acc,7.495340844853383e-06,-1.2598551777168744e-05,,,,,-0.019939119532840402,-0.06430131711614442
131,1644542238707921982,2.05939650536,-9.80665016174,1.01008486748,acc,8.35266885055294e-06,-4.096784852774258e-06,,,,,-0.01993162419199555,-0.06431391566792159
132,1644542238708921909,,,,gyr,8.347106401598818e-06,-4.108106349317893e-06,0.123918376863,-0.270526021719,-0.0209439508617,0.001355885889266388,-0.01993162419199555,-0.06431391566792159
133,1644542238709933758,1.67693710327,-8.12971305847,-2.33398270607,acc,6.786971406263429e-06,9.446194408795281e-06,,,,,-0.01992327708559395,-0.06431802377427091
134,1644542238711950064,1.70635700226,-9.49283695221,-1.08853816986,acc,6.937177133972194e-06,4.425440919694552e-06,,,,,-0.01991649011418769,-0.06430857757986212
135,1644542238713934183,,,,gyr,6.940195215459152e-06,4.420706311567361e-06,-0.0855211317539,-0.136135682464,0.0226892791688,0.0006823493416865631,-0.01991649011418769,-0.06430857757986212
136,1644542238713963985,1.97113656998,-11.2188072205,2.99102807045,acc,7.994689043598254e-06,-1.2131244332889663e-05,,,,,-0.01990954991897223,-0.06430415687355055
137,1644542238715978146,2.19668960571,-8.53178501129,1.55925726891,acc,8.91162821964569e-06,-6.3256643283541195e-06,,,,,-0.019901555229928633,-0.06431628811788344
138,1644542238717991829,2.00055646896,-10.3656291962,0.294199496508,acc,8.112094885661737e-06,-1.1929551942252736e-06,,,,,-0.019892643601708986,-0.0643226137822118
139,1644542238718945980,,,,gyr,8.110575277308453e-06,-1.2032432009038174e-06,-0.00174532923847,-0.253072738647,-0.00349065847695,0.0012683491923328185,-0.019892643601708986,-0.0643226137822118
140,1644542238720008135,1.8926833868,-10.5323419571,0.196132987738,acc,7.694685165746687e-06,-7.973766778884085e-07,,,,,-0.01988453302643168,-0.0643238170254127
141,1644542238722019911,2.12804293633,-8.99269771576,-0.549172401428,acc,8.612706184393575e-06,2.222633978539114e-06,,,,,-0.019876838341265933,-0.0643246144020906
142,1644542238723958015,,,,gyr,8.613561030828997e-06,2.219318812030401e-06,-0.00523598771542,-0.0767944902182,0.0069813169539,0.00038489667278077605,-0.019876838341265933,-0.0643246144020906
143,1644542238724036217,2.04958987236,-9.17902374268,0.402072638273,acc,8.332586895781559e-06,-1.6346222441898633e-06,,,,,-0.019868224780235103,-0.06432239508327857
144,1644542238726050138,1.73577702045,-11.1697740555,0.921825051308,acc,7.040099472996962e-06,-3.738809755775188e-06,,,,,-0.01985989219333932,-0.06432402970552276
145,1644542238728064299,0.843371868134,-9.83607006073,0.666852176189,acc,3.4214285533021605e-06,-2.705315605905668e-06,,,,,-0.019852852093866325,-0.06432776851527854
146,1644542238728970289,,,,gyr,3.419652845508543e-06,-2.7075598403568835e-06,0.0069813169539,-0.130899697542,0.0,0.0006561051505976305,-0.019852852093866325,-0.06432776851527854
147,1644542238730076075,-0.0980664938688,-8.38468551636,-1.20621788502,acc,-3.9689889889262634e-07,4.881856498607263e-06,,,,,-0.019849432441020817,-0.0643304760751189
148,1644542238732089996,0.0,-10.0322027206,-0.549172401428,acc,0.0,2.2273761481618294e-06,,,,,-0.01984982933991971,-0.06432559421862029
149,1644542238733982086,,,,gyr,4.7149756673303496e-09,2.2273711577563097e-06,-0.214675500989,-0.422369688749,0.0296705961227,0.002116831138963172,-0.01984982933991971,-0.06432559421862029
150,1644542238734106302,-0.343232750893,-10.708861351,0.882598459721,acc,-1.395409277174512e-06,-3.5881951110736376e-06,,,,,-0.019849824624944043,-0.06432336684746254
151,1644542238736120224,-1.08853816986,-8.48275184631,-1.01989161968,acc,-4.414982175779759e-06,4.136559880755921e-06,,,,,-0.01985122003422122,-0.06432695504257362
152,1644542238738134384,-0.921825051308,-9.61051654816,-0.725692093372,acc,-3.739697207223093e-06,2.9440170789851874e-06,,,,,-0.019855635016397,-0.06432281848269286
153,1644542238738994122,,,,gyr,-3.731389839113143e-06,2.954539157234486e-06,-0.226892799139,-0.561996042728,0.0174532923847,0.002816744398010274,-0.019855635016397,-0.06432281848269286
154,1644542238740148306,-0.343232750893,-9.94394302368,0.451105892658,acc,-1.3921114750908047e-06,-1.8296321898665583e-06,,,,,-0.01985936640623611,-0.06431986394353563
155,1644542238742164373,0.627625584602,-9.25747776031,0.725692093372,acc,2.551000600075524e-06,-2.9495944892622146e-06,,,,,-0.019860758517711203,-0.0643216935757255
156,1644542238744006395,,,,gyr,2.5430698123095063e-06,-2.956434954872473e-06,-0.0959931090474,-0.535816073418,0.0174532923847,0.0026856564377590593,-0.019860758517711203,-0.0643216935757255
157,1644542238744178295,1.09834480286,-9.53206348419,1.01989161968,acc,4.4547567203003086e-06,-4.136559880755921e-06,,,,,-0.019858215447898894,-0.06432465001068037
158,1644542238746192455,1.78481030464,-10.5323419571,1.01989161968,acc,7.240690738675828e-06,-4.1375376340398145e-06,,,,,-0.01985376069117859,-0.06432878657056113
159,1644542238748206377,1.81423020363,-8.95347118378,0.137293100357,acc,7.358303303978671e-06,-5.568445900355106e-07,,,,,-0.019846520000439915,-0.06433292410819516
160,1644542238749018192,,,,gyr,7.357188114132692e-06,-5.713899404608811e-07,-0.00523598771542,-0.394444406033,0.0279252678156,0.0019768752908229715,-0.019846520000439915,-0.06433292410819516
161,1644542238750222445,2.36340260506,-9.53206348419,0.686465501785,acc,9.606121217231755e-06,-2.790159749962331e-06,,,,,-0.019839162812325783,-0.06433349549813562
162,1644542238752236366,2.28494930267,-9.99297618866,0.735498726368,acc,9.26747513766571e-06,-2.9830929519685087e-06,,,,,-0.01982955669110855,-0.06433628565788559
163,1644542238754028320,,,,gyr,9.263397236413266e-06,-2.9957320687517005e-06,-0.0104719754308,-0.272271364927,0.0104719754308,0.0013641143890189807,-0.01982955669110855,-0.06433628565788559
164,1644542238754248381,1.13757133484,-9.7478094101,-0.764918684959,acc,4.605121237766262e-06,3.0965471556685965e-06,,,,,-0.019820293293872138,-0.06433928138995434
165,1644542238756262541,-0.0784531980753,-9.49283695221,-0.813951909542,acc,-3.1827211174573706e-07,3.302073076240453e-06,,,,,-0.01981568817263437,-0.06433618484279868
166,1644542238758276463,-1.12776470184,-9.53206348419,-0.921825051308,acc,-4.574080353780838e-06,3.7388134687417678e-06,,,,,-0.019816006444746116,-0.06433288276972245
167,1644542238759040356,,,,gyr,-4.5705460819295825e-06,3.7431331461553475e-06,-0.0942477807403,-0.188495561481,0.0069813169539,0.0009447465399829853,-0.019816006444746116,-0.06433288276972245
168,1644542238760290384,-0.725692093372,-9.81645679474,0.225552946329,acc,-2.9433184469637613e-06,-9.148151864414233e-07,,,,,-0.019820576990828044,-0.06432913963657629
169,1644542238762304544,-1.54945063591,-9.34573745728,-0.137293100357,acc,-6.2858741011873664e-06,5.569762106676834e-07,,,,,-0.01982352030927501,-0.06433005445176272
170,1644542238764052391,,,,gyr,-6.285246515028972e-06,5.6401414924094e-07,-0.0872664600611,-0.223402142525,-0.00872664619237,0.0011196993574102885,-0.01982352030927501,-0.06433005445176272
171,1644542238764318466,-2.12804293633,-8.85540485382,-0.38245934248,acc,-8.631090662075106e-06,1.551209894850831e-06,,,,,-0.019829805555790038,-0.06432949043761348
172,1644542238766334534,-1.17679798603,-10.5323419571,1.12776470184,acc,-4.7831309307164765e-06,-4.583833667271108e-06,,,,,-0.01983843664645211,-0.06432793922771862
173,1644542238768348455,-0.882598459721,-9.42419052124,-0.0294199492782,acc,-3.579711494013714e-06,1.1932371898514792e-07,,,,,-0.019843219777382827,-0.0643325230613859
174,1644542238769064426,,,,gyr,-3.5795594295853172e-06,1.2380153615033376e-07,-0.0471238903701,-0.249582082033,-0.0226892791688,0.0012509141305222671,-0.019843219777382827,-0.0643325230613859
175,1644542238770362616,-0.57859236002,-9.5222568512,-0.509945809841,acc,-2.3472592531155885e-06,2.0687708712493787e-06,,,,,-0.019846799336812413,-0.06433239925984975
176,1644542238772376537,-0.343232750893,-10.3656291962,0.12748645246,acc,-1.3921100926031715e-06,-5.17069471599075e-07,,,,,-0.01984914659606553,-0.0643303304889785
177,1644542238774076462,,,,gyr,-1.3923270808050186e-06,-5.164848966275124e-07,-0.0523598790169,-0.0837758034468,-0.0209439508617,0.0004198873428042857,-0.01984914659606553,-0.0643303304889785
178,1644542238774390697,-0.774725317955,-9.17902374268,-0.558979034424,acc,-3.1429370505936832e-06,2.26768878863246e-06,,,,,-0.019850538923146335,-0.06433084697387513
179,1644542238776404619,-0.490332484245,-9.88510322571,-0.137293100357,acc,-1.9887306096265847e-06,5.568445900355106e-07,,,,,-0.01985368186019693,-0.06432857928508649
180,1644542238778418541,-0.921825051308,-9.75761604309,0.137293100357,acc,-3.7388134687417678e-06,-5.568445900355106e-07,,,,,-0.019855670590806555,-0.06432802244049646
181,1644542238779088736,,,,gyr,-3.73923134364142e-06,-5.540315967760743e-07,-0.109955742955,-0.150098308921,-0.0383972451091,0.0007523338512486964,-0.019855670590806555,-0.06432802244049646
182,1644542238780432701,-1.28467106819,-9.49283695221,-0.558979034424,acc,-5.211705625805612e-06,2.26768878863246e-06,,,,,-0.019859409822150197,-0.06432857647209324
183,1644542238782448769,-0.833565235138,-10.0420093536,0.12748645246,acc,-3.388051055737343e-06,-5.18172533644357e-07,,,,,-0.019864621527776002,-0.0643263087833046
184,1644542238784100533,,,,gyr,-3.388340609762323e-06,-5.162757433211671e-07,-0.0785398185253,-0.111701071262,-0.0436332300305,0.0005598230938476779,-0.019864621527776002,-0.0643263087833046
185,1644542238784460783,-1.04931151867,-9.48303031921,-0.470719188452,acc,-4.247823242654228e-06,1.9055655769452946e-06,,,,,-0.019868009868385765,-0.06432682505904792
186,1644542238786476612,-1.05911815166,-11.1109342575,3.44213414192,acc,-4.303797101252476e-06,-1.3987341184643555e-05,,,,,-0.01987225769162842,-0.06432491949347098
187,1644542238788490772,-0.872791826725,-10.0125894547,0.294199496508,acc,-3.5407772356145967e-06,-1.1935204341607803e-06,,,,,-0.019876561488729672,-0.06433890683465562
188,1644542238789112806,,,,gyr,-3.5412363771614134e-06,-1.1921574476865838e-06,0.214675500989,-0.0767944902182,-0.0261799395084,0.000384914949869448,-0.019876561488729672,-0.06433890683465562
189,1644542238790502787,-0.921825051308,-8.72791862488,-0.313812792301,acc,-3.7317361920696792e-06,1.2703783140872904e-06,,,,,-0.019880102725106832,-0.06434009899210331
190,1644542238792518854,-0.274586200714,-9.61051654816,0.912018418312,acc,-1.1160627928163017e-06,-3.7069227091327027e-06,,,,,-0.0198838344612989,-0.06433882861378923
191,1644542238794124842,,,,gyr,-1.115479095295711e-06,-3.7070983959089784e-06,0.989601671696,0.0314159244299,0.00523598771542,-0.00015745774421593829,-0.0198838344612989,-0.06433882861378923
192,1644542238794532776,-0.166713044047,-10.2969818115,0.696272134781,acc,-6.761684048545165e-07,-2.823997494681879e-06,,,,,-0.019884949940394196,-0.06434253571218514
193,1644542238796546936,-1.13757133484,-8.65927219391,0.0784531980753,acc,-4.614945469188373e-06,-3.1827211174573706e-07,,,,,-0.01988562610879905,-0.06434535970967982
194,1644542238798562765,-0.735498726368,-9.53206348419,0.666852176189,acc,-2.988748027362353e-06,-2.7097982017850026e-06,,,,,-0.01989024105426824,-0.06434567798179157
195,1644542238799136639,,,,gyr,-2.990904075541962e-06,-2.7074183046522522e-06,0.959931075573,-0.158824965358,0.00174532923847,0.0007959984849063283,-0.01989024105426824,-0.06434567798179157
196,1644542238800576925,-0.362846046686,-9.67916297913,0.696272134781,acc,-1.4720085394925937e-06,-2.824664999300144e-06,,,,,-0.01989323195834378,-0.06434838540009621
197,1644542238802590847,0.264779537916,-9.15941047668,0.961051702499,acc,1.0739145146933057e-06,-3.897912130248575e-06,,,,,-0.01989470396688327,-0.06435121006509552
198,1644542238804148912,,,,gyr,1.0694468159919243e-06,-3.89914027290282e-06,0.916297852993,-0.228638127446,0.0104719754308,0.0011459967129681448,-0.01989470396688327,-0.06435121006509552
199,1644542238804604769,-0.0686465501785,-9.38496398926,0.872791826725,acc,-2.784222950177553e-07,-3.539940504477416e-06,,,,,-0.019893634520067278,-0.06435510920536842
200,1644542238806618929,-0.0980664938688,-10.1400756836,1.01989161968,acc,-3.978401245691219e-07,-4.1375376340398145e-06,,,,,-0.019893912942362296,-0.0643586491458729
201,1644542238808634758,0.725692093372,-9.91452312469,0.804145276546,acc,2.948898121480672e-06,-3.2676978529356405e-06,,,,,-0.019894310782486865,-0.06436278668350694
202,1644542238809160948,,,,gyr,2.945323273370296e-06,-3.2709203910055217e-06,0.802851438522,-0.218166157603,0.0104719754308,0.0010934566358879098,-0.019894310782486865,-0.06436278668350694
203,1644542238810648918,0.725692093372,-9.16921710968,0.402072638273,acc,2.9440170789851874e-06,-1.6311445651393633e-06,,,,,-0.019891365459213495,-0.06436605760389794
204,1644542238812662840,0.225552946329,-9.99297618866,1.2552511692,acc,9.148160949332792e-07,-5.0911503993079674e-06,,,,,-0.01988842144213451,-0.06436768874846308
205,1644542238814172745,,,,gyr,9.071553018838372e-07,-5.092520999876848e-06,0.692895710468,-0.300196617842,0.0139626339078,0.0015045245087106822,-0.01988842144213451,-0.06436768874846308
206,1644542238814677000,0.38245934248,-9.42419052124,1.05911815166,acc,1.5515765523180068e-06,-4.296673417870492e-06,,,,,-0.019887514286832626,-0.06437278126946296
207,1644542238816692829,1.31409108639,-9.2868976593,1.68674373627,acc,5.339896591822897e-06,-6.8541954373425035e-06,,,,,-0.019885962710280307,-0.06437707794288082
208,1644542238818706989,0.38245934248,-9.64974308014,2.8341217041,acc,1.5515765523180068e-06,-1.1497579726992979e-05,,,,,-0.019880622813688485,-0.06438393213831817
209,1644542238819185019,,,,gyr,1.5354819795447016e-06,-1.1499740191271995e-05,0.553269386292,-0.279252678156,0.0209439508617,0.0013996909381516869,-0.019880622813688485,-0.06438393213831817
210,1644542238820720911,0.12748645246,-9.8949098587,2.14765620232,acc,5.170699850944901e-07,-8.710639751075645e-06,,,,,-0.01987908733170894,-0.06439543187850943
211,1644542238822735071,-0.264779537916,-9.66935634613,1.31409108639,acc,-1.07416835447168e-06,-5.331057947314861e-06,,,,,-0.019878570261723846,-0.06440414251826052
212,1644542238824195147,,,,gyr,-1.0844219888396674e-06,-5.328981651450713e-06,0.25830873847,-0.38397243619,0.0209439508617,0.0019237510537837323,-0.019878570261723846,-0.06440414251826052
213,1644542238824750900,0.0980664938688,-9.58109664917,1.16699135303,acc,3.9849972487113514e-07,-4.742147034762133e-06,,,,,-0.019879654683712684,-0.06440947149991197
214,1644542238826763153,-0.686465501785,-9.64974308014,1.97113656998,acc,-2.77961011750424e-06,-7.98145156406567e-06,,,,,-0.019879256183987812,-0.06441421364694673
215,1644542238828777075,-0.402072638273,-10.0125894547,0.990471601486,acc,-1.6307591047288162e-06,-4.017235763757495e-06,,,,,-0.019882035794105316,-0.0644221950985108
216,1644542238829206944,,,,gyr,-1.636414979072775e-06,-4.014935174512093e-06,0.0349065847695,-0.280998021364,0.0209439508617,0.001408305040478031,-0.019882035794105316,-0.0644221950985108
217,1644542238830790997,-0.421685934067,-9.53206348419,0.38245934248,acc,-1.7103083146108573e-06,-1.551209894850831e-06,,,,,-0.019883672209084387,-0.06442621003368532
218,1644542238832805157,-0.529559075832,-9.45361042023,1.33370435238,acc,-2.14833670894336e-06,-5.4106258392302e-06,,,,,-0.019885382517399,-0.06442776124358017
219,1644542238834219217,,,,gyr,-2.156002416423564e-06,-5.407575812461148e-06,-0.167551606894,-0.28274333477,0.0226892791688,0.0014171867827976325,-0.019885382517399,-0.06442776124358017
220,1644542238834819078,-0.490332484245,-9.78703689575,1.55925726891,acc,-1.9887286346443206e-06,-6.324156932480937e-06,,,,,-0.019887538519815423,-0.06443316881939264
221,1644542238836835146,0.0784531980753,-9.30651092529,1.05911815166,acc,3.1887539134352963e-07,-4.304817692268777e-06,,,,,-0.019889527248450067,-0.06443949297632512
222,1644542238838849068,-0.245166242123,-9.70858287811,1.12776470184,acc,-9.943653048153203e-07,-4.574080353780838e-06,,,,,-0.019889208373058725,-0.06444379779401739
223,1644542238839231253,,,,gyr,-1.0006863229699598e-06,-4.572701644026775e-06,-0.328121900558,-0.275762021542,0.0139626339078,0.0013821291794012796,-0.019889208373058725,-0.06444379779401739
224,1644542238840863228,0.0686465501785,-9.45361042023,0.725692093372,acc,2.784881053338417e-07,-2.9440170789851874e-06,,,,,-0.019890209059381696,-0.06444837049566142
225,1644542238842877150,-0.294199496508,-9.53206348419,0.804145276546,acc,-1.1932383899530623e-06,-3.2615182094576323e-06,,,,,-0.019889930571276363,-0.0644513145127404
226,1644542238844243526,,,,gyr,-1.2000834300959733e-06,-3.259005775798898e-06,-0.476474881172,-0.418879032135,0.0349065847695,0.002099536063036393,-0.019889930571276363,-0.0644513145127404
227,1644542238844893217,0.225552946329,-9.58109664917,0.196132987738,acc,9.167658482229563e-07,-7.971876572423734e-07,,,,,-0.01989113065470646,-0.0644545735185162
228,1644542238846907139,0.0784531980753,-9.57129001617,0.264779537916,acc,3.181968999579648e-07,-1.0739145146933057e-06,,,,,-0.019890213888858237,-0.06445537070617345
229,1644542238848919392,0.12748645246,-9.57129001617,0.470719188452,acc,5.162133161551435e-07,-1.9060183145727232e-06,,,,,-0.01988989569195828,-0.06445644462068814
230,1644542238849255323,,,,gyr,5.12711244817087e-07,-1.9069633406808448e-06,-0.462512254715,-0.366519153118,0.0349065847695,0.001836919592039333,-0.01988989569195828,-0.06445644462068814
231,1644542238850935221,0.666852176189,-9.83607006073,0.274586200714,acc,2.7097982017850026e-06,-1.115799302301275e-06,,,,,-0.019889382980713462,-0.06445835158402882
232,1644542238852949381,0.57859236002,-9.58109664917,0.274586200714,acc,2.347256922359834e-06,-1.1139524213353667e-06,,,,,-0.019886673182511676,-0.06445946738333112
233,1644542238854267359,,,,gyr,2.344864138549492e-06,-1.118980441433021e-06,-0.366519153118,-0.42760565877,0.0296705961227,0.0021431749555589556,-0.019886673182511676,-0.06445946738333112
234,1644542238854963303,0.549172401428,-9.86548995972,0.529559075832,acc,2.2273783601420422e-06,-2.1478290293866114e-06,,,,,-0.019884328318373126,-0.06446058636377255
235,1644542238856977463,0.402072638273,-9.8949098587,0.490332484245,acc,1.6311445651393633e-06,-1.98920068329659e-06,,,,,-0.019882100940012984,-0.06446273419280193
236,1644542238858993292,0.529559075832,-9.5222568512,0.166713044047,acc,2.1518985506343656e-06,-6.774495504452347e-07,,,,,-0.019880469795447844,-0.06446472339348523
237,1644542238859279633,,,,gyr,2.1504595466994214e-06,-6.820036683406131e-07,-0.272271364927,-0.422369688749,0.0418879017234,0.0021170326093047052,-0.019880469795447844,-0.06446472339348523
238,1644542238861007452,0.813951909542,-9.75761604309,0.0980664938688,acc,3.302073076240453e-06,-3.978401245691219e-07,,,,,-0.019878319335901146,-0.06446540539715358
239,1644542238863021374,0.509945809841,-9.71838951111,0.0784531980753,acc,2.0682799403820163e-06,-3.181968999579648e-07,,,,,-0.019875017262824906,-0.06446580323727814
240,1644542238864291430,,,,gyr,2.0678016751104766e-06,-3.2129022913839345e-07,-0.193731546402,-0.298451304436,0.0436332300305,0.0014957773522184315,-0.019875017262824906,-0.06446580323727814
241,1644542238865035534,0.598205626011,-9.61051654816,0.0784531980753,acc,2.4268248142792297e-06,-3.1827211174573706e-07,,,,,-0.019872949461149796,-0.06446612452750729
242,1644542238867049456,0.558979034424,-9.7478094101,0.00980664975941,acc,2.2671529046463682e-06,-3.977461249473545e-08,,,,,-0.019870522636335517,-0.06446644279961904
243,1644542238869065762,0.490332484245,-9.56148338318,0.0294199492782,acc,1.9934417552968205e-06,-1.196065062264462e-07,,,,,-0.01986825548343087,-0.06446648257423153
244,1644542238869303703,,,,gyr,1.9932111109242486e-06,-1.23390499556038e-07,-0.191986218095,-0.378736436367,0.0593411922455,0.0018983304141185322,-0.01986825548343087,-0.06446648257423153
245,1644542238871077538,0.813951909542,-9.75761604309,-0.0686465501785,acc,3.2942609030254255e-06,2.7782924731738924e-07,,,,,-0.019866262272319947,-0.06446660596473108
246,1644542238873093843,0.804145276546,-9.98316955566,-0.196132987738,acc,3.269241245574639e-06,7.973758869603648e-07,,,,,-0.01986296801141692,-0.06446632813548377
247,1644542238874315739,,,,gyr,3.2706104985776822e-06,7.917408625716436e-07,-0.0383972451091,-0.343829870224,0.0750491544604,0.0017232876874380162,-0.01986296801141692,-0.06446632813548377
248,1644542238875107765,0.294199496508,-9.31631755829,-0.274586200714,acc,1.1932383899530623e-06,1.1136891800710211e-06,,,,,-0.019859697400918343,-0.0644655363946212
249,1644542238877121687,0.470719188452,-9.39477062225,0.0294199492782,acc,1.9091813997485995e-06,-1.1932383748408468e-07,,,,,-0.01985850416252839,-0.06446442270544113
250,1644542238879137754,0.402072638273,-9.03192424774,0.0686465501785,acc,1.6342347518525672e-06,-2.790156982040754e-07,,,,,-0.019856594981128642,-0.06446454202927861
251,1644542238879327536,,,,gyr,1.6337663135819381e-06,-2.8174565943739666e-07,-0.211184844375,-0.333357870579,0.0680678412318,0.0016707219756942205,-0.019856594981128642,-0.06446454202927861
252,1644542238881151915,0.57859236002,-10.1204624176,1.66713047028,acc,2.3472592531155885e-06,-6.763289135688564e-06,,,,,-0.01985496121481506,-0.06446482377493805
253,1644542238883165836,0.274586200714,-9.81645679474,0.951245009899,acc,1.1136880740809147e-06,-3.858133512531915e-06,,,,,-0.019852613955561944,-0.06447158706407374
254,1644542238884337902,,,,gyr,1.1084238539866944e-06,-3.8596491921915895e-06,-0.21991148591,-0.272271364927,-0.00349065847695,0.0013641791896038332,-0.019852613955561944,-0.06447158706407374
255,1644542238885181904,0.598205626011,-8.56120491028,0.294199496508,acc,2.4314248211407835e-06,-1.1957827326811512e-06,,,,,-0.019851505531707957,-0.06447544671326594
256,1644542238887195826,0.833565235138,-10.1596889496,0.38245934248,acc,3.3808420847173896e-06,-1.551209894850831e-06,,,,,-0.019849074106886817,-0.06447664249599862
257,1644542238889211893,0.598205626011,-10.0910425186,0.549172401428,acc,2.4314224090949405e-06,-2.2321255856326033e-06,,,,,-0.019845693264802098,-0.06447819370589347
258,1644542238889351845,,,,gyr,2.431070779745858e-06,-2.232508549894177e-06,0.144862323999,-0.0314159244299,0.0069813169539,0.0001575176543838261,-0.019845693264802098,-0.06447819370589347
259,1644542238891223907,0.0,-8.75733852386,-0.0980664938688,acc,0.0,3.9699281344923906e-07,,,,,-0.01984326219402235,-0.06448042621444336
260,1644542238893239975,0.813951909542,-9.62032318115,0.196132987738,acc,3.3083321019099955e-06,-7.971884480770581e-07,,,,,-0.01984326219402235,-0.0644800292216299
261,1644542238894361734,,,,gyr,3.308680312747514e-06,-7.957419847618518e-07,0.246091425419,0.0872664600611,0.0104719754308,-0.00043719527832904425,-0.01984326219402235,-0.0644800292216299
262,1644542238895255804,0.470719188452,-9.96355628967,0.421685934067,acc,1.912798752045171e-06,-1.7135488593335943e-06,,,,,-0.019839953513709603,-0.06448082496361467
263,1644542238897268057,0.637432217598,-9.31631755829,-0.0392265990376,acc,2.5810663997700706e-06,1.5883485954745698e-07,,,,,-0.019838040714957556,-0.064482538512474
264,1644542238899283886,0.598205626011,-9.43399715424,0.402072638273,acc,2.430848376211716e-06,-1.6338489264678203e-06,,,,,-0.019835459648557787,-0.06448237967761446
265,1644542238899374008,,,,gyr,2.430676846552644e-06,-1.634104100198051e-06,0.280998021364,-0.0209439508617,-0.00523598771542,0.00010497682036137649,-0.019835459648557787,-0.06448237967761446
266,1644542238901299953,0.509945809841,-10.1106557846,0.529559075832,acc,2.0726880784111437e-06,-2.152406710888833e-06,,,,,-0.019833028971711235,-0.06448401378171466
267,1644542238903313875,0.245166242123,-9.61051654816,0.421685934067,acc,9.943653048153203e-07,-1.7103083146108573e-06,,,,,-0.019830956283632822,-0.06448616618842555
268,1644542238904386044,,,,gyr,9.939912514576657e-07,-1.7105257327713958e-06,0.38397243619,-0.0436332300305,0.0191986225545,0.0002186913197091471,-0.019830956283632822,-0.06448616618842555
269,1644542238905328035,0.451105892658,-9.2868976593,0.421685934067,acc,1.83006465764982e-06,-1.7107125779647766e-06,,,,,-0.019829962292381365,-0.06448787671415832
270,1644542238907344103,0.57859236002,-9.70858287811,0.38245934248,acc,2.3517061095797575e-06,-1.554517540371571e-06,,,,,-0.019828132227723717,-0.06448958742673629
271,1644542238909358263,0.696272134781,-9.88510322571,0.343232750893,acc,2.824664999300144e-06,-1.392440526671237e-06,,,,,-0.01982578052161414,-0.06449114194427666
272,1644542238909398079,,,,gyr,2.823824024491058e-06,-1.394145206675e-06,0.34033921361,-0.120427720249,0.0174532923847,0.0006035879488581967,-0.01982578052161414,-0.06449114194427666
273,1644542238911374092,0.529559075832,-9.67916297913,0.598205626011,acc,2.1518985506343656e-06,-2.430848376211716e-06,,,,,-0.01982295669758965,-0.06449253608948334
274,1644542238913388252,0.402072638273,-9.53206348419,0.421685934067,acc,1.6311445651393633e-06,-1.7107125779647766e-06,,,,,-0.019820804799039013,-0.06449496693785955
275,1644542238914410114,,,,gyr,1.6294227976447232e-06,-1.7123526106810532e-06,0.317649930716,-0.200712859631,0.00349065847695,0.001005979877420659,-0.019820804799039013,-0.06449496693785955
276,1644542238915402174,0.833565235138,-9.86548995972,0.598205626011,acc,3.3808420847173896e-06,-2.426251324406395e-06,,,,,-0.01981917537624137,-0.06449667929047023
277,1644542238917418242,1.16699135303,-9.61051654816,0.274586200714,acc,4.743271574917673e-06,-1.1160638999849323e-06,,,,,-0.01981579453415665,-0.06449910554179464
278,1644542238919422388,,,,gyr,4.742958960162152e-06,-1.1173916790853202e-06,0.420624345541,-0.0558505356312,0.0104719754308,0.00027993818763033735,-0.01981579453415665,-0.06449910554179464
279,1644542238919432402,0.921825051308,-9.62032318115,0.196132987738,acc,3.739697207223093e-06,-7.956802491398666e-07,,,,,-0.019811051575196487,-0.06450022293347372
280,1644542238921448231,0.882598459721,-9.71838951111,0.421685934067,acc,3.586497584394673e-06,-1.7135488593335943e-06,,,,,-0.019807311877989266,-0.06450101861372287
281,1644542238923462391,0.725692093372,-9.57129001617,0.245166242123,acc,2.9440170789851874e-06,-9.946003416503236e-07,,,,,-0.019803725380404872,-0.0645027321625822
282,1644542238924434423,,,,gyr,2.943442360850361e-06,-9.962998892497534e-07,0.401425719261,-0.115191727877,0.0139626339078,0.0005773449718299996,-0.019803725380404872,-0.0645027321625822
283,1644542238925476313,1.22583127022,-9.94394302368,0.313812792301,acc,4.971826765827438e-06,-1.2727875998310479e-06,,,,,-0.01980078193804402,-0.06450372846247146
284,1644542238927492380,1.28467106819,-9.91452312469,0.0294199492782,acc,5.22157914886555e-06,-1.1957815312846397e-07,,,,,-0.019795810111278192,-0.06450500125007129
285,1644542238929446220,,,,gyr,5.221338231223842e-06,-1.2967196201718886e-07,0.422369688749,-0.385717749596,0.00349065847695,0.0019331390602719842,-0.019795810111278192,-0.06450500125007129
286,1644542238929506302,1.01008486748,-9.86548995972,0.725692093372,acc,4.096784852774258e-06,-2.9433213699375797e-06,,,,,-0.019790588773046968,-0.0645051309220333
287,1644542238931520462,0.549172401428,-9.62032318115,0.451105892658,acc,2.2279048426707335e-06,-1.83006465764982e-06,,,,,-0.019786491988194193,-0.06450807424340324
288,1644542238933536291,0.470719188452,-9.39477062225,0.38245934248,acc,1.912798752045171e-06,-1.55414899360611e-06,,,,,-0.019784264083351523,-0.06450990430806089
289,1644542238934458494,,,,gyr,1.9085497423433163e-06,-1.5593639861025743e-06,0.370009809732,-0.544542729855,0.0174532923847,0.00272939736674124,-0.019784264083351523,-0.06450990430806089
290,1644542238935550451,0.529559075832,-9.58109664917,0.774725317955,acc,2.14833670894336e-06,-3.1429370505936832e-06,,,,,-0.01978235553360918,-0.06451146367204699
291,1644542238937566519,0.490332484245,-9.35554409027,0.402072638273,acc,1.9929711807541446e-06,-1.6342363730637251e-06,,,,,-0.019780207196900237,-0.06451460660909758
292,1644542238939470530,,,,gyr,1.9876426253770734e-06,-1.6407130901364757e-06,0.436332315207,-0.649262487888,0.0,0.0032541269627442203,-0.019780207196900237,-0.06451460660909758
293,1644542238939580679,0.313812792301,-9.64974308014,0.451105892658,acc,1.2730884469821368e-06,-1.83006465764982e-06,,,,,-0.01977821955427486,-0.06451624732218772
294,1644542238941594601,0.196132987738,-9.7478094101,0.725692093372,acc,7.954922196775783e-07,-2.9433213699375797e-06,,,,,-0.019776946465827876,-0.06451807738684537
295,1644542238943608761,-0.402072638273,-9.58109664917,0.470719188452,acc,-1.6311445651393633e-06,-1.9096326704752334e-06,,,,,-0.0197761509736082,-0.0645210207082153
296,1644542238944482565,,,,gyr,-1.6365503618300607e-06,-1.9050019532073845e-06,0.493928164244,-0.56548666954,-0.00523598771542,0.002834238979767914,-0.0197761509736082,-0.0645210207082153
297,1644542238945622444,-0.402072638273,-9.17902374268,0.470719188452,acc,-1.6303720705741994e-06,-1.9087282865898754e-06,,,,,-0.01977778752397003,-0.06452292571016852
298,1644542238947638750,-0.12748645246,-9.81645679474,0.549172401428,acc,-5.182948830317447e-07,-2.2326548434759665e-06,,,,,-0.019779417896040603,-0.06452483443845511
299,1644542238949494600,,,,gyr,-5.245425997296651e-07,-2.231195261948722e-06,0.472984224558,-0.558505356312,0.0104719754308,0.002799248393523215,-0.019779417896040603,-0.06452483443845511
300,1644542238949652672,-0.38245934248,-9.7478094101,0.470719188452,acc,-1.551209894850831e-06,-1.9091813997485995e-06,,,,,-0.019779942438640334,-0.06452706563371706
301,1644542238951668739,-0.402072638273,-9.58109664917,0.725692093372,acc,-1.6342347518525672e-06,-2.9495944892622146e-06,,,,,-0.019781493648535185,-0.06452897481511681
302,1644542238953682899,-0.343232750893,-9.30651092529,0.490332484245,acc,-1.392440526671237e-06,-1.98920068329659e-06,,,,,-0.01978312788328704,-0.06453192440960608
303,1644542238954506874,,,,gyr,-1.3992190585301041e-06,-1.9844384608725513e-06,0.488692194223,-0.680678427219,-0.00523598771542,0.0034117467831106855,-0.01978312788328704,-0.06453192440960608
304,1644542238955696821,-0.362846046686,-9.7478094101,0.912018418312,acc,-1.4716606849687898e-06,-3.6990389242374426e-06,,,,,-0.01978452710234557,-0.06453390884806695
305,1644542238957712889,-0.176519691944,-9.62032318115,0.686465501785,acc,-7.174696153808393e-07,-2.790159749962331e-06,,,,,-0.019785998763030537,-0.06453760788699119
306,1644542238959518909,,,,gyr,-7.26350236848331e-07,-2.7878610820367215e-06,0.431096315384,-0.635299861431,0.0104719754308,0.0031841451409873223,-0.019785998763030537,-0.06453760788699119
307,1644542238959726810,-0.0980664938688,-9.42419052124,0.598205626011,acc,-3.977457148415371e-07,-2.4262489149280516e-06,,,,,-0.019786725113267387,-0.06454039574807323
308,1644542238961742878,-0.294199496508,-9.67916297913,0.961051702499,acc,-1.1957827326811512e-06,-3.906223649947264e-06,,,,,-0.01978712285898223,-0.06454282199698816
309,1644542238963756800,-0.343232750893,-9.39477062225,0.627625584602,acc,-1.3921114750908047e-06,-2.5455751996620958e-06,,,,,-0.01978831864171491,-0.0645467282206381
310,1644542238964528799,,,,gyr,-1.3990064171376165e-06,-2.5417923796057738e-06,0.534070730209,-0.541052043438,-0.00174532923847,0.002710611221899602,-0.01978831864171491,-0.0645467282206381
311,1644542238965770960,-0.264779537916,-9.49283695221,0.666852176189,acc,-1.07416835447168e-06,-2.705312919611043e-06,,,,,-0.019789717648132046,-0.0645492700130177
312,1644542238967784882,-0.0392265990376,-9.88510322571,0.804145276546,acc,-1.5909844997877958e-07,-3.2615182094576323e-06,,,,,-0.01979079181648652,-0.06455197532593732
313,1644542238969541073,,,,gyr,-1.6914093875309295e-07,-3.261012831966028e-06,0.476474881172,-0.614355921745,-0.0139626339078,0.003079320213308498,-0.01979079181648652,-0.06455197532593732
314,1644542238969800949,-0.294199496508,-9.80665016174,1.01008486748,acc,-1.1957815464290641e-06,-4.1055163560655065e-06,,,,,-0.01979096095742527,-0.06455523633876928
315,1644542238971814871,-0.57859236002,-9.78703689575,1.01008486748,acc,-2.3467022354017995e-06,-4.096784852774258e-06,,,,,-0.0197921567389717,-0.06455934185512534
316,1644542238973829031,-0.833565235138,-9.5222568512,0.725692093372,acc,-3.381641209967827e-06,-2.9440170789851874e-06,,,,,-0.019794503441207104,-0.06456343863997811
317,1644542238974552870,,,,gyr,-3.3967129966798318e-06,-2.9266148794290416e-06,0.335103213787,-1.02450823784,0.0,0.005134627312881798,-0.019794503441207104,-0.06456343863997811
318,1644542238975844860,-1.01989161968,-9.39477062225,0.990471601486,acc,-4.144397477742005e-06,-4.024847275695443e-06,,,,,-0.019797900154203782,-0.06456636525485754
319,1644542238977859020,-0.166713044047,-10.5421485901,1.31409108639,acc,-6.763282299017466e-07,-5.331057947314861e-06,,,,,-0.019802044551681525,-0.06457039010213324
320,1644542238979565144,,,,gyr,-6.935335305518182e-07,-5.328846962917147e-06,0.370009809732,-0.644026517868,0.0191986225545,0.003228037370820312,-0.019802044551681525,-0.06457039010213324
321,1644542238979872942,-1.33370435238,-9.5222568512,1.04931151867,acc,-5.409347238852356e-06,-4.255883514277009e-06,,,,,-0.019802738085212077,-0.06457571894909615
322,1644542238981889248,-0.529559075832,-9.34573745728,0.951245009899,acc,-2.152917066641743e-06,-3.8672769665061e-06,,,,,-0.01980814743245093,-0.06457997483261042
323,1644542238983903408,-1.01008486748,-9.24767112732,0.402072638273,acc,-4.097753204486472e-06,-1.6311445651393633e-06,,,,,-0.019810300349517574,-0.06458384210957693
324,1644542238984577179,,,,gyr,-4.1016368665751645e-06,-1.6213540427723668e-06,0.459021598101,-0.476474881172,0.069813169539,0.0023881087810549047,-0.019810300349517574,-0.06458384210957693
325,1644542238985917330,-0.774725317955,-9.88510322571,0.804145276546,acc,-3.1421943342019315e-06,-3.2615182094576323e-06,,,,,-0.01981440198638415,-0.06458546346361971
326,1644542238987933397,-1.70635700226,-11.6895265579,3.47155404091,acc,-6.935532654343073e-06,-1.4110222175171346e-05,,,,,-0.019817544180718353,-0.06458872498182916
327,1644542238989589453,,,,gyr,-6.984125614593908e-06,-1.4086233436647625e-05,0.371755123138,-0.687659740448,0.0523598790169,0.003446739037894259,-0.019817544180718353,-0.06458872498182916
328,1644542238989947319,-1.97113656998,-9.75761604309,2.12804293633,acc,-7.99469698302689e-06,-8.631090662075106e-06,,,,,-0.019824528306332946,-0.0646028112152658
329,1644542238991961479,-1.95152330399,-6.80581474304,1.09834480286,acc,-7.917018787248975e-06,-4.455809685357695e-06,,,,,-0.019832523003315974,-0.06461144230592787
330,1644542238993977308,-1.20621788502,-9.86548995972,2.09862303734,acc,-4.9015466583132405e-06,-8.527894390790352e-06,,,,,-0.019840440022103223,-0.06461589811561323
331,1644542238994601250,,,,gyr,-4.922195204233567e-06,-8.515992998794405e-06,0.109955742955,-0.483456194401,0.153588980436,0.0024229843047303486,-0.019840440022103223,-0.06461589811561323
332,1644542238995991468,-0.990471601486,-8.99269771576,1.60829055309,acc,-4.018185312554906e-06,-6.5245782605493395e-06,,,,,-0.019845362217307455,-0.06462441410861203
333,1644542238998007298,-0.245166242123,-9.21825122833,1.54945063591,acc,-9.962503308821593e-07,-6.296302033036279e-06,,,,,-0.01984938040262001,-0.06463093868687257
334,1644542238999613523,,,,gyr,-1.0010971167582797e-06,-6.295533224105631e-06,0.0349065847695,-0.153588980436,0.0558505356312,0.0007698298997368911,-0.01984938040262001,-0.06463093868687257
335,1644542239000021458,-0.627625584602,-9.70858287811,1.70635700226,acc,-2.5461768939642735e-06,-6.92241820378256e-06,,,,,-0.01985038149973677,-0.06463723422009668
336,1644542239002037525,-0.402072638273,-9.66935634613,1.04931151867,acc,-1.6342347518525672e-06,-4.264954105544918e-06,,,,,-0.019852927676630733,-0.06464415663830046
337,1644542239004053354,0.0784531980753,-8.84559822083,1.05911815166,acc,3.18799792007393e-07,-4.303797101252476e-06,,,,,-0.019854561911382587,-0.06464842159240601
338,1644542239004625559,,,,gyr,3.1785858132361963e-07,-4.303866717082687e-06,0.0069813169539,-0.0436332300305,-0.00349065847695,0.0002186913197091471,-0.019854561911382587,-0.06464842159240601
339,1644542239006067514,0.225552946329,-9.96355628967,1.28467106819,acc,9.1503232882491e-07,-5.211705625805612e-06,,,,,-0.019854244052801263,-0.0646527254591231
340,1644542239008081436,0.245166242123,-9.42419052124,1.22583127022,acc,9.943653048153203e-07,-4.971826765827438e-06,,,,,-0.01985332902047244,-0.0646579371647489
341,1644542239009637594,,,,gyr,9.96235382036643e-07,-4.971452384605217e-06,0.0802851468325,0.0750491544604,-0.0104719754308,-0.00037614898887593093,-0.01985332902047244,-0.0646579371647489
342,1644542239010097742,0.451105892658,-10.3656291962,1.60829055309,acc,1.8339664439518978e-06,-6.5384889767513224e-06,,,,,-0.019852332785090403,-0.0646629086171335
343,1644542239012111664,0.225552946329,-9.7478094101,1.2650578022,acc,9.148160949332792e-07,-5.1309249438285175e-06,,,,,-0.01985049881864645,-0.06466944710611025
344,1644542239014125824,0.402072638273,-9.91452312469,1.48080408573,acc,1.6311445651393633e-06,-6.007385995847439e-06,,,,,-0.019849584002551518,-0.06467457803105407
345,1644542239014649630,,,,gyr,1.6337719353765691e-06,-6.006671986937817e-06,0.0,0.0872664600611,-0.00523598771542,-0.0004373826394187954,-0.019849584002551518,-0.06467457803105407
346,1644542239016141653,0.176519691944,-9.45361042023,1.48080408573,acc,7.172995168781217e-07,-6.017345960598262e-06,,,,,-0.01984795023061614,-0.06468058470304101
347,1644542239018155813,0.137293100357,-9.42419052124,1.52983736992,acc,5.569762106676834e-07,-6.206306209272027e-06,,,,,-0.019847232931099263,-0.06468660204900162
348,1644542239019661903,,,,gyr,5.548044494054386e-07,-6.206500727899593e-06,-0.34557518363,-0.069813169539,-0.0069813169539,0.0003499226647247522,-0.019847232931099263,-0.06468660204900162
