,field.header.stamp,field.linear_acceleration.x,field.linear_acceleration.y,field.linear_acceleration.z,type,delta_x,delta_z,field.angular_velocity.x,field.angular_velocity.y,field.angular_velocity.z,delta_angle,x,z
0,1644542202564553738,0.0392265990376,-9.62032318115,0.274586200714,acc,0.0,0.0,,,,,0,0
1,1644542202566255569,,,,gyr,0.0,0.0,-0.00174532923847,0.0,0.0,,0,0
2,1644542202566567659,0.0294199492782,-9.64974308014,0.264779537916,acc,1.1932371898514792e-07,-1.0739134482028975e-06,,,,,0.0,0.0
3,1644542202568581581,0.0294199492782,-9.58109664917,0.245166242123,acc,1.1932383748408468e-07,-9.943653048153203e-07,,,,,1.1932371898514792e-07,-1.0739134482028975e-06
4,1644542202570595503,0.0392265990376,-9.64974308014,0.313812792301,acc,1.5909844997877958e-07,-1.2727875998310479e-06,,,,,2.386475564692326e-07,-2.0682787530182176e-06
5,1644542202571265459,,,,gyr,1.5909844997877958e-07,-1.2727875998310479e-06,0.0,0.0,0.0,-0.0,2.386475564692326e-07,-2.0682787530182176e-06
6,1644542202572609186,0.0294199492782,-9.57129001617,0.245166242123,acc,1.1929551791166445e-07,-9.941293083802777e-07,,,,,3.977460064480122e-07,-3.3410663528492657e-06
7,1644542202574625015,0.0294199492782,-9.56148338318,0.196132987738,acc,1.1954992200262e-07,-7.969994497438957e-07,,,,,5.170415243596766e-07,-4.335195661229543e-06
8,1644542202576277018,,,,gyr,1.195290083281994e-07,-7.970025865146126e-07,-0.00174532923847,-0.00523598771542,0.0,2.624046135910254e-05,5.170415243596766e-07,-4.335195661229543e-06
9,1644542202576638937,0.0392265990376,-9.64974308014,0.294199496508,acc,1.5909844997877958e-07,-1.1932383899530623e-06,,,,,6.36570532687876e-07,-5.1321982477441556e-06
10,1644542202578652859,0.0294199492782,-9.67916297913,0.313812792301,acc,1.1932383748408468e-07,-1.2727875998310479e-06,,,,,7.956689826666556e-07,-6.325436637697218e-06
11,1644542202580666780,0.0392265990376,-9.67916297913,0.274586200714,acc,1.5909829198019726e-07,-1.1136880740809147e-06,,,,,9.149928201507402e-07,-7.598224237528266e-06
12,1644542202581288576,,,,gyr,1.5909829198019726e-07,-1.1136880740809147e-06,0.0,0.0,0.0,-0.0,9.149928201507402e-07,-7.598224237528266e-06
13,1644542202582680702,0.0392265990376,-9.67916297913,0.362846046686,acc,1.5909844997877958e-07,-1.4716606849687898e-06,,,,,1.0740911121309375e-06,-8.711912311609181e-06
14,1644542202584694386,0.0392265990376,-9.64974308014,0.362846046686,acc,1.5906084852879645e-07,-1.4713128715510892e-06,,,,,1.233189562109717e-06,-1.0183572996577971e-05
15,1644542202586300373,,,,gyr,1.59073718443395e-07,-1.471311480152046e-06,0.0,0.00174532923847,0.00174532923847,-8.74723584137623e-06,1.233189562109717e-06,-1.0183572996577971e-05
16,1644542202586708307,0.0294199492782,-9.62032318115,0.274586200714,acc,1.1932371898514792e-07,-1.1136880740809147e-06,,,,,1.392263280553112e-06,-1.1654884476730018e-05
17,1644542202588722229,0.0392265990376,-9.64974308014,0.313812792301,acc,1.5909844997877958e-07,-1.2727875998310479e-06,,,,,1.51158699953826e-06,-1.2768572550810933e-05
18,1644542202590738058,0.00980664975941,-9.66935634613,0.362846046686,acc,3.984997400091397e-08,-1.474449060740336e-06,,,,,1.6706854495170395e-06,-1.404136015064198e-05
19,1644542202591311932,,,,gyr,3.984997400091397e-08,-1.474449060740336e-06,0.0,0.0,0.0,-0.0,1.6706854495170395e-06,-1.404136015064198e-05
20,1644542202592750072,0.0,-9.62032318115,0.245166242123,acc,0.0,-9.924820637862383e-07,,,,,1.7105354235179535e-06,-1.5515809211382316e-05
21,1644542202594763994,0.0,-9.71838951111,0.343232750893,acc,0.0,-1.3921114750908047e-06,,,,,1.7105354235179535e-06,-1.6508291275168554e-05
22,1644542202596323729,,,,gyr,0.0,-1.3921114750908047e-06,0.0,0.0,0.00174532923847,-0.0,1.7105354235179535e-06,-1.6508291275168554e-05
23,1644542202601335526,,,,gyr,-1.2177127389950133e-11,-1.3921114750375466e-06,0.0,-0.00174532923847,0.0,8.74723584137623e-06,1.7105354235179535e-06,-1.6508291275168554e-05
24,1644542202606346846,,,,gyr,-3.652906423920497e-11,-1.3921114746115426e-06,-0.00174532923847,-0.00349065847695,0.00349065847695,1.7492806638709073e-05,1.7105354235179535e-06,-1.6508291275168554e-05
25,1644542202611358643,,,,gyr,-7.306044638024415e-11,-1.3921114731736348e-06,0.0,-0.00523598771542,0.0,2.6241707524178813e-05,1.7105354235179535e-06,-1.6508291275168554e-05
26,1644542202616370440,,,,gyr,-7.306044638024415e-11,-1.3921114731736348e-06,0.0,0.0,0.0,-0.0,1.7105354235179535e-06,-1.6508291275168554e-05
27,1644542202621381998,,,,gyr,-4.8707353016752084e-11,-1.3921114742387156e-06,0.0,0.00349065847695,0.0,-1.749363741542659e-05,1.7105354235179535e-06,-1.6508291275168554e-05
28,1644542202626393795,,,,gyr,-7.306160777342995e-11,-1.3921114731735738e-06,0.0,-0.00349065847695,0.0,1.749447168280258e-05,1.7105354235179535e-06,-1.6508291275168554e-05
29,1644542202631405592,,,,gyr,-8.523873514381448e-11,-1.3921114724812285e-06,-0.0069813169539,-0.00174532923847,0.0,8.74723584137623e-06,1.7105354235179535e-06,-1.6508291275168554e-05
30,1644542202636416912,,,,gyr,-8.523873514381448e-11,-1.3921114724812285e-06,-0.00349065847695,0.0,0.0,-0.0,1.7105354235179535e-06,-1.6508291275168554e-05
31,1644542202641426802,,,,gyr,-8.523873514381448e-11,-1.3921114724812285e-06,-0.00349065847695,0.0,0.00174532923847,-0.0,1.7105354235179535e-06,-1.6508291275168554e-05
32,1644542203333964825,0.0294199492782,-9.7478094101,0.696272134781,acc,0.01607558597747524,-0.3804555358185517,,,,,1.7104501847828097e-06,-1.7900402747649783e-05
33,1644542203335978508,0.0784531980753,-9.42419052124,-0.137293100357,acc,3.1812138109817744e-07,5.567124320272969e-07,,,,,0.016077296427660023,-0.3804734362212993
34,1644542203337994337,0.0980664938688,-9.94394302368,0.549172401428,acc,3.9849972487113514e-07,-2.23159860460255e-06,,,,,0.016077614549041122,-0.38047287950886727
35,1644542203337998390,,,,gyr,3.9849972487113514e-07,-2.23159860460255e-06,0.00349065847695,0.0,-0.00349065847695,-0.0,0.016077614549041122,-0.38047287950886727
36,1644542203340008020,0.0294199492782,-9.45361042023,-0.0392265990376,acc,1.1929551791166445e-07,1.5906069054888596e-07,,,,,0.016078013048765993,-0.3804751111074719
37,1644542203342023611,0.0294199492782,-9.61051654816,0.490332484245,acc,1.195216942097033e-07,-1.992028221695177e-06,,,,,0.016078132344283905,-0.38047495204678133
38,1644542203343007565,,,,gyr,1.1953910982976747e-07,-1.9920271766815613e-06,0.00174532923847,0.00174532923847,0.0,-8.742659588112963e-06,0.016078132344283905,-0.38047495204678133
39,1644542203344035387,0.12748645246,-9.67916297913,0.0294199492782,acc,5.159686107754219e-07,-1.1906967419082443e-07,,,,,0.016078251883393735,-0.380476944073958
40,1644542203346050978,0.0294199492782,-9.58109664917,0.343232750893,acc,1.195216942097033e-07,-1.3944198036189938e-06,,,,,0.01607876785200451,-0.38047706314363217
41,1644542203348018646,,,,gyr,1.194973030387406e-07,-1.394421894075842e-06,0.00349065847695,-0.00349065847695,0.00174532923847,1.7491972371333082e-05,0.01607876785200451,-0.38047706314363217
42,1644542203348064661,0.0784531980753,-9.5222568512,0.12748645246,acc,3.1812138109817744e-07,-5.169472669419571e-07,,,,,0.016078887349307548,-0.38047845756552623
43,1644542203350078344,0.0686465501785,-9.7478094101,0.402072638273,acc,2.7835621601364845e-07,-1.6303720705741994e-06,,,,,0.016079205470688647,-0.38047897451279317
44,1644542203352092028,0.0392265990376,-9.61051654816,0.0980664938688,acc,1.5906084852879645e-07,-3.9765210621659096e-07,,,,,0.01607948382690466,-0.38048060488486374
45,1644542203353029728,,,,gyr,1.5905041489248135e-07,-3.9765627951249716e-07,0.00349065847695,-0.00523598771542,0.00174532923847,2.6237963792962285e-05,0.01607948382690466,-0.38048060488486374
46,1644542203354105711,0.0686465501785,-9.58109664917,0.343232750893,acc,2.7835621601364845e-07,-1.3917810800702698e-06,,,,,0.016079642877319555,-0.38048100254114325
47,1644542203356121302,0.0686465501785,-9.64974308014,0.38245934248,acc,2.788839607233925e-07,-1.5537820322964049e-06,,,,,0.01607992123353557,-0.3804823943222233
48,1644542203358041048,,,,gyr,2.788839607233925e-07,-1.5537820322964049e-06,0.0069813169539,0.0,0.0,-0.0,0.01607992123353557,-0.3804823943222233
49,1644542203358134985,0.0784531980753,-9.64974308014,0.225552946329,acc,3.1812138109817744e-07,-9.145989782095978e-07,,,,,0.016080200117496293,-0.3804839481042556
50,1644542203360148668,0.0294199492782,-9.58109664917,0.274586200714,acc,1.1929551791166445e-07,-1.1134248640545938e-06,,,,,0.016080518238877392,-0.38048486270323384
51,1644542203362162352,0.0392265990376,-9.66935634613,0.343232750893,acc,1.5906084852879645e-07,-1.3917824623945239e-06,,,,,0.016080637534395304,-0.38048597612809787
52,1644542203363052130,,,,gyr,1.5906084852879645e-07,-1.3917824623945239e-06,0.00349065847695,0.0,0.0,-0.0,0.016080637534395304,-0.38048597612809787
53,1644542203364176035,0.0686465501785,-9.62032318115,0.176519691944,acc,2.7835621601364845e-07,-7.157730923646017e-07,,,,,0.01608079659524383,-0.38048736791056026
54,1644542203366191626,0.0686465501785,-9.61051654816,0.166713044047,acc,2.788839607233925e-07,-6.772895929538275e-07,,,,,0.016081074951459846,-0.3804880836836526
55,1644542203368063450,,,,gyr,2.788839607233925e-07,-6.772895929538275e-07,0.00349065847695,0.0,0.00174532923847,-0.0,0.016081074951459846,-0.3804880836836526
56,1644542203368203402,0.0,-9.64974308014,0.38245934248,acc,0.0,-1.5479057720223498e-06,,,,,0.01608135383542057,-0.3804887609732456
57,1644542203370218992,0.0392265990376,-9.64974308014,0.196132987738,acc,1.5936210081675026e-07,-7.968104738173585e-07,,,,,0.01608135383542057,-0.3804903088790176
58,1644542203372232676,0.0784531980753,-9.66935634613,0.274586200714,acc,3.1812169705799836e-07,-1.1134259699139971e-06,,,,,0.016081513197521387,-0.3804911056894914
59,1644542203373074532,,,,gyr,3.1812169705799836e-07,-1.1134259699139971e-06,0.00523598771542,0.0,0.0,-0.0,0.016081513197521387,-0.3804911056894914
60,1644542203374246359,0.0294199492782,-9.64974308014,0.245166242123,acc,1.1929551791166445e-07,-9.941293083802777e-07,,,,,0.016081831319218445,-0.3804922191154613
61,1644542203376261950,0.0392265990376,-9.67916297913,0.343232750893,acc,1.5936225894627104e-07,-1.3944198036189938e-06,,,,,0.016081950614736357,-0.3804932132447697
62,1644542203378085613,,,,gyr,1.5935006336383675e-07,-1.3944211973457778e-06,0.00349065847695,-0.00174532923847,0.0,8.745986185641486e-06,0.016081950614736357,-0.3804932132447697
63,1644542203378275633,0.0392265990376,-9.64974308014,0.166713044047,acc,1.5906069054888596e-07,-6.760079272792617e-07,,,,,0.01608210996479972,-0.38049460766596704
64,1644542203380289316,0.00980664975941,-9.66935634613,0.343232750893,acc,3.9765172637262036e-08,-1.3917810800702698e-06,,,,,0.01608226902549027,-0.38049528367389435
65,1644542203382301092,-0.00980664975941,-9.57129001617,0.294199496508,acc,-3.968989139698195e-08,-1.1906967569882706e-06,,,,,0.016082308790662907,-0.3804966754549744
66,1644542203383096933,,,,gyr,-3.968989139698195e-08,-1.1906967569882706e-06,0.00174532923847,0.0,0.00174532923847,-0.0,0.016082308790662907,-0.3804966754549744
67,1644542203384316683,0.0294199492782,-9.70858287811,0.294199496508,acc,1.195216942097033e-07,-1.1952169572343069e-06,,,,,0.01608226910077151,-0.38049786615173137
68,1644542203386330366,0.00980664975941,-9.67916297913,0.264779537916,acc,3.9765172637262036e-08,-1.0736596385469026e-06,,,,,0.016082388622465717,-0.3804990613686886
69,1644542203388108253,,,,gyr,3.9765172637262036e-08,-1.0736596385469026e-06,0.00174532923847,0.0,0.00349065847695,-0.0,0.016082388622465717,-0.3804990613686886
70,1644542203388344049,0.0,-9.61051654816,0.313812792301,acc,0.0,-1.2724855243918985e-06,,,,,0.016082428387638355,-0.38050013502832714
71,1644542203390359879,0.0294199492782,-9.66935634613,0.362846046686,acc,1.1955004061382333e-07,-1.4744505236118661e-06,,,,,0.016082428387638355,-0.38050140751385153
72,1644542203392373562,0.00980664975941,-9.66935634613,0.225552946329,acc,3.9765172637262036e-08,-9.145989782095978e-07,,,,,0.01608254793767897,-0.38050288196437515
73,1644542203393119335,,,,gyr,3.9765172637262036e-08,-9.145989782095978e-07,0.0,0.0,0.00174532923847,-0.0,0.01608254793767897,-0.38050288196437515
74,1644542203394387245,-0.00980664975941,-9.62032318115,0.343232750893,acc,-3.9765172637262036e-08,-1.3917810800702698e-06,,,,,0.016082587702851606,-0.38050379656335337
75,1644542203396400928,0.0,-9.66935634613,0.362846046686,acc,0.0,-1.4713114102368949e-06,,,,,0.01608254793767897,-0.3805051883444334
76,1644542203398130417,,,,gyr,0.0,-1.4713114102368949e-06,0.0,0.0,0.00174532923847,-0.0,0.01608254793767897,-0.3805051883444334
77,1644542203398416519,0.00980664975941,-9.66935634613,0.294199496508,acc,3.984056473660839e-08,-1.1952169572343069e-06,,,,,0.01608254793767897,-0.3805066596558437
78,1644542203400430202,-0.0294199492782,-9.67916297913,0.264779537916,acc,-1.1929551791166445e-07,-1.0736596385469026e-06,,,,,0.016082587778243704,-0.3805078548728009
79,1644542203402443886,0.00980664975941,-9.66935634613,0.343232750893,acc,3.976521213223966e-08,-1.3917824623945239e-06,,,,,0.016082468482725792,-0.38050892853243945
80,1644542203403141499,,,,gyr,3.9728694580700066e-08,-1.391783505273647e-06,-0.00174532923847,-0.00523598771542,0.0,2.6237963792962285e-05,0.016082468482725792,-0.38050892853243945
81,1644542203404457569,-0.00980664975941,-9.64974308014,0.343232750893,acc,-3.9765172637262036e-08,-1.3917810800702698e-06,,,,,0.016082508211420373,-0.38051032031594473
82,1644542203406471252,-0.00980664975941,-9.70858287811,0.294199496508,acc,-3.9765172637262036e-08,-1.1929551942252736e-06,,,,,0.016082468446247736,-0.3805117120970248
83,1644542203408152819,,,,gyr,-3.9765172637262036e-08,-1.1929551942252736e-06,0.0,0.0,0.00523598771542,-0.0,0.016082468446247736,-0.3805117120970248
84,1644542203408486843,0.00980664975941,-9.64974308014,0.343232750893,acc,3.984056473660839e-08,-1.3944198036189938e-06,,,,,0.0160824286810751,-0.380512905052219
85,1644542203410500526,-0.00980664975941,-9.64974308014,0.274586200714,acc,-3.9765172637262036e-08,-1.1134248640545938e-06,,,,,0.016082468521639835,-0.38051429947202264
86,1644542203412516117,0.0294199492782,-9.67916297913,0.264779537916,acc,1.195216942097033e-07,-1.0756952251862937e-06,,,,,0.016082428756467197,-0.3805154128968867
87,1644542203413161993,,,,gyr,1.195216942097033e-07,-1.0756952251862937e-06,-0.00174532923847,0.0,0.00174532923847,-0.0,0.016082428756467197,-0.3805154128968867
88,1644542203414529800,0.0294199492782,-9.70858287811,0.343232750893,acc,1.1929551791166445e-07,-1.3917810800702698e-06,,,,,0.016082548278161406,-0.38051648859211185
89,1644542203416545391,0.00980664975941,-9.62032318115,0.313812792301,acc,3.984056473660839e-08,-1.2748980715709808e-06,,,,,0.016082667573679318,-0.3805178803731919
90,1644542203418173075,,,,gyr,3.981826424422012e-08,-1.2748987682661378e-06,0.0,-0.00349065847695,0.0,1.7491975861991562e-05,0.016082667573679318,-0.3805178803731919
91,1644542203418559074,0.0,-9.67916297913,0.294199496508,acc,0.0,-1.1929551942252736e-06,,,,,0.016082707391943563,-0.3805191552719602
92,1644542203420572758,-0.0294199492782,-9.67916297913,0.264779537916,acc,-1.192956363965973e-07,-1.0736607049112757e-06,,,,,0.016082707391943563,-0.3805203482271544
93,1644542203422586441,-0.0294199492782,-9.61051654816,0.245166242123,acc,-1.1929551791166445e-07,-9.941293083802777e-07,,,,,0.016082588096307165,-0.3805214218878593
94,1644542203423184395,,,,gyr,-1.1929551791166445e-07,-9.941293083802777e-07,-0.0069813169539,0.0,0.0,-0.0,0.016082588096307165,-0.3805214218878593
95,1644542203424602032,0.0294199492782,-9.67916297913,0.274586200714,acc,1.195216942097033e-07,-1.11553584289357e-06,,,,,0.016082468800789253,-0.3805224160171677
96,1644542203426615715,0.0294199492782,-9.66935634613,0.264779537916,acc,1.1929551791166445e-07,-1.0736596385469026e-06,,,,,0.016082588322483462,-0.38052353155301055
97,1644542203428195477,,,,gyr,1.1930490812134245e-07,-1.0736585951486795e-06,-0.00349065847695,0.00174532923847,0.0,-8.745987930970724e-06,0.016082588322483462,-0.38052353155301055
98,1644542203428629398,0.00980664975941,-9.58109664917,0.196132987738,acc,3.9765172637262036e-08,-7.953034225352816e-07,,,,,0.016082707627391585,-0.3805246052116057
99,1644542203430643082,0.00980664975941,-9.64974308014,0.402072638273,acc,3.976521213223966e-08,-1.6303736898682743e-06,,,,,0.016082747392564222,-0.38052540051502826
100,1644542203432658911,0.00980664975941,-9.62032318115,0.166713044047,acc,3.984997400091397e-08,-6.774495504452347e-07,,,,,0.016082787157776356,-0.38052703088871814
101,1644542203433206797,,,,gyr,3.983812350082414e-08,-6.774502474294753e-07,-0.0104719754308,-0.00349065847695,0.00174532923847,1.7492806638709073e-05,0.016082787157776356,-0.38052703088871814
102,1644542203434670448,0.0,-9.61051654816,0.176519691944,acc,0.0,-7.142482937090045e-07,,,,,0.016082826995899857,-0.3805277083389656
103,1644542203436686277,0.00980664975941,-9.67916297913,0.313812792301,acc,3.984997400091397e-08,-1.2751991680287593e-06,,,,,0.016082826995899857,-0.38052842258725933
104,1644542203438218117,,,,gyr,3.982766718234592e-08,-1.2751998649215445e-06,-0.00872664619237,-0.00349065847695,0.00174532923847,1.7492806638709073e-05,0.016082826995899857,-0.38052842258725933
105,1644542203438699961,-0.00980664975941,-9.64974308014,0.176519691944,acc,-3.976521213223966e-08,-7.157738032741839e-07,,,,,0.01608286682356704,-0.38052969778712425
106,1644542203440713406,0.00980664975941,-9.64974308014,0.196132987738,acc,3.975577339040995e-08,-7.951154376053804e-07,,,,,0.016082827058354905,-0.38053041356092754
107,1644542203442729235,0.0294199492782,-9.62032318115,0.196132987738,acc,1.1954992200262e-07,-7.969994497438957e-07,,,,,0.016082866814128297,-0.38053120867636514
108,1644542203443228960,,,,gyr,1.1954992200262e-07,-7.969994497438957e-07,-0.00523598771542,0.0,0.0,-0.0,0.016082866814128297,-0.38053120867636514
109,1644542203444742918,0.00980664975941,-9.62032318115,0.294199496508,acc,3.9765172637262036e-08,-1.1929551942252736e-06,,,,,0.0160829863640503,-0.3805320056758149
110,1644542203446754456,0.00980664975941,-9.64974308014,0.225552946329,acc,3.9680501051939676e-08,-9.126515317311018e-07,,,,,0.016083026129222938,-0.38053319863100915
111,1644542203448240280,,,,gyr,3.9680501051939676e-08,-9.126515317311018e-07,-0.0069813169539,0.0,0.00523598771542,-0.0,0.016083026129222938,-0.38053319863100915
112,1644542203448770285,0.0392265990376,-9.62032318115,0.196132987738,acc,1.5939989600349333e-07,-7.969994497438957e-07,,,,,0.01608306580972399,-0.3805341112825409
113,1644542203450783968,0.0294199492782,-9.61051654816,0.176519691944,acc,1.1929551791166445e-07,-7.157730923646017e-07,,,,,0.016083225209619995,-0.38053490828199066
114,1644542203452797651,0.0294199492782,-9.61051654816,0.264779537916,acc,1.1929551791166445e-07,-1.0736596385469026e-06,,,,,0.016083344505137907,-0.380535624055083
115,1644542203453251362,,,,gyr,1.1928612769286126e-07,-1.073660681862999e-06,-0.00174532923847,-0.00174532923847,0.0,8.745987930970724e-06,0.016083344505137907,-0.380535624055083
116,1644542203454813242,0.0392265990376,-9.64974308014,0.166713044047,acc,1.5936225894627104e-07,-6.772895929538275e-07,,,,,0.0160834637912656,-0.38053669771576487
117,1644542203456826925,0.0392265990376,-9.70858287811,0.264779537916,acc,1.5906069054888596e-07,-1.0736596385469026e-06,,,,,0.016083623153524546,-0.38053737500535784
118,1644542203458262682,,,,gyr,1.5906069054888596e-07,-1.0736596385469026e-06,-0.00523598771542,0.0,0.00349065847695,-0.0,0.016083623153524546,-0.38053737500535784
119,1644542203458840609,0.0392265990376,-9.57129001617,0.225552946329,acc,1.5906084852879645e-07,-9.145998865940905e-07,,,,,0.016083782214215095,-0.38053844866499636
120,1644542203460854292,0.0392265990376,-9.58109664917,0.166713044047,acc,1.5906069054888596e-07,-6.760079272792617e-07,,,,,0.016083941275063622,-0.38053936326488297
121,1644542203462867975,0.0784531980753,-9.66935634613,0.274586200714,acc,3.1812138109817744e-07,-1.1134248640545938e-06,,,,,0.01608410033575417,-0.38054003927281027
122,1644542203463273764,,,,gyr,3.1812138109817744e-07,-1.1134248640545938e-06,0.0,0.0,0.00174532923847,-0.0,0.01608410033575417,-0.38054003927281027
123,1644542203464881659,0.00980664975941,-9.57129001617,0.137293100357,acc,3.976521213223966e-08,-5.567129849569986e-07,,,,,0.01608441845713527,-0.3805411526976743
124,1644542203466897249,0.0294199492782,-9.62032318115,0.264779537916,acc,1.1952157561256268e-07,-1.0756941578120511e-06,,,,,0.016084458222347404,-0.38054170941065923
125,1644542203468284845,,,,gyr,1.1952157561256268e-07,-1.0756941578120511e-06,-0.00174532923847,0.0,0.0,-0.0,0.016084458222347404,-0.38054170941065923
126,1644542203468910933,0.0686465501785,-9.62032318115,0.225552946329,acc,2.783564924784993e-07,-9.145998865940905e-07,,,,,0.016084577743923016,-0.38054278510481704
127,1644542203470924616,0.0686465501785,-9.56148338318,0.245166242123,acc,2.7835621601364845e-07,-9.941293083802777e-07,,,,,0.016084856100415493,-0.38054369970470364
128,1644542203472938299,0.0392265990376,-9.62032318115,0.274586200714,acc,1.5906069054888596e-07,-1.1134248640545938e-06,,,,,0.016085134456631508,-0.380544693834012
129,1644542203473296165,,,,gyr,1.5906069054888596e-07,-1.1134248640545938e-06,0.00523598771542,0.0,0.0,-0.0,0.016085134456631508,-0.380544693834012
130,1644542203474953890,0.0392265990376,-9.62032318115,0.176519691944,acc,1.5936225894627104e-07,-7.171301501241958e-07,,,,,0.016085293517322057,-0.38054580725887605
131,1644542203476967573,0.00980664975941,-9.61051654816,0.196132987738,acc,3.9765172637262036e-08,-7.953034225352816e-07,,,,,0.016085452879581002,-0.3805465243890262
132,1644542203478305340,,,,gyr,3.97512664969989e-08,-7.953041177204406e-07,0.00349065847695,-0.00349065847695,0.0,1.748531917627602e-05,0.016085452879581002,-0.3805465243890262
133,1644542203478981256,0.0392265990376,-9.67916297913,0.343232750893,acc,1.5906069054888596e-07,-1.3917810800702698e-06,,,,,0.0160854926308475,-0.3805473196931439
134,1644542203480994940,0.00980664975941,-9.57129001617,0.12748645246,acc,3.976521213223966e-08,-5.169477803766885e-07,,,,,0.01608565169153805,-0.380548711474224
135,1644542203483010530,0.0686465501785,-9.58109664917,0.166713044047,acc,2.788836839967236e-07,-6.772889209033715e-07,,,,,0.016085691456750182,-0.38054922842200434
136,1644542203483316422,,,,gyr,2.7889553107551413e-07,-6.772840425730882e-07,0.0,0.00349065847695,0.0,-1.7491975861991562e-05,0.016085691456750182,-0.38054922842200434
137,1644542203485024214,0.0294199492782,-9.66935634613,0.402072638273,acc,1.192956363965973e-07,-1.6303736898682743e-06,,,,,0.016085970352281258,-0.3805499057060469
138,1644542203487037897,0.0392265990376,-9.70858287811,0.264779537916,acc,1.5906069054888596e-07,-1.0736596385469026e-06,,,,,0.016086089647917655,-0.3805515360797368
139,1644542203488327742,,,,gyr,1.5906069054888596e-07,-1.0736596385469026e-06,0.00523598771542,0.0,0.00523598771542,-0.0,0.016086089647917655,-0.3805515360797368
140,1644542203489051580,0.0294199492782,-9.61051654816,0.176519691944,acc,1.1929551791166445e-07,-7.157730923646017e-07,,,,,0.016086248708608204,-0.3805526097393753
141,1644542203491065264,0.0686465501785,-9.71838951111,0.38245934248,acc,2.783564924784993e-07,-1.5508432807117092e-06,,,,,0.016086368004126116,-0.3805533255124677
142,1644542203493080854,0.00980664975941,-9.57129001617,0.294199496508,acc,3.9840525204228197e-08,-1.1952157712628857e-06,,,,,0.016086646360618594,-0.38055487635574836
143,1644542203493338823,,,,gyr,3.9840525204228197e-08,-1.1952157712628857e-06,0.0,0.0,0.0,-0.0,0.016086646360618594,-0.38055487635574836
144,1644542203495094538,0.0686465501785,-9.62032318115,0.294199496508,acc,2.783564924784993e-07,-1.1929563790746171e-06,,,,,0.0160866862011438,-0.3805560715715196
145,1644542203497108221,0.0392265990376,-9.64974308014,0.225552946329,acc,1.5906069054888596e-07,-9.145989782095978e-07,,,,,0.016086964557636276,-0.3805572645278987
146,1644542203498350143,,,,gyr,1.590686899943407e-07,-9.145975869656628e-07,0.00174532923847,0.00174532923847,0.0,-8.74640331932948e-06,0.016086964557636276,-0.3805572645278987
147,1644542203499121904,0.0392265990376,-9.64974308014,0.362846046686,acc,1.5906069054888596e-07,-1.4713114102368949e-06,,,,,0.01608712362632627,-0.3805581791254856
148,1644542203501135588,0.0294199492782,-9.66935634613,0.225552946329,acc,1.192956363965973e-07,-9.145998865940905e-07,,,,,0.01608728268701682,-0.3805596504368959
149,1644542203503151178,0.0392265990376,-9.67916297913,0.362846046686,acc,1.5936210081675026e-07,-1.4740994552575783e-06,,,,,0.016087401982653217,-0.3805605650367825
150,1644542203503360987,,,,gyr,1.593363171049319e-07,-1.4741022424577115e-06,-0.00349065847695,-0.00349065847695,0.00349065847695,1.7491145085274048e-05,0.016087401982653217,-0.3805605650367825
151,1644542203505164862,0.0392265990376,-9.67916297913,0.362846046686,acc,1.5906084852879645e-07,-1.4713128715510892e-06,,,,,0.016087561318970323,-0.3805620391390249
152,1644542203507178545,0.0294199492782,-9.62032318115,0.38245934248,acc,1.1929551791166445e-07,-1.5508417404075745e-06,,,,,0.01608772037981885,-0.38056351045189646
153,1644542203508372307,,,,gyr,1.1929551791166445e-07,-1.5508417404075745e-06,0.0,0.0,0.0,-0.0,0.01608772037981885,-0.38056351045189646
154,1644542203509192228,0.0686465501785,-9.66935634613,0.274586200714,acc,2.7835621601364845e-07,-1.1134248640545938e-06,,,,,0.016087839675336762,-0.3805650612936369
155,1644542203511207819,0.0294199492782,-9.70858287811,0.362846046686,acc,1.195216942097033e-07,-1.4741009179556681e-06,,,,,0.016088118031552776,-0.3805661747185009
156,1644542203513221502,0.0686465501785,-9.62032318115,0.294199496508,acc,2.7835621601364845e-07,-1.1929551942252736e-06,,,,,0.016088237553246985,-0.38056764881941885
157,1644542203513383627,,,,gyr,2.7835621601364845e-07,-1.1929551942252736e-06,-0.00349065847695,0.0,0.0,-0.0,0.016088237553246985,-0.38056764881941885
158,1644542203515235186,0.00980664975941,-9.66935634613,0.343232750893,acc,3.976521213223966e-08,-1.3917824623945239e-06,,,,,0.016088515909463,-0.3805688417746131
159,1644542203517248869,0.0294199492782,-9.66935634613,0.313812792301,acc,1.1929551791166445e-07,-1.2724855243918985e-06,,,,,0.016088555674675133,-0.3805702335570755
160,1644542203518394470,,,,gyr,1.1928438929486033e-07,-1.272486567650633e-06,0.0,-0.00174532923847,0.0,8.74557079728273e-06,0.016088555674675133,-0.3805702335570755
161,1644542203519262552,0.0294199492782,-9.67916297913,0.362846046686,acc,1.1929551791166445e-07,-1.4713114102368949e-06,,,,,0.016088674959064426,-0.38057150604364315
162,1644542203521276236,0.0294199492782,-9.70858287811,0.362846046686,acc,1.192956363965973e-07,-1.4713128715510892e-06,,,,,0.016088794254582338,-0.3805729773550534
163,1644542203523289680,0.0294199492782,-9.66935634613,0.294199496508,acc,1.192672017002381e-07,-1.1926720321074237e-06,,,,,0.016088913550218735,-0.38057444866792495
164,1644542203523405790,,,,gyr,1.192567701050558e-07,-1.1926730752208531e-06,-0.00349065847695,-0.00174532923847,-0.00174532923847,8.74640331932948e-06,0.016088913550218735,-0.38057444866792495
165,1644542203525305510,0.0294199492782,-9.67916297913,0.343232750893,acc,1.1955004061382333e-07,-1.3947505116760351e-06,,,,,0.01608903280698884,-0.3805756413410002
166,1644542203527319193,0.0294199492782,-9.67916297913,0.264779537916,acc,1.1929551791166445e-07,-1.0736596385469026e-06,,,,,0.016089152357029454,-0.3805770360915119
167,1644542203528417110,,,,gyr,1.1929551791166445e-07,-1.0736596385469026e-06,-0.00349065847695,0.0,0.00349065847695,-0.0,0.016089152357029454,-0.3805770360915119
168,1644542203529332876,0.00980664975941,-9.67916297913,0.343232750893,acc,3.9765172637262036e-08,-1.3917810800702698e-06,,,,,0.016089271652547366,-0.3805781097511504
169,1644542203531346321,0.0392265990376,-9.64974308014,0.196132987738,acc,1.590230935614776e-07,-7.951154376053804e-07,,,,,0.016089311417720003,-0.38057950153223047
170,1644542203533360004,0.0392265990376,-9.64974308014,0.362846046686,acc,1.5906069054888596e-07,-1.4713114102368949e-06,,,,,0.016089470440813564,-0.38058029664766807
171,1644542203533428192,,,,gyr,1.590349543808801e-07,-1.4713141922975665e-06,-0.00349065847695,-0.00349065847695,0.0,1.7491975861991562e-05,0.016089470440813564,-0.38058029664766807
172,1644542203535373688,0.0,-9.64974308014,0.196132987738,acc,0.0,-7.953042124348039e-07,,,,,0.016089629475767944,-0.3805817679618604
173,1644542203537389517,0.00980664975941,-9.66935634613,0.274586200714,acc,3.984997400091397e-08,-1.115799302301275e-06,,,,,0.016089629475767944,-0.3805825632660728
174,1644542203538439274,,,,gyr,3.984021523215867e-08,-1.1157996507859917e-06,-0.00523598771542,-0.00174532923847,0.0,8.745987930970724e-06,0.016089629475767944,-0.3805825632660728
175,1644542203539401054,-0.00980664975941,-9.66935634613,0.313812792301,acc,-3.968046159905218e-08,-1.2697747711691842e-06,,,,,0.016089669315983175,-0.3805836790657236
176,1644542203541416645,0.0294199492782,-9.61051654816,0.264779537916,acc,1.195216942097033e-07,-1.0756952251862937e-06,,,,,0.016089629635521574,-0.38058494884049476
177,1644542203543430328,0.00980664975941,-9.66935634613,0.274586200714,acc,3.9765172637262036e-08,-1.1134248640545938e-06,,,,,0.016089749157215782,-0.38058602453571994
178,1644542203543450356,,,,gyr,3.9765172637262036e-08,-1.1134248640545938e-06,-0.00349065847695,0.0,0.0,-0.0,0.016089749157215782,-0.38058602453571994
179,1644542203545444012,0.0,-9.62032318115,0.245166242123,acc,0.0,-9.941302957547106e-07,,,,,0.01608978892238842,-0.38058713796058397
180,1644542203547459602,0.0294199492782,-9.57129001617,0.274586200714,acc,1.1952157561256268e-07,-1.1155347359868945e-06,,,,,0.01608978892238842,-0.3805881320908797
181,1644542203548459768,,,,gyr,1.1949231596578638e-07,-1.1155378705608306e-06,-0.00349065847695,-0.00523598771542,0.0,2.6229219693477537e-05,0.01608978892238842,-0.3805881320908797
182,1644542203549471378,0.0,-9.62032318115,0.245166242123,acc,0.0,-9.922472773875712e-07,,,,,0.016089908414704385,-0.3805892476287503
183,1644542203551486969,0.0,-9.66935634613,0.196132987738,acc,0.0,-7.968112644649326e-07,,,,,0.016089908414704385,-0.3805902398760277
184,1644542203553470612,,,,gyr,-1.393714143162615e-11,-7.968112643430444e-07,-0.00872664619237,-0.00349065847695,0.0069813169539,1.7491145085274048e-05,0.016089908414704385,-0.3805902398760277
185,1644542203553500652,0.00980664975941,-9.62032318115,0.225552946329,acc,3.9765172637262036e-08,-9.145989782095978e-07,,,,,0.016089908400767242,-0.38059103668729205
186,1644542203555514336,0.00980664975941,-9.58109664917,0.294199496508,acc,3.976521213223966e-08,-1.1929563790746171e-06,,,,,0.01608994816593988,-0.38059195128627027
187,1644542203557528019,0.0294199492782,-9.58109664917,0.245166242123,acc,1.1929551791166445e-07,-9.941293083802777e-07,,,,,0.016089987931152013,-0.38059314424264934
188,1644542203558481932,,,,gyr,1.1929551791166445e-07,-9.941293083802777e-07,0.0,0.0,0.00174532923847,-0.0,0.016089987931152013,-0.38059314424264934
189,1644542203559541702,0.00980664975941,-9.61051654816,0.196132987738,acc,3.9765172637262036e-08,-7.953034225352816e-07,,,,,0.016090107226669925,-0.3805941383719577
190,1644542203561555386,-0.00980664975941,-9.58109664917,0.196132987738,acc,-3.976521213223966e-08,-7.953042124348039e-07,,,,,0.016090146991842563,-0.3805949336753803
191,1644542203563493252,,,,gyr,-3.976521213223966e-08,-7.953042124348039e-07,-0.00174532923847,0.0,0.00174532923847,-0.0,0.016090146991842563,-0.3805949336753803
192,1644542203563569069,-0.00980664975941,-9.61051654816,0.264779537916,acc,-3.9765172637262036e-08,-1.0736596385469026e-06,,,,,0.01609010722663043,-0.3805957289795927
193,1644542203565584660,0.0294199492782,-9.66935634613,0.166713044047,acc,1.195216942097033e-07,-6.772895929538275e-07,,,,,0.01609006746145779,-0.38059680263923124
194,1644542203567596436,0.0,-9.58109664917,0.225552946329,acc,0.0,-9.128675096688576e-07,,,,,0.016090186983152,-0.3805974799288242
195,1644542203568504333,,,,gyr,7.98392662878299e-12,-9.128675096339439e-07,-0.00349065847695,0.00174532923847,0.0,-8.745986185641486e-06,0.016090186983152,-0.3805974799288242
196,1644542203569612026,0.00980664975941,-9.64974308014,0.274586200714,acc,3.9840525204228197e-08,-1.1155347359868945e-06,,,,,0.016090186991135926,-0.38059839279633384
197,1644542203571627617,0.0294199492782,-9.58109664917,0.196132987738,acc,1.195216942097033e-07,-7.968112644649326e-07,,,,,0.01609022683166113,-0.3805995083310698
198,1644542203573515415,,,,gyr,1.195216942097033e-07,-7.968112644649326e-07,-0.0069813169539,0.0,0.0,-0.0,0.01609022683166113,-0.3805995083310698
199,1644542203573641300,0.00980664975941,-9.64974308014,0.264779537916,acc,3.9765172637262036e-08,-1.0736596385469026e-06,,,,,0.01609034635335534,-0.3806003051423343
200,1644542203575654984,0.0294199492782,-9.58109664917,0.264779537916,acc,1.192956363965973e-07,-1.0736607049112757e-06,,,,,0.016090386118527977,-0.3806013788019728
201,1644542203577668667,0.00980664975941,-9.62032318115,0.196132987738,acc,3.9765172637262036e-08,-7.953034225352816e-07,,,,,0.016090505414164374,-0.3806024524626777
202,1644542203578526497,,,,gyr,3.9765172637262036e-08,-7.953034225352816e-07,-0.00523598771542,0.0,0.0,-0.0,0.016090505414164374,-0.3806024524626777
203,1644542203579682350,0.0294199492782,-9.64974308014,0.264779537916,acc,1.1929551791166445e-07,-1.0736596385469026e-06,,,,,0.016090545179337012,-0.38060324776610027
204,1644542203581697941,0.0392265990376,-9.61051654816,0.245166242123,acc,1.5936225894627104e-07,-9.960141108496196e-07,,,,,0.016090664474854924,-0.3806043214257388
205,1644542203583537817,,,,gyr,1.5934483583963913e-07,-9.960168983904114e-07,-0.00349065847695,-0.00349065847695,0.00174532923847,1.7492806638709073e-05,0.016090664474854924,-0.3806043214257388
206,1644542203583711624,0.00980664975941,-9.56148338318,0.196132987738,acc,3.9765172637262036e-08,-7.953034225352816e-07,,,,,0.016090823819690764,-0.3806053174426372
207,1644542203585725307,0.0392265990376,-9.62032318115,0.196132987738,acc,1.5906069054888596e-07,-7.953034225352816e-07,,,,,0.0160908635848634,-0.38060611274605977
208,1644542203587740898,0.0392265990376,-9.61051654816,0.264779537916,acc,1.5936225894627104e-07,-1.0756952251862937e-06,,,,,0.01609102264555395,-0.38060690804948233
209,1644542203588548899,,,,gyr,1.5936225894627104e-07,-1.0756952251862937e-06,-0.00174532923847,0.0,0.00174532923847,-0.0,0.01609102264555395,-0.38060690804948233
210,1644542203589754581,0.0686465501785,-9.66935634613,0.264779537916,acc,2.7835621601364845e-07,-1.0736596385469026e-06,,,,,0.016091182007812895,-0.3806079837447075
211,1644542203591768265,0.0294199492782,-9.66935634613,0.245166242123,acc,1.192956363965973e-07,-9.941302957547106e-07,,,,,0.01609146036402891,-0.38060905740434603
212,1644542203593559980,,,,gyr,1.192956363965973e-07,-9.941302957547106e-07,-0.00174532923847,0.0,0.0,-0.0,0.01609146036402891,-0.38060905740434603
213,1644542203593781948,0.00980664975941,-9.64974308014,0.225552946329,acc,3.9765172637262036e-08,-9.145989782095978e-07,,,,,0.016091579659665307,-0.3806100515346418
214,1644542203595797539,0.0392265990376,-9.61051654816,0.274586200714,acc,1.5936225894627104e-07,-1.11553584289357e-06,,,,,0.016091619424837944,-0.38061096613362
215,1644542203597811222,0.0686465501785,-9.62032318115,0.313812792301,acc,2.7835621601364845e-07,-1.2724855243918985e-06,,,,,0.01609177878709689,-0.38061208166946287
216,1644542203598571301,,,,gyr,2.7835621601364845e-07,-1.2724855243918985e-06,-0.00349065847695,0.0,0.0,-0.0,0.01609177878709689,-0.38061208166946287
217,1644542203599824905,0.0,-9.66935634613,0.264779537916,acc,0.0,-1.0736596385469026e-06,,,,,0.016092057143312903,-0.38061335415498726
218,1644542203601840496,0.0294199492782,-9.61051654816,0.264779537916,acc,1.195216942097033e-07,-1.0756952251862937e-06,,,,,0.016092057143312903,-0.3806144278146258
219,1644542203603582621,,,,gyr,1.195216942097033e-07,-1.0756952251862937e-06,-0.00349065847695,0.0,0.0,-0.0,0.016092057143312903,-0.3806144278146258
220,1644542203603854179,0.0392265990376,-9.67916297913,0.264779537916,acc,1.5906069054888596e-07,-1.0736596385469026e-06,,,,,0.01609217666500711,-0.38061550350985096
221,1644542203605867863,0.0294199492782,-9.67916297913,0.274586200714,acc,1.192956363965973e-07,-1.1134259699139971e-06,,,,,0.01609233572569766,-0.3806165771694895
222,1644542203607881546,0.0392265990376,-9.66935634613,0.294199496508,acc,1.5906069054888596e-07,-1.1929551942252736e-06,,,,,0.016092455021334058,-0.3806176905954594
223,1644542203608591557,,,,gyr,1.5905026143926266e-07,-1.1929565847268086e-06,-0.00349065847695,-0.00174532923847,0.0,8.742242454424967e-06,0.016092455021334058,-0.3806176905954594
224,1644542203609897375,0.0392265990376,-9.66935634613,0.274586200714,acc,1.5939989600349333e-07,-1.115799302301275e-06,,,,,0.0160926140715955,-0.38061888355204415
225,1644542203611910820,0.0294199492782,-9.66935634613,0.274586200714,acc,1.192673201711082e-07,-1.1131616851355941e-06,,,,,0.016092773471491503,-0.38061999935134644
226,1644542203613604784,,,,gyr,1.1925758030050133e-07,-1.113162728650031e-06,-0.00174532923847,-0.00174532923847,0.0,8.749731662187243e-06,0.016092773471491503,-0.38061999935134644
227,1644542203613924503,0.0392265990376,-9.66935634613,0.294199496508,acc,1.5906069054888596e-07,-1.1929551942252736e-06,,,,,0.016092892729071804,-0.3806211125140751
228,1644542203615938187,0.0392265990376,-9.62032318115,0.294199496508,acc,1.5906084852879645e-07,-1.1929563790746171e-06,,,,,0.016093051789762353,-0.38062230546926934
229,1644542203617951870,0.0392265990376,-9.70858287811,0.294199496508,acc,1.5906069054888596e-07,-1.1929551942252736e-06,,,,,0.01609321085061088,-0.3806234984256484
230,1644542203618613720,,,,gyr,1.5906069054888596e-07,-1.1929551942252736e-06,-0.00174532923847,0.0,0.00349065847695,-0.0,0.01609321085061088,-0.3806234984256484
231,1644542203619965553,0.0686465501785,-9.7478094101,0.274586200714,acc,2.7835621601364845e-07,-1.1134248640545938e-06,,,,,0.01609336991130143,-0.38062469138084265
232,1644542203621979237,0.00980664975941,-9.62032318115,0.343232750893,acc,3.976521213223966e-08,-1.3917824623945239e-06,,,,,0.016093648267517444,-0.3806258048057067
233,1644542203623625040,,,,gyr,3.976521213223966e-08,-1.3917824623945239e-06,-0.00349065847695,0.0,0.0,-0.0,0.016093648267517444,-0.3806258048057067
234,1644542203623992920,0.00980664975941,-9.67916297913,0.362846046686,acc,3.9765172637262036e-08,-1.4713114102368949e-06,,,,,0.016093688032729578,-0.38062719658816907
235,1644542203626008511,0.0686465501785,-9.67916297913,0.274586200714,acc,2.788839607233925e-07,-1.11553584289357e-06,,,,,0.016093727797902215,-0.38062866789957933
236,1644542203628022194,0.0294199492782,-9.61051654816,0.274586200714,acc,1.1929551791166445e-07,-1.1134248640545938e-06,,,,,0.01609400668186294,-0.3806297834354222
237,1644542203628636122,,,,gyr,1.192760418925689e-07,-1.1134269505985765e-06,-0.00523598771542,-0.00349065847695,0.0,1.7491975861991562e-05,0.01609400668186294,-0.3806297834354222
238,1644542203630033970,0.0,-9.62032318115,0.343232750893,acc,0.0,-1.3891462365889697e-06,,,,,0.016094125957904833,-0.3806308968623728
239,1644542203632049561,0.0392265990376,-9.64974308014,0.294199496508,acc,1.5936225894627104e-07,-1.1952169572343069e-06,,,,,0.016094125957904833,-0.3806322860086094
240,1644542203633647203,,,,gyr,1.5936225894627104e-07,-1.1952169572343069e-06,-0.00523598771542,0.0,0.0,-0.0,0.016094125957904833,-0.3806322860086094
241,1644542203634063244,0.0294199492782,-9.64974308014,0.225552946329,acc,1.1929551791166445e-07,-9.145989782095978e-07,,,,,0.016094285320163777,-0.3806334812255666
242,1644542203636076927,0.0294199492782,-9.64974308014,0.362846046686,acc,1.1929551791166445e-07,-1.4713114102368949e-06,,,,,0.01609440461568169,-0.38063439582454484
243,1644542203638090611,0.0686465501785,-9.67916297913,0.294199496508,acc,2.783564924784993e-07,-1.1929563790746171e-06,,,,,0.0160945239111996,-0.3806358671359551
244,1644542203638658524,,,,gyr,2.7832519014353153e-07,-1.19296368251985e-06,-0.0069813169539,-0.00523598771542,-0.00349065847695,2.6239215194026272e-05,0.0160945239111996,-0.3806358671359551
245,1644542203640106201,0.0392265990376,-9.67916297913,0.245166242123,acc,1.5936210081675026e-07,-9.960131225401222e-07,,,,,0.016094802236389746,-0.3806370600996376
246,1644542203642119884,0.0294199492782,-9.66935634613,0.264779537916,acc,1.1929551791166445e-07,-1.0736596385469026e-06,,,,,0.016094961598490564,-0.38063805611276014
247,1644542203643669605,,,,gyr,1.1928612769473516e-07,-1.073660681862791e-06,-0.00174532923847,-0.00174532923847,0.0,8.745986185641486e-06,0.016094961598490564,-0.38063805611276014
248,1644542203644133568,0.00980664975941,-9.67916297913,0.38245934248,acc,3.976521213223966e-08,-1.5508432807117092e-06,,,,,0.01609508088461826,-0.380639129773442
249,1644542203646147251,0.0294199492782,-9.61051654816,0.225552946329,acc,1.1929551791166445e-07,-9.145989782095978e-07,,,,,0.016095120649830392,-0.3806406806167227
250,1644542203648160934,0.0294199492782,-9.67916297913,0.225552946329,acc,1.1929551791166445e-07,-9.145989782095978e-07,,,,,0.016095239945348304,-0.3806415952157009
251,1644542203648680925,,,,gyr,1.193035173586402e-07,-9.145979347679007e-07,-0.00174532923847,0.00174532923847,0.00174532923847,-8.74640331932948e-06,0.016095239945348304,-0.3806415952157009
252,1644542203650176525,0.0294199492782,-9.70858287811,0.38245934248,acc,1.195216942097033e-07,-1.5537820322964049e-06,,,,,0.016095359248865664,-0.3806425098136357
253,1644542203652190208,0.0294199492782,-9.64974308014,0.343232750893,acc,1.1929551791166445e-07,-1.3917810800702698e-06,,,,,0.016095478770559873,-0.380644063595668
254,1644542203653692007,,,,gyr,1.1929551791166445e-07,-1.3917810800702698e-06,-0.00174532923847,0.0,0.0,-0.0,0.016095478770559873,-0.380644063595668
255,1644542203654203892,0.0294199492782,-9.70858287811,0.225552946329,acc,1.192956363965973e-07,-9.145998865940905e-07,,,,,0.016095598066077785,-0.38064545537674804
256,1644542203656217575,0.0392265990376,-9.71838951111,0.402072638273,acc,1.5906069054888596e-07,-1.6303720705741994e-06,,,,,0.016095717361714182,-0.38064636997663465
257,1644542203658231258,0.0,-9.58109664917,0.264779537916,acc,0.0,-1.0736596385469026e-06,,,,,0.01609587642240473,-0.3806480003487052
258,1644542203658703089,,,,gyr,-9.390214240581887e-12,-1.0736596385058393e-06,-0.00349065847695,-0.00174532923847,0.00174532923847,8.745987930970724e-06,0.01609587642240473,-0.3806480003487052
259,1644542203660246849,0.00980664975941,-9.67916297913,0.274586200714,acc,3.984056473660839e-08,-1.11553584289357e-06,,,,,0.016095876413014517,-0.38064907400834375
260,1644542203662260532,0.0294199492782,-9.64974308014,0.343232750893,acc,1.1929551791166445e-07,-1.3917810800702698e-06,,,,,0.016095916253579253,-0.3806501895441866
261,1644542203663714409,,,,gyr,1.192711717360965e-07,-1.391783166670756e-06,-0.00872664619237,-0.00349065847695,0.00174532923847,1.7492806638709073e-05,0.016095916253579253,-0.3806501895441866
262,1644542203664274216,0.0294199492782,-9.58109664917,0.245166242123,acc,1.192956363965973e-07,-9.941302957547106e-07,,,,,0.01609603552475099,-0.38065158132735327
263,1644542203666287899,0.0294199492782,-9.64974308014,0.264779537916,acc,1.1929551791166445e-07,-1.0736596385469026e-06,,,,,0.016096154820387388,-0.380652575457649
264,1644542203668303490,0.0784531980753,-9.66935634613,0.176519691944,acc,3.1872451789294834e-07,-7.171301501241958e-07,,,,,0.0160962741159053,-0.38065364911728755
265,1644542203668725252,,,,gyr,3.1871824616826085e-07,-7.171329375246069e-07,-0.00872664619237,-0.00174532923847,0.00174532923847,8.74557079728273e-06,0.0160962741159053,-0.38065364911728755
266,1644542203670317173,0.0294199492782,-9.57129001617,0.176519691944,acc,1.1929551791166445e-07,-7.157730923646017e-07,,,,,0.016096592834151466,-0.3806543662502251
267,1644542203672330856,0.0,-9.64974308014,0.38245934248,acc,0.0,-1.5508417404075745e-06,,,,,0.01609671212966938,-0.38065508202331744
268,1644542203673736572,,,,gyr,0.0,-1.5508417404075745e-06,-0.00872664619237,0.0,0.0,-0.0,0.01609671212966938,-0.38065508202331744
269,1644542203674344540,0.0294199492782,-9.62032318115,0.225552946329,acc,1.192956363965973e-07,-9.145998865940905e-07,,,,,0.01609671212966938,-0.38065663286505785
270,1644542203676358223,0.0294199492782,-9.67916297913,0.196132987738,acc,1.1929551791166445e-07,-7.953034225352816e-07,,,,,0.016096831425305776,-0.38065754746494446
271,1644542203678373814,0.00980664975941,-9.58109664917,0.294199496508,acc,3.984056473660839e-08,-1.1952169572343069e-06,,,,,0.016096950720823688,-0.380658342768367
272,1644542203678747892,,,,gyr,3.9830110885522556e-08,-1.1952173056502378e-06,-0.00349065847695,-0.00174532923847,0.0,8.74640331932948e-06,0.016096950720823688,-0.380658342768367
273,1644542203680387497,0.0686465501785,-9.61051654816,0.294199496508,acc,2.7835621601364845e-07,-1.1929551942252736e-06,,,,,0.016096990550934574,-0.38065953798567265
274,1644542203682401180,0.0294199492782,-9.67916297913,0.225552946329,acc,1.1929551791166445e-07,-9.145989782095978e-07,,,,,0.01609726890715059,-0.3806607309408669
275,1644542203683756828,,,,gyr,1.192875222610898e-07,-9.146000210849891e-07,-0.00349065847695,-0.00174532923847,0.0,8.742242454424967e-06,0.01609726890715059,-0.3806607309408669
276,1644542203684412956,0.0,-9.56148338318,0.0686465501785,acc,0.0,-2.7782924731738924e-07,,,,,0.01609738819467285,-0.380661645540888
277,1644542203686428547,0.00980664975941,-9.70858287811,0.490332484245,acc,3.984056473660839e-08,-1.992028221695177e-06,,,,,0.01609738819467285,-0.3806619233701353
278,1644542203688442230,0.0392265990376,-9.58109664917,0.0,acc,1.5906069054888596e-07,-0.0,,,,,0.016097428035237588,-0.38066391539835703
279,1644542203688768148,,,,gyr,1.5906069054888596e-07,0.0,-0.00523598771542,0.0,0.00174532923847,-0.0,0.016097428035237588,-0.38066391539835703
280,1644542203690455914,0.0392265990376,-9.70858287811,0.274586200714,acc,1.5906084852879645e-07,-1.1134259699139971e-06,,,,,0.016097587095928137,-0.38066391539835703
281,1644542203692469597,0.0,-9.58109664917,0.264779537916,acc,0.0,-1.0736596385469026e-06,,,,,0.016097746156776664,-0.38066502882432696
282,1644542203693778992,,,,gyr,0.0,-1.0736596385469026e-06,-0.00174532923847,0.0,0.00349065847695,-0.0,0.016097746156776664,-0.38066502882432696
283,1644542203694482803,0.0,-9.58109664917,0.196132987738,acc,0.0,-7.949266851825816e-07,,,,,0.016097746156776664,-0.3806661024839655
284,1644542203696498871,0.0294199492782,-9.66935634613,0.245166242123,acc,1.195782717536712e-07,-9.964855903791048e-07,,,,,0.016097746156776664,-0.3806668974106507
285,1644542203698512554,0.0,-9.57129001617,0.225552946329,acc,0.0,-9.145989782095978e-07,,,,,0.016097865735048417,-0.38066789389624106
286,1644542203698790312,,,,gyr,0.0,-9.145989782095978e-07,-0.00523598771542,0.0,0.0,-0.0,0.016097865735048417,-0.38066789389624106
287,1644542203700523853,-0.0294199492782,-9.62032318115,0.38245934248,acc,-1.190132171088394e-07,-1.5471718299529686e-06,,,,,0.016097865735048417,-0.3806688084952193
288,1644542203702537537,0.0,-9.61051654816,0.12748645246,acc,0.0,-5.169477803766885e-07,,,,,0.01609774672183131,-0.3806703556670492
289,1644542203703801632,,,,gyr,-4.521433782149028e-12,-5.169477803569154e-07,-0.00349065847695,-0.00174532923847,0.0,8.74640331932948e-06,0.01609774672183131,-0.3806703556670492
290,1644542203704553127,0.00980664975941,-9.61051654816,0.196132987738,acc,3.9840525204228197e-08,-7.968104738173585e-07,,,,,0.016097746717309874,-0.38067087261482957
291,1644542203706566811,-0.0392265990376,-9.58109664917,0.245166242123,acc,-1.5906084852879645e-07,-9.941302957547106e-07,,,,,0.01609778655783508,-0.3806716694253034
292,1644542203708580494,-0.0294199492782,-9.66935634613,0.294199496508,acc,-1.1929551791166445e-07,-1.1929551942252736e-06,,,,,0.016097627496986552,-0.38067266355559914
293,1644542203708812475,,,,gyr,-1.19316384041633e-07,-1.192953107427992e-06,-0.0069813169539,-0.00349065847695,0.0,1.749114159461557e-05,0.016097627496986552,-0.38067266355559914
294,1644542203710594177,0.00980664975941,-9.61051654816,0.00980664975941,acc,3.9765172637262036e-08,-3.9765172637262036e-08,,,,,0.016097508180602512,-0.38067385650870655
295,1644542203712607861,-0.0294199492782,-9.66935634613,0.343232750893,acc,-1.192956363965973e-07,-1.3917824623945239e-06,,,,,0.01609754794577515,-0.3806738962738792
296,1644542203713823795,,,,gyr,-1.1933215562777252e-07,-1.3917793316921553e-06,0.0,-0.00523598771542,0.0,2.6239209958038555e-05,0.01609754794577515,-0.3806738962738792
297,1644542203714621544,0.0,-9.67916297913,0.362846046686,acc,0.0,-1.4713114102368949e-06,,,,,0.01609742861361952,-0.3806752880532109
298,1644542203716637135,0.0294199492782,-9.64974308014,0.137293100357,acc,1.195216942097033e-07,-5.57767921446785e-07,,,,,0.01609742861361952,-0.38067675936462114
299,1644542203718648911,0.0294199492782,-9.67916297913,0.196132987738,acc,1.1906967419082443e-07,-7.937977977868717e-07,,,,,0.01609754813531373,-0.3806773171325426
300,1644542203718834877,,,,gyr,1.1906273164031148e-07,-7.937988391384453e-07,0.00174532923847,-0.00174532923847,0.0,8.745987930970724e-06,0.01609754813531373,-0.3806773171325426
301,1644542203720662594,-0.0294199492782,-9.66935634613,0.362846046686,acc,-1.1929551791166445e-07,-1.4713114102368949e-06,,,,,0.016097667198045368,-0.38067811093138176
302,1644542203722676277,-0.00980664975941,-9.67916297913,0.245166242123,acc,-3.9765172637262036e-08,-9.941293083802777e-07,,,,,0.016097547902527456,-0.380679582242792
303,1644542203723845959,,,,gyr,-3.9773867278673975e-08,-9.941289605565362e-07,0.00349065847695,-0.00174532923847,0.00174532923847,8.745987930970724e-06,0.016097547902527456,-0.380679582242792
304,1644542203724691868,0.0392265990376,-9.70858287811,0.176519691944,acc,1.5936225894627104e-07,-7.171301501241958e-07,,,,,0.016097508128660176,-0.38068057637175257
305,1644542203726703644,-0.00980664975941,-9.64974308014,0.294199496508,acc,-3.968989139698195e-08,-1.1906967569882706e-06,,,,,0.01609766749091912,-0.3806812935019027
306,1644542203728719234,0.00980664975941,-9.64974308014,0.38245934248,acc,3.9840525204228197e-08,-1.5537804905335698e-06,,,,,0.016097627801027723,-0.3806824841986597
307,1644542203728857279,,,,gyr,3.9826935211864565e-08,-1.5537808389354401e-06,0.00523598771542,-0.00174532923847,0.0,8.74640331932948e-06,0.016097627801027723,-0.3806824841986597
308,1644542203730732918,0.0392265990376,-9.62032318115,0.245166242123,acc,1.5906084852879645e-07,-9.941302957547106e-07,,,,,0.016097667627962935,-0.3806840379794986
309,1644542203732746601,0.0294199492782,-9.64974308014,0.264779537916,acc,1.1929551791166445e-07,-1.0736596385469026e-06,,,,,0.016097826688811462,-0.3806850321097944
310,1644542203733868361,,,,gyr,1.1929551791166445e-07,-1.0736596385469026e-06,0.0069813169539,0.0,-0.00174532923847,-0.0,0.016097826688811462,-0.3806850321097944
311,1644542203734760284,0.0294199492782,-9.64974308014,0.313812792301,acc,1.1929551791166445e-07,-1.2724855243918985e-06,,,,,0.016097945984329374,-0.3806861057694329
312,1644542203736775875,0.0686465501785,-9.71838951111,0.343232750893,acc,2.788839607233925e-07,-1.3944198036189938e-06,,,,,0.016098065279847286,-0.3806873782549573
313,1644542203738789558,0.0784531980753,-9.70858287811,0.264779537916,acc,3.1812138109817744e-07,-1.0736596385469026e-06,,,,,0.01609834416380801,-0.3806887726747609
314,1644542203738879442,,,,gyr,3.181026006247771e-07,-1.073665202953058e-06,0.00349065847695,-0.00349065847695,0.00349065847695,1.7491972371333082e-05,0.01609834416380801,-0.3806887726747609
315,1644542203740803242,0.0392265990376,-9.66935634613,0.402072638273,acc,1.5906084852879645e-07,-1.6303736898682743e-06,,,,,0.016098662266408634,-0.3806898463399639
316,1644542203742816687,0.0294199492782,-9.66935634613,0.343232750893,acc,1.192673201711082e-07,-1.3914521064215196e-06,,,,,0.01609882132725716,-0.3806914767136538
317,1644542203743890524,,,,gyr,1.1925515054321756e-07,-1.3914531494788446e-06,0.00523598771542,-0.00174532923847,0.00174532923847,8.745987930970724e-06,0.01609882132725716,-0.3806914767136538
318,1644542203744830370,0.0980664938688,-9.7478094101,0.274586200714,acc,3.9765171126682975e-07,-1.1134248640545938e-06,,,,,0.016098940582407704,-0.38069286816680326
319,1644542203746844053,0.0686465501785,-9.66935634613,0.196132987738,acc,2.7835621601364845e-07,-7.953034225352816e-07,,,,,0.016099338234118972,-0.3806939815916673
320,1644542203748857737,0.0294199492782,-9.71838951111,0.509945809841,acc,1.192956363965973e-07,-2.067791121510809e-06,,,,,0.016099616590334986,-0.38069477689508985
321,1644542203748901606,,,,gyr,1.192956363965973e-07,-2.067791121510809e-06,0.00174532923847,0.0,0.0,-0.0,0.016099616590334986,-0.38069477689508985
322,1644542203750871420,0.0392265990376,-9.58109664917,0.264779537916,acc,1.5906069054888596e-07,-1.0736596385469026e-06,,,,,0.016099735885971383,-0.38069684468621134
323,1644542203752885103,0.0686465501785,-9.66935634613,0.343232750893,acc,2.7835621601364845e-07,-1.3917810800702698e-06,,,,,0.016099894946661933,-0.3806979183458499
324,1644542203753912926,,,,gyr,2.783318698137443e-07,-1.3917859490887916e-06,0.0069813169539,-0.00349065847695,0.0,1.7492806638709073e-05,0.016099894946661933,-0.3806979183458499
325,1644542203754898787,0.0294199492782,-9.64974308014,0.264779537916,acc,1.192956363965973e-07,-1.0736607049112757e-06,,,,,0.016100173278531745,-0.380699310131799
326,1644542203756912470,0.0392265990376,-9.66935634613,0.362846046686,acc,1.5906069054888596e-07,-1.4713114102368949e-06,,,,,0.016100292574168142,-0.38070038379250387
327,1644542203758922100,,,,gyr,1.5906069054888596e-07,-1.4713114102368949e-06,0.00349065847695,0.0,0.0,-0.0,0.016100292574168142,-0.38070038379250387
328,1644542203758925915,0.0392265990376,-9.66935634613,0.294199496508,acc,1.590230935614776e-07,-1.1926732168161398e-06,,,,,0.01610045163485869,-0.38070185510391413
329,1644542203760939598,0.0392265990376,-9.66935634613,0.264779537916,acc,1.5906069054888596e-07,-1.0736596385469026e-06,,,,,0.016100610657952253,-0.38070304777713093
330,1644542203762953281,0.0294199492782,-9.62032318115,0.38245934248,acc,1.1929551791166445e-07,-1.5508417404075745e-06,,,,,0.016100769718642802,-0.38070412143676946
331,1644542203763933182,,,,gyr,1.1926839060712647e-07,-1.550843826884639e-06,0.00523598771542,-0.00349065847695,0.0,1.7491975861991562e-05,0.016100769718642802,-0.38070412143676946
332,1644542203764966965,0.0392265990376,-9.66935634613,0.343232750893,acc,1.5906084852879645e-07,-1.3917824623945239e-06,,,,,0.01610088898703341,-0.3807056722805963
333,1644542203766980648,0.0392265990376,-9.66935634613,0.264779537916,acc,1.5906069054888596e-07,-1.0736596385469026e-06,,,,,0.016101048047881938,-0.3807070640630587
334,1644542203768944263,,,,gyr,1.5906069054888596e-07,-1.0736596385469026e-06,0.00872664619237,0.0,-0.00349065847695,-0.0,0.016101048047881938,-0.3807070640630587
335,1644542203768994331,0.0686465501785,-9.64974308014,0.294199496508,acc,2.7835621601364845e-07,-1.1929551942252736e-06,,,,,0.016101207108572487,-0.38070813772269724
336,1644542203771009922,0.0294199492782,-9.61051654816,0.225552946329,acc,1.195216942097033e-07,-9.163329965088831e-07,,,,,0.0161014854647885,-0.3807093306778915
337,1644542203773023605,0.0294199492782,-9.66935634613,0.274586200714,acc,1.1929551791166445e-07,-1.1134248640545938e-06,,,,,0.01610160498648271,-0.38071024701088796
338,1644542203773955345,,,,gyr,1.192857799066789e-07,-1.1134259073691694e-06,0.0,-0.00174532923847,0.0,8.745987930970724e-06,0.01610160498648271,-0.38071024701088796
339,1644542203775037050,0.0686465501785,-9.58109664917,0.225552946329,acc,2.7829042128389853e-07,-9.143827955302144e-07,,,,,0.016101724272262617,-0.3807113604367953
340,1644542203777050734,0.0980664938688,-9.61051654816,0.225552946329,acc,3.9765210621659096e-07,-9.145998865940905e-07,,,,,0.0161020025626839,-0.38071227481959086
341,1644542203778966665,,,,gyr,3.976281077012508e-07,-9.146103203563453e-07,0.0069813169539,-0.00523598771542,-0.00523598771542,2.6239209958038555e-05,0.0161020025626839,-0.38071227481959086
342,1644542203779064417,0.0294199492782,-9.64974308014,0.176519691944,acc,1.1929551791166445e-07,-7.157730923646017e-07,,,,,0.0161024001907916,-0.3807131894299112
343,1644542203781078100,0.0686465501785,-9.62032318115,0.176519691944,acc,2.7835621601364845e-07,-7.157730923646017e-07,,,,,0.016102519486309513,-0.3807139052030036
344,1644542203783091784,0.0784531980753,-9.58109664917,0.166713044047,acc,3.1812169705799836e-07,-6.760085986938737e-07,,,,,0.016102797842525527,-0.38071462097609593
345,1644542203783977747,,,,gyr,3.181157846827861e-07,-6.760113809565421e-07,0.0104719754308,-0.00174532923847,-0.00349065847695,8.745987930970724e-06,0.016102797842525527,-0.38071462097609593
346,1644542203785105467,0.0294199492782,-9.61051654816,0.264779537916,acc,1.1929551791166445e-07,-1.0736596385469026e-06,,,,,0.01610311595831021,-0.38071529698747686
347,1644542203787119150,0.0294199492782,-9.66935634613,0.264779537916,acc,1.1929551791166445e-07,-1.0736596385469026e-06,,,,,0.016103235253828122,-0.3807163706471154
348,1644542203788988829,,,,gyr,1.192673472278822e-07,-1.073662768248812e-06,0.0209439508617,-0.00523598771542,-0.0104719754308,2.6237963792962285e-05,0.016103235253828122,-0.3807163706471154
349,1644542203789132833,0.0294199492782,-9.62032318115,0.294199496508,acc,1.1929551791166445e-07,-1.1929551942252736e-06,,,,,0.01610335452117535,-0.38071744430988363
350,1644542203791146517,0.00980664975941,-9.61051654816,0.313812792301,acc,3.976521213223966e-08,-1.2724867882311824e-06,,,,,0.01610347381669326,-0.3807186372650779
351,1644542203793160200,0.00980664975941,-9.62032318115,0.274586200714,acc,3.9765172637262036e-08,-1.1134248640545938e-06,,,,,0.016103513581905395,-0.3807199097518661
352,1644542203793999910,,,,gyr,3.9745696634219975e-08,-1.1134255594555581e-06,0.0209439508617,-0.00349065847695,-0.00523598771542,1.7491972371333082e-05,0.016103513581905395,-0.3807199097518661
353,1644542203795173883,-0.00980664975941,-9.64974308014,0.225552946329,acc,-3.9765172637262036e-08,-9.145989782095978e-07,,,,,0.01610355332760203,-0.38072102317742557
354,1644542203797187567,0.00980664975941,-9.64974308014,0.225552946329,acc,3.976521213223966e-08,-9.145998865940905e-07,,,,,0.01610351356242939,-0.3807219377764038
355,1644542203799010992,,,,gyr,3.975721305114907e-08,-9.14600234345176e-07,0.0191986225545,-0.00174532923847,-0.00523598771542,8.745987930970724e-06,0.01610351356242939,-0.3807219377764038
356,1644542203799203157,0.0294199492782,-9.62032318115,0.196132987738,acc,1.1952157561256268e-07,-7.968104738173585e-07,,,,,0.01610355331964244,-0.3807228523766381
357,1644542203801216841,0.00980664975941,-9.61051654816,0.12748645246,acc,3.976521213223966e-08,-5.169477803766885e-07,,,,,0.016103672841218053,-0.38072364918711193
358,1644542203803228378,0.0686465501785,-9.58109664917,-0.0294199492782,acc,2.777632387300898e-07,1.1904138479703515e-07,,,,,0.016103712606430187,-0.3807241661348923
359,1644542203804022312,,,,gyr,2.777653210555184e-07,1.1903652592019572e-07,0.0209439508617,-0.00349065847695,-0.00523598771542,1.7492806638709073e-05,0.016103712606430187,-0.3807241661348923
360,1644542203805242062,-0.00980664975941,-9.64974308014,-0.264779537916,acc,-3.976521213223966e-08,1.0736607049112757e-06,,,,,0.016103990371751243,-0.3807240470983664
361,1644542203807257652,-0.0784531980753,-9.57129001617,1.05911815166,acc,-3.187242016339068e-07,-4.302776631231953e-06,,,,,0.01610395060653911,-0.3807229734376615
362,1644542203809033394,,,,gyr,-3.1894999338988213e-07,-4.302759899959509e-06,0.0593411922455,-0.0104719754308,0.00174532923847,5.247592758572412e-05,0.01610395060653911,-0.3807229734376615
363,1644542203809271336,-0.196132987738,-9.53206348419,2.33398270607,acc,-7.953042124348039e-07,-9.464120744273032e-06,,,,,0.01610363165654572,-0.3807272761975614
364,1644542203811285019,0.176519691944,-10.2675619125,1.12776470184,acc,7.157730923646017e-07,-4.572994770191122e-06,,,,,0.016102836352333286,-0.3807367403183057
