,field.header.stamp,field.linear_acceleration.x,field.linear_acceleration.y,field.linear_acceleration.z,type,field.angular_velocity.x,field.angular_velocity.y,field.angular_velocity.z
0,1644542405353564262,0.549172401428,-9.5222568512,0.00980664975941,acc,,,
1,1644542405355000019,,,,gyr,-0.0069813169539,-0.0506145469844,0.00349065847695
2,1644542405355579853,0.57859236002,-9.62032318115,0.0392265990376,acc,,,
3,1644542405357593536,0.558979034424,-9.62032318115,0.176519691944,acc,,,
4,1644542405359606981,0.558979034424,-9.66935634613,0.274586200714,acc,,,
5,1644542405360011101,,,,gyr,0.0104719754308,-0.0645771846175,-0.00872664619237
6,1644542405361620665,0.558979034424,-9.64974308014,0.264779537916,acc,,,
7,1644542405363636255,0.598205626011,-9.66935634613,0.264779537916,acc,,,
8,1644542405365019798,,,,gyr,0.0261799395084,-0.0558505356312,-0.0174532923847
9,1644542405365649700,0.627625584602,-9.61051654816,0.264779537916,acc,,,
10,1644542405367663383,0.686465501785,-9.70858287811,0.274586200714,acc,,,
11,1644542405369677067,0.627625584602,-9.66935634613,0.245166242123,acc,,,
12,1644542405370030880,,,,gyr,0.0209439508617,-0.0349065847695,-0.0139626339078
13,1644542405371692419,0.627625584602,-9.64974308014,0.294199496508,acc,,,
14,1644542405373706102,0.598205626011,-9.70858287811,0.245166242123,acc,,,
15,1644542405375041723,,,,gyr,0.0104719754308,-0.0296705961227,-0.00349065847695
16,1644542405375719786,0.627625584602,-9.67916297913,0.196132987738,acc,,,
17,1644542405377735138,0.627625584602,-9.62032318115,0.264779537916,acc,,,
18,1644542405379749060,0.558979034424,-9.61051654816,0.225552946329,acc,,,
19,1644542405380053043,,,,gyr,0.0,-0.0191986225545,-0.00349065847695
20,1644542405381762743,0.529559075832,-9.58109664917,0.225552946329,acc,,,
21,1644542405383776665,0.558979034424,-9.53206348419,0.176519691944,acc,,,
22,1644542405385064363,,,,gyr,0.0,-0.0191986225545,0.0
23,1644542405390075922,,,,gyr,0.00349065847695,-0.0139626339078,-0.00349065847695
24,1644542405395087719,,,,gyr,0.00523598771542,-0.0104719754308,-0.00349065847695
25,1644542405400096416,,,,gyr,0.00872664619237,-0.00174532923847,-0.00523598771542
26,1644542405405104399,,,,gyr,0.0104719754308,-0.00174532923847,-0.00523598771542
27,1644542405410112858,,,,gyr,0.0139626339078,0.0,-0.0069813169539
28,1644542405415121078,,,,gyr,0.0209439508617,-0.00174532923847,-0.0104719754308
29,1644542405420129299,,,,gyr,0.0279252678156,0.0,-0.0139626339078
30,1644542405425137758,,,,gyr,0.0279252678156,0.0,-0.0139626339078
31,1644542405430143833,,,,gyr,0.0139626339078,0.0,-0.00872664619237
32,1644542406082256079,0.598205626011,-9.62032318115,0.176519691944,acc,,,
33,1644542406084268570,0.627625584602,-9.64974308014,0.176519691944,acc,,,
34,1644542406086179018,,,,gyr,-0.0104719754308,-0.00349065847695,0.00872664619237
35,1644542406086280823,0.558979034424,-9.58109664917,0.294199496508,acc,,,
36,1644542406088293314,0.627625584602,-9.66935634613,0.225552946329,acc,,,
37,1644542406090305328,0.57859236002,-9.62032318115,0.176519691944,acc,,,
38,1644542406091186762,,,,gyr,-0.0104719754308,-0.00174532923847,0.0069813169539
39,1644542406092319727,0.598205626011,-9.61051654816,0.176519691944,acc,,,
40,1644542406094331980,0.529559075832,-9.62032318115,0.137293100357,acc,,,
41,1644542406096194506,,,,gyr,-0.0104719754308,0.0,0.0069813169539
42,1644542406096344471,0.598205626011,-9.58109664917,0.196132987738,acc,,,
43,1644542406098356724,0.57859236002,-9.61051654816,0.225552946329,acc,,,
44,1644542406100369215,0.57859236002,-9.58109664917,0.225552946329,acc,,,
45,1644542406101202488,,,,gyr,-0.00349065847695,-0.00349065847695,0.0
46,1644542406102383375,0.57859236002,-9.66935634613,0.225552946329,acc,,,
47,1644542406104395866,0.57859236002,-9.62032318115,0.264779537916,acc,,,
48,1644542406106210232,,,,gyr,0.0,-0.00349065847695,0.0
49,1644542406106407881,0.627625584602,-9.64974308014,0.264779537916,acc,,,
50,1644542406108420372,0.57859236002,-9.64974308014,0.264779537916,acc,,,
51,1644542406110434532,0.558979034424,-9.62032318115,0.274586200714,acc,,,
52,1644542406111217976,,,,gyr,-0.00349065847695,0.0,0.0069813169539
53,1644542406112447023,0.529559075832,-9.62032318115,0.245166242123,acc,,,
54,1644542406114459276,0.549172401428,-9.62032318115,0.196132987738,acc,,,
55,1644542406116223812,,,,gyr,-0.00523598771542,-0.00349065847695,0.00349065847695
56,1644542406116471767,0.558979034424,-9.62032318115,0.225552946329,acc,,,
57,1644542406118485928,0.57859236002,-9.62032318115,0.264779537916,acc,,,
58,1644542406120498180,0.549172401428,-9.61051654816,0.225552946329,acc,,,
59,1644542406121231794,,,,gyr,-0.00872664619237,-0.00349065847695,0.00174532923847
60,1644542406122510433,0.57859236002,-9.61051654816,0.225552946329,acc,,,
61,1644542406124522924,0.558979034424,-9.61051654816,0.264779537916,acc,,,
62,1644542406126239538,,,,gyr,0.0,0.0,0.0
63,1644542406126537085,0.558979034424,-9.62032318115,0.264779537916,acc,,,
64,1644542406128549576,0.558979034424,-9.58109664917,0.245166242123,acc,,,
65,1644542406130561829,0.558979034424,-9.58109664917,0.196132987738,acc,,,
66,1644542406131247282,,,,gyr,0.0,0.0,-0.00174532923847
67,1644542406132574081,0.627625584602,-9.67916297913,0.274586200714,acc,,,
68,1644542406134586334,0.627625584602,-9.66935634613,0.294199496508,acc,,,
69,1644542406136254787,,,,gyr,0.00174532923847,0.0,-0.00523598771542
70,1644542406136598587,0.627625584602,-9.64974308014,0.245166242123,acc,,,
71,1644542406138611078,0.627625584602,-9.64974308014,0.274586200714,acc,,,
72,1644542406140623331,0.764918684959,-9.81645679474,0.402072638273,acc,,,
73,1644542406141262770,,,,gyr,-0.0104719754308,-0.00523598771542,0.0069813169539
74,1644542406142637730,0.872791826725,-9.88510322571,0.529559075832,acc,,,
75,1644542406144649982,0.813951909542,-9.81645679474,0.549172401428,acc,,,
76,1644542406146270514,,,,gyr,-0.0506145469844,-0.0139626339078,0.0279252678156
77,1644542406146662235,0.804145276546,-9.80665016174,0.509945809841,acc,,,
78,1644542406148674488,0.686465501785,-9.71838951111,0.313812792301,acc,,,
79,1644542406150686741,0.637432217598,-9.67916297913,0.245166242123,acc,,,
80,1644542406151278257,,,,gyr,-0.127409040928,-0.0349065847695,0.069813169539
81,1644542406152699232,0.549172401428,-9.64974308014,0.137293100357,acc,,,
82,1644542406154711485,0.529559075832,-9.57129001617,0.0392265990376,acc,,,
83,1644542406156286240,,,,gyr,-0.167551606894,-0.0471238903701,0.0942477807403
84,1644542406156725883,0.529559075832,-9.61051654816,0.0392265990376,acc,,,
85,1644542406158738136,0.470719188452,-9.61051654816,0.0392265990376,acc,,,
86,1644542406160748243,0.470719188452,-9.53206348419,0.0,acc,,,
87,1644542406161293983,,,,gyr,-0.157079637051,-0.0471238903701,0.0925024524331
88,1644542406162760735,0.470719188452,-9.53206348419,-0.00980664975941,acc,,,
89,1644542406164772987,0.451105892658,-9.53206348419,-0.00980664975941,acc,,,
90,1644542406166301727,,,,gyr,-0.127409040928,-0.0349065847695,0.069813169539
91,1644542406166787386,0.421685934067,-9.57129001617,-0.00980664975941,acc,,,
92,1644542406168799639,0.402072638273,-9.5222568512,-0.0294199492782,acc,,,
93,1644542406170812130,0.529559075832,-9.56148338318,0.0,acc,,,
94,1644542406171309471,,,,gyr,-0.0785398185253,-0.0191986225545,0.0471238903701
95,1644542406172826290,0.558979034424,-9.62032318115,0.0686465501785,acc,,,
96,1644542406174838543,0.627625584602,-9.66935634613,0.137293100357,acc,,,
97,1644542406176317453,,,,gyr,-0.0436332300305,-0.0104719754308,0.0209439508617
98,1644542406176850796,0.57859236002,-9.61051654816,0.196132987738,acc,,,
99,1644542406178863049,0.558979034424,-9.64974308014,0.176519691944,acc,,,
100,1644542406180875540,0.627625584602,-9.62032318115,0.176519691944,acc,,,
101,1644542406181323051,,,,gyr,-0.0383972451091,-0.00523598771542,0.0191986225545
102,1644542406182889700,0.57859236002,-9.64974308014,0.166713044047,acc,,,
103,1644542406184902191,0.637432217598,-9.62032318115,0.176519691944,acc,,,
104,1644542406186330795,,,,gyr,-0.0436332300305,-0.0104719754308,0.0209439508617
105,1644542406186914206,0.57859236002,-9.67916297913,0.176519691944,acc,,,
106,1644542406188926458,0.627625584602,-9.70858287811,0.196132987738,acc,,,
107,1644542406190938950,0.549172401428,-9.62032318115,0.137293100357,acc,,,
108,1644542406191338539,,,,gyr,-0.0523598790169,-0.0104719754308,0.0296705961227
109,1644542406192953110,0.529559075832,-9.61051654816,0.0980664938688,acc,,,
110,1644542406194965601,0.529559075832,-9.62032318115,0.0784531980753,acc,,,
111,1644542406196346521,,,,gyr,-0.0558505356312,-0.0139626339078,0.0296705961227
112,1644542406196977854,0.549172401428,-9.64974308014,0.0686465501785,acc,,,
113,1644542406198990107,0.627625584602,-9.62032318115,0.12748645246,acc,,,
114,1644542406201004505,0.57859236002,-9.66935634613,0.166713044047,acc,,,
115,1644542406201354027,,,,gyr,-0.0506145469844,-0.0104719754308,0.0296705961227
116,1644542406203016520,0.637432217598,-9.64974308014,0.176519691944,acc,,,
117,1644542406205029011,0.666852176189,-9.66935634613,0.196132987738,acc,,,
118,1644542406206361771,,,,gyr,-0.0523598790169,-0.0104719754308,0.0296705961227
119,1644542406207041264,0.666852176189,-9.7478094101,0.196132987738,acc,,,
120,1644542406209053516,0.686465501785,-9.67916297913,0.245166242123,acc,,,
121,1644542406211067915,0.666852176189,-9.67916297913,0.176519691944,acc,,,
122,1644542406211369514,,,,gyr,-0.0785398185253,-0.0191986225545,0.0471238903701
123,1644542406213080168,0.598205626011,-9.62032318115,0.166713044047,acc,,,
124,1644542406215092421,0.558979034424,-9.61051654816,0.166713044047,acc,,,
125,1644542406216377497,,,,gyr,-0.0977384373546,-0.0296705961227,0.0610865242779
126,1644542406217104673,0.558979034424,-9.61051654816,0.12748645246,acc,,,
127,1644542406219115019,0.402072638273,-9.53206348419,-0.00980664975941,acc,,,
128,1644542406221129417,0.451105892658,-9.5222568512,-0.00980664975941,acc,,,
129,1644542406221385002,,,,gyr,-0.104719758034,-0.0314159244299,0.0610865242779
130,1644542406223141670,0.451105892658,-9.53206348419,-0.0686465501785,acc,,,
131,1644542406225153923,0.470719188452,-9.57129001617,-0.0294199492782,acc,,,
132,1644542406226392746,,,,gyr,-0.0750491544604,-0.0209439508617,0.0471238903701
133,1644542406227168322,0.529559075832,-9.58109664917,0.0392265990376,acc,,,
134,1644542406229180336,0.549172401428,-9.61051654816,0.0392265990376,acc,,,
135,1644542406231192827,0.627625584602,-9.64974308014,0.0980664938688,acc,,,
136,1644542406231400728,,,,gyr,-0.0436332300305,-0.0104719754308,0.0261799395084
137,1644542406233206987,0.637432217598,-9.67916297913,0.166713044047,acc,,,
138,1644542406235219240,0.813951909542,-9.75761604309,0.343232750893,acc,,,
139,1644542406236408234,,,,gyr,-0.0383972451091,-0.00523598771542,0.0226892791688
140,1644542406237231731,1.04931151867,-10.0125894547,0.813951909542,acc,,,
141,1644542406239243984,1.17679798603,-9.8949098587,0.686465501785,acc,,,
142,1644542406241255999,0.666852176189,-9.7478094101,0.274586200714,acc,,,
143,1644542406241415977,,,,gyr,-0.0855211317539,-0.00349065847695,0.0785398185253
144,1644542406243268490,0.362846046686,-9.57129001617,0.00980664975941,acc,,,
145,1644542406245282650,0.343232750893,-9.56148338318,0.0980664938688,acc,,,
146,1644542406246423721,,,,gyr,-0.179768905044,-0.0139626339078,0.171042263508
147,1644542406247294903,0.57859236002,-9.62032318115,0.166713044047,acc,,,
148,1644542406249307394,0.686465501785,-9.66935634613,0.245166242123,acc,,,
149,1644542406251319647,0.598205626011,-9.64974308014,0.264779537916,acc,,,
150,1644542406251429558,,,,gyr,-0.183259576559,0.0,0.176278248429
151,1644542406253331900,0.421685934067,-9.56148338318,0.0784531980753,acc,,,
152,1644542406255344152,0.313812792301,-9.48303031921,-0.0392265990376,acc,,,
153,1644542406256437302,,,,gyr,-0.188495561481,0.0261799395084,0.205948844552
154,1644542406257356405,0.245166242123,-9.49283695221,-0.0294199492782,acc,,,
155,1644542406259368658,0.274586200714,-9.53206348419,-0.12748645246,acc,,,
156,1644542406261383057,0.264779537916,-9.56148338318,-0.0686465501785,acc,,,
157,1644542406261445045,,,,gyr,-0.158824965358,0.0593411922455,0.197222203016
158,1644542406263395309,0.343232750893,-9.53206348419,-0.0294199492782,acc,,,
159,1644542406265407562,0.294199496508,-9.56148338318,0.0,acc,,,
160,1644542406266452551,,,,gyr,-0.104719758034,0.0715584978461,0.150098308921
161,1644542406267421961,0.274586200714,-9.56148338318,0.00980664975941,acc,,,
162,1644542406269432068,0.313812792301,-9.5222568512,0.0,acc,,,
163,1644542406271446228,0.313812792301,-9.57129001617,0.0,acc,,,
164,1644542406271460533,,,,gyr,-0.0767944902182,0.0785398185253,0.0977384373546
165,1644542406273458719,0.402072638273,-9.64974308014,-0.0294199492782,acc,,,
166,1644542406275472879,0.421685934067,-9.62032318115,0.0392265990376,acc,,,
167,1644542406276468039,,,,gyr,-0.0558505356312,0.0855211317539,0.0593411922455
168,1644542406277485132,0.421685934067,-9.62032318115,0.0392265990376,acc,,,
169,1644542406279497623,0.362846046686,-9.66935634613,0.12748645246,acc,,,
170,1644542406281475782,,,,gyr,-0.0471238903701,0.0802851468325,0.0349065847695
171,1644542406281509876,0.343232750893,-9.56148338318,0.0,acc,,,
172,1644542406283521891,0.637432217598,-9.66935634613,0.137293100357,acc,,,
173,1644542406285534382,0.57859236002,-9.67916297913,0.166713044047,acc,,,
174,1644542406286483288,,,,gyr,-0.0436332300305,0.069813169539,0.0104719754308
175,1644542406287548542,0.509945809841,-9.62032318115,0.0784531980753,acc,,,
176,1644542406289560795,0.637432217598,-9.67916297913,0.0784531980753,acc,,,
177,1644542406291491270,,,,gyr,-0.0471238903701,0.0645771846175,0.0174532923847
178,1644542406291573286,0.627625584602,-9.67916297913,0.0294199492782,acc,,,
179,1644542406293585539,0.725692093372,-9.67916297913,0.0980664938688,acc,,,
180,1644542406295597553,0.637432217598,-9.71838951111,0.12748645246,acc,,,
181,1644542406296498775,,,,gyr,-0.0558505356312,0.0506145469844,0.0383972451091
182,1644542406297609806,0.686465501785,-9.66935634613,0.00980664975941,acc,,,
183,1644542406299622297,0.529559075832,-9.64974308014,0.0392265990376,acc,,,
184,1644542406301506519,,,,gyr,-0.0750491544604,0.0209439508617,0.0610865242779
185,1644542406301634550,0.402072638273,-9.56148338318,-0.0294199492782,acc,,,
186,1644542406303646803,0.402072638273,-9.56148338318,-0.0784531980753,acc,,,
187,1644542406305658817,0.451105892658,-9.58109664917,-0.0392265990376,acc,,,
188,1644542406306514502,,,,gyr,-0.0750491544604,0.00523598771542,0.0715584978461
189,1644542406307671309,0.38245934248,-9.57129001617,-0.0392265990376,acc,,,
190,1644542406309683561,0.294199496508,-9.56148338318,-0.0980664938688,acc,,,
191,1644542406311522007,,,,gyr,-0.0558505356312,0.0,0.0523598790169
192,1644542406311697721,0.274586200714,-9.56148338318,-0.0980664938688,acc,,,
193,1644542406313710213,0.402072638273,-9.57129001617,0.0,acc,,,
194,1644542406315722466,0.38245934248,-9.58109664917,-0.00980664975941,acc,,,
195,1644542406316527605,,,,gyr,-0.0279252678156,0.0104719754308,0.0191986225545
196,1644542406317736626,0.38245934248,-9.62032318115,0.00980664975941,acc,,,
197,1644542406319748878,0.421685934067,-9.58109664917,0.0686465501785,acc,,,
198,1644542406321535349,,,,gyr,-0.0069813169539,0.0209439508617,-0.00523598771542
199,1644542406321761131,0.38245934248,-9.61051654816,0.0,acc,,,
200,1644542406323773384,0.421685934067,-9.58109664917,-0.00980664975941,acc,,,
201,1644542406325787544,0.509945809841,-9.61051654816,0.0,acc,,,
202,1644542406326542854,,,,gyr,0.00174532923847,0.0349065847695,-0.0296705961227
203,1644542406327801943,0.470719188452,-9.64974308014,0.0294199492782,acc,,,
204,1644542406329814196,0.421685934067,-9.61051654816,0.0784531980753,acc,,,
205,1644542406331550837,,,,gyr,0.00349065847695,0.0383972451091,-0.0471238903701
206,1644542406331826448,0.490332484245,-9.66935634613,0.0686465501785,acc,,,
207,1644542406333838701,0.451105892658,-9.66935634613,0.0980664938688,acc,,,
208,1644542406335853100,0.509945809841,-9.70858287811,0.12748645246,acc,,,
209,1644542406336558342,,,,gyr,-0.00523598771542,0.0279252678156,-0.0523598790169
210,1644542406337865353,0.598205626011,-9.64974308014,0.0686465501785,acc,,,
211,1644542406339877367,0.549172401428,-9.66935634613,0.12748645246,acc,,,
212,1644542406341565847,,,,gyr,-0.0191986225545,0.0226892791688,-0.0436332300305
213,1644542406341889620,0.627625584602,-9.62032318115,0.0294199492782,acc,,,
214,1644542406343902111,0.529559075832,-9.66935634613,0.00980664975941,acc,,,
215,1644542406345914364,0.470719188452,-9.56148338318,-0.00980664975941,acc,,,
216,1644542406346573830,,,,gyr,-0.0279252678156,0.0174532923847,-0.0279252678156
217,1644542406347926617,0.549172401428,-9.57129001617,-0.0686465501785,acc,,,
218,1644542406349938631,0.509945809841,-9.62032318115,-0.0294199492782,acc,,,
219,1644542406351581335,,,,gyr,-0.0226892791688,0.00872664619237,-0.0139626339078
220,1644542406351950884,0.529559075832,-9.58109664917,-0.0294199492782,acc,,,
221,1644542406353965282,0.549172401428,-9.64974308014,-0.00980664975941,acc,,,
222,1644542406355979443,0.451105892658,-9.66935634613,0.00980664975941,acc,,,
223,1644542406356589079,,,,gyr,-0.0104719754308,0.00349065847695,-0.00872664619237
224,1644542406357989788,0.402072638273,-9.57129001617,-0.00980664975941,acc,,,
225,1644542406360002041,0.402072638273,-9.58109664917,-0.0686465501785,acc,,,
226,1644542406361596584,,,,gyr,0.0,0.0,0.0
227,1644542406362016439,0.362846046686,-9.5222568512,-0.0784531980753,acc,,,
228,1644542406364028454,0.362846046686,-9.53206348419,-0.0980664938688,acc,,,
229,1644542406366040707,0.313812792301,-9.56148338318,-0.12748645246,acc,,,
230,1644542406366604328,,,,gyr,0.0139626339078,0.00523598771542,-0.0261799395084
231,1644542406368052959,0.274586200714,-9.5222568512,-0.0784531980753,acc,,,
232,1644542406370067358,0.137293100357,-9.45361042023,-0.196132987738,acc,,,
233,1644542406371612072,,,,gyr,0.0523598790169,0.0174532923847,-0.0523598790169
234,1644542406372079611,0.0980664938688,-9.39477062225,-0.225552946329,acc,,,
235,1644542406374091864,0.274586200714,-9.45361042023,-0.166713044047,acc,,,
236,1644542406376104116,0.451105892658,-9.56148338318,-0.12748645246,acc,,,
237,1644542406376619577,,,,gyr,0.11344639957,0.0383972451091,-0.11344639957
238,1644542406378118515,0.549172401428,-9.61051654816,-0.0686465501785,acc,,,
239,1644542406380130529,0.558979034424,-9.64974308014,-0.00980664975941,acc,,,
240,1644542406381627083,,,,gyr,0.174532920122,0.0593411922455,-0.162315621972
241,1644542406382142782,0.598205626011,-9.64974308014,-0.0294199492782,acc,,,
242,1644542406384156942,0.666852176189,-9.66935634613,-0.00980664975941,acc,,,
243,1644542406386171341,0.725692093372,-9.70858287811,0.0392265990376,acc,,,
244,1644542406386632919,,,,gyr,0.193731546402,0.0610865242779,-0.162315621972
245,1644542406388183594,0.696272134781,-9.61051654816,0.0686465501785,acc,,,
246,1644542406390195847,0.725692093372,-9.61051654816,0.0980664938688,acc,,,
247,1644542406391640663,,,,gyr,0.193731546402,0.0558505356312,-0.137881010771
248,1644542406392208099,0.637432217598,-9.61051654816,0.00980664975941,acc,,,
249,1644542406394220114,0.666852176189,-9.58109664917,-0.0392265990376,acc,,,
250,1644542406396235466,0.637432217598,-9.5222568512,-0.0784531980753,acc,,,
251,1644542406396649361,,,,gyr,0.197222203016,0.0471238903701,-0.101229093969
252,1644542406398248911,0.529559075832,-9.57129001617,-0.137293100357,acc,,,
253,1644542406400262594,0.529559075832,-9.56148338318,-0.176519691944,acc,,,
254,1644542406401660681,,,,gyr,0.223402142525,0.0383972451091,-0.0750491544604
255,1644542406402276278,0.666852176189,-9.53206348419,-0.12748645246,acc,,,
256,1644542406404289961,0.627625584602,-9.58109664917,-0.0980664938688,acc,,,
257,1644542406406305790,0.627625584602,-9.70858287811,0.137293100357,acc,,,
258,1644542406406671762,,,,gyr,0.267035365105,0.0174532923847,-0.0680678412318
259,1644542406408321619,0.666852176189,-9.71838951111,0.313812792301,acc,,,
260,1644542406410335302,0.549172401428,-9.78703689575,0.362846046686,acc,,,
261,1644542406411683083,,,,gyr,0.28274333477,-0.0104719754308,-0.0349065847695
262,1644542406412348986,0.57859236002,-9.80665016174,0.421685934067,acc,,,
263,1644542406414362431,0.490332484245,-9.75761604309,0.402072638273,acc,,,
264,1644542406416376114,0.362846046686,-9.67916297913,0.196132987738,acc,,,
265,1644542406416694403,,,,gyr,0.235619440675,-0.0349065847695,-0.0139626339078
266,1644542406418389797,0.402072638273,-9.57129001617,0.0784531980753,acc,,,
267,1644542406420401573,0.470719188452,-9.49283695221,-0.00980664975941,acc,,,
268,1644542406421705484,,,,gyr,0.197222203016,-0.0593411922455,-0.00523598771542
269,1644542406422417402,0.38245934248,-9.43399715424,-0.12748645246,acc,,,
270,1644542406424431086,0.362846046686,-9.57129001617,0.0,acc,,,
271,1644542406426446676,0.421685934067,-9.61051654816,0.0980664938688,acc,,,
272,1644542406426716805,,,,gyr,0.218166157603,-0.0645771846175,0.0069813169539
273,1644542406428460360,0.313812792301,-9.66935634613,0.176519691944,acc,,,
274,1644542406430474043,0.245166242123,-9.66935634613,0.0686465501785,acc,,,
275,1644542406431728125,,,,gyr,0.254818081856,-0.0645771846175,0.0226892791688
276,1644542406432487726,0.764918684959,-9.75761604309,0.245166242123,acc,,,
277,1644542406434503317,0.951245009899,-9.98316955566,0.598205626011,acc,,,
278,1644542406436517000,0.804145276546,-9.99297618866,0.598205626011,acc,,,
279,1644542406436739206,,,,gyr,0.23212878406,-0.0750491544604,0.0506145469844
280,1644542406438530922,0.627625584602,-9.91452312469,0.38245934248,acc,,,
281,1644542406440544605,0.558979034424,-9.78703689575,0.137293100357,acc,,,
282,1644542406441750526,,,,gyr,0.127409040928,-0.069813169539,0.069813169539
283,1644542406442558289,0.509945809841,-9.71838951111,0.00980664975941,acc,,,
284,1644542406444572210,0.470719188452,-9.64974308014,-0.0686465501785,acc,,,
285,1644542406446586132,0.470719188452,-9.62032318115,-0.0686465501785,acc,,,
286,1644542406446762323,,,,gyr,0.0209439508617,-0.069813169539,0.0785398185253
287,1644542406448600054,0.38245934248,-9.5222568512,-0.176519691944,acc,,,
288,1644542406450613976,0.12748645246,-9.45361042023,-0.166713044047,acc,,,
289,1644542406451773882,,,,gyr,-0.00349065847695,-0.0261799395084,0.0523598790169
290,1644542406452627659,0.12748645246,-9.45361042023,-0.343232750893,acc,,,
291,1644542406454643488,0.274586200714,-9.45361042023,-0.196132987738,acc,,,
292,1644542406456657410,0.12748645246,-9.48303031921,-0.0980664938688,acc,,,
293,1644542406456785440,,,,gyr,0.0436332300305,0.0104719754308,0.0139626339078
294,1644542406458673239,0.274586200714,-9.80665016174,0.225552946329,acc,,,
295,1644542406460687160,0.666852176189,-9.98316955566,0.627625584602,acc,,,
296,1644542406461795092,,,,gyr,0.0959931090474,0.0314159244299,-0.0436332300305
297,1644542406462701082,0.57859236002,-9.64974308014,0.166713044047,acc,,,
298,1644542406464714766,0.402072638273,-9.57129001617,-0.0686465501785,acc,,,
299,1644542406466730595,0.627625584602,-9.7478094101,0.362846046686,acc,,,
300,1644542406466806889,,,,gyr,0.0296705961227,0.0279252678156,-0.0593411922455
301,1644542406468744516,0.686465501785,-9.62032318115,0.294199496508,acc,,,
302,1644542406470758438,0.627625584602,-9.64974308014,0.245166242123,acc,,,
303,1644542406471818447,,,,gyr,0.00523598771542,0.0314159244299,-0.0767944902182
304,1644542406472772360,0.402072638273,-9.7478094101,0.313812792301,acc,,,
305,1644542406474788427,0.402072638273,-9.67916297913,0.264779537916,acc,,,
306,1644542406476802349,0.529559075832,-9.67916297913,0.402072638273,acc,,,
307,1644542406476830006,,,,gyr,-0.00349065847695,0.0279252678156,-0.0750491544604
308,1644542406478816032,0.666852176189,-9.61051654816,0.343232750893,acc,,,
309,1644542406480829716,0.637432217598,-9.67916297913,0.225552946329,acc,,,
310,1644542406481841803,,,,gyr,0.0,0.0296705961227,-0.0872664600611
311,1644542406482845783,0.686465501785,-9.67916297913,0.313812792301,acc,,,
312,1644542406484859705,0.725692093372,-9.62032318115,0.245166242123,acc,,,
313,1644542406486853600,,,,gyr,-0.00523598771542,0.0279252678156,-0.0890117883682
314,1644542406486873627,0.725692093372,-9.66935634613,0.294199496508,acc,,,
315,1644542406488887310,0.598205626011,-9.62032318115,0.264779537916,acc,,,
316,1644542406490901232,0.558979034424,-9.57129001617,0.38245934248,acc,,,
317,1644542406491865158,,,,gyr,-0.00349065847695,0.0139626339078,-0.0715584978461
318,1644542406492917061,0.57859236002,-9.66935634613,0.470719188452,acc,,,
319,1644542406494930983,0.509945809841,-9.66935634613,0.38245934248,acc,,,
320,1644542406496876717,,,,gyr,-0.0069813169539,0.00872664619237,-0.0680678412318
321,1644542406496944904,0.598205626011,-9.57129001617,0.421685934067,acc,,,
322,1644542406498958826,0.549172401428,-9.70858287811,0.470719188452,acc,,,
323,1644542406500972509,0.490332484245,-9.71838951111,0.362846046686,acc,,,
324,1644542406501888514,,,,gyr,-0.00349065847695,0.0139626339078,-0.0785398185253
325,1644542406502986431,0.509945809841,-9.61051654816,0.313812792301,acc,,,
326,1644542406505000353,0.549172401428,-9.62032318115,0.264779537916,acc,,,
327,1644542406506900072,,,,gyr,-0.00523598771542,0.0139626339078,-0.0977384373546
328,1644542406507016182,0.490332484245,-9.62032318115,0.166713044047,acc,,,
329,1644542406509030104,0.549172401428,-9.58109664917,0.12748645246,acc,,,
330,1644542406511044025,0.686465501785,-9.66935634613,0.196132987738,acc,,,
331,1644542406511911869,,,,gyr,-0.00523598771542,0.0174532923847,-0.11344639957
332,1644542406513057709,0.549172401428,-9.57129001617,0.00980664975941,acc,,,
333,1644542406515071630,0.558979034424,-9.66935634613,0.0784531980753,acc,,,
334,1644542406516923428,,,,gyr,-0.00523598771542,0.00872664619237,-0.106465086341
335,1644542406517087460,0.509945809841,-9.57129001617,0.0294199492782,acc,,,
336,1644542406519099474,0.470719188452,-9.58109664917,0.0,acc,,,
337,1644542406521115303,0.451105892658,-9.58109664917,-0.0392265990376,acc,,,
338,1644542406521934986,,,,gyr,-0.00523598771542,0.00523598771542,-0.101229093969
339,1644542406523128986,0.451105892658,-9.61051654816,0.0784531980753,acc,,,
340,1644542406525144815,0.38245934248,-9.66935634613,0.176519691944,acc,,,
341,1644542406526946783,,,,gyr,0.0,0.0139626339078,-0.0959931090474
342,1644542406527158737,0.470719188452,-9.61051654816,0.137293100357,acc,,,
343,1644542406529172659,0.529559075832,-9.62032318115,0.225552946329,acc,,,
344,1644542406531186581,0.490332484245,-9.62032318115,0.0980664938688,acc,,,
345,1644542406531956434,,,,gyr,0.00174532923847,0.0174532923847,-0.11344639957
346,1644542406533218145,0.598205626011,-9.62032318115,0.38245934248,acc,,,
347,1644542406535214186,0.637432217598,-9.5222568512,0.12748645246,acc,,,
348,1644542406536967993,,,,gyr,0.00523598771542,0.0261799395084,-0.132645025849
349,1644542406537228107,1.60829055309,-9.57129001617,-0.402072638273,acc,,,
350,1644542406539243937,0.951245009899,-9.88510322571,0.549172401428,acc,,,
351,1644542406541257858,0.558979034424,-9.58109664917,0.0294199492782,acc,,,
352,1644542406541979790,,,,gyr,0.0261799395084,0.0279252678156,-0.0872664600611
353,1644542406543271780,0.558979034424,-9.67916297913,0.0294199492782,acc,,,
354,1644542406545287609,0.627625584602,-9.67916297913,0.0,acc,,,
355,1644542406546991348,,,,gyr,0.0209439508617,0.0174532923847,-0.0139626339078
356,1644542406547301531,0.549172401428,-9.62032318115,0.0294199492782,acc,,,
357,1644542406549315214,0.470719188452,-9.61051654816,-0.0294199492782,acc,,,
358,1644542406551331043,0.343232750893,-9.58109664917,0.0980664938688,acc,,,
359,1644542406552003145,,,,gyr,0.0139626339078,0.0261799395084,-0.0139626339078
360,1644542406553344965,0.451105892658,-9.61051654816,0.343232750893,acc,,,
361,1644542406555360794,0.402072638273,-9.67916297913,0.294199496508,acc,,,
362,1644542406557014704,,,,gyr,0.0279252678156,0.0767944902182,-0.0139626339078
363,1644542406557374716,0.470719188452,-9.67916297913,0.176519691944,acc,,,
364,1644542406559388638,0.666852176189,-9.67916297913,0.0784531980753,acc,,,
365,1644542406561404467,0.558979034424,-9.64974308014,0.0980664938688,acc,,,
366,1644542406562026262,,,,gyr,0.0226892791688,0.202458187938,-0.0139626339078
367,1644542406563416243,0.686465501785,-9.71838951111,-0.0686465501785,acc,,,
368,1644542406565430164,0.549172401428,-9.58109664917,-0.225552946329,acc,,,
369,1644542406567038059,,,,gyr,0.00872664619237,0.275762021542,0.0
370,1644542406567445993,0.627625584602,-9.58109664917,-0.245166242123,acc,,,
371,1644542406569459915,0.637432217598,-9.61051654816,-0.166713044047,acc,,,
372,1644542406571475744,0.843371868134,-9.7478094101,0.225552946329,acc,,,
373,1644542406572049856,,,,gyr,0.00872664619237,0.237364768982,0.00174532923847
374,1644542406573489666,0.402072638273,-9.58109664917,0.813951909542,acc,,,
375,1644542406575503349,0.509945809841,-9.66935634613,0.735498726368,acc,,,
376,1644542406577061415,,,,gyr,0.0069813169539,0.193731546402,0.00349065847695
377,1644542406577517271,0.421685934067,-9.57129001617,0.313812792301,acc,,,
378,1644542406579533100,0.627625584602,-9.61051654816,0.245166242123,acc,,,
379,1644542406581547022,0.598205626011,-9.57129001617,0.0392265990376,acc,,,
380,1644542406582072973,,,,gyr,-0.0139626339078,0.254818081856,0.0104719754308
381,1644542406583560944,0.764918684959,-9.58109664917,0.12748645246,acc,,,
382,1644542406585577011,0.725692093372,-9.56148338318,0.225552946329,acc,,,
383,1644542406587084770,,,,gyr,-0.0069813169539,0.211184844375,0.00349065847695
384,1644542406587590933,0.666852176189,-9.61051654816,0.294199496508,acc,,,
385,1644542406589604378,0.57859236002,-9.53206348419,0.402072638273,acc,,,
386,1644542406591620445,0.637432217598,-9.71838951111,0.451105892658,acc,,,
387,1644542406592094421,,,,gyr,0.0,0.123918376863,-0.00174532923847
388,1644542406593634367,0.558979034424,-9.75761604309,0.343232750893,acc,,,
389,1644542406595648289,0.627625584602,-9.56148338318,0.313812792301,acc,,,
390,1644542406597108126,,,,gyr,0.0,0.069813169539,0.0
391,1644542406597664118,0.696272134781,-9.58109664917,0.343232750893,acc,,,
392,1644542406599678040,0.666852176189,-9.64974308014,0.38245934248,acc,,,
393,1644542406601691961,0.735498726368,-9.58109664917,0.38245934248,acc,,,
394,1644542406602117777,,,,gyr,0.0,0.0436332300305,0.0
395,1644542406603705645,0.696272134781,-9.66935634613,0.451105892658,acc,,,
396,1644542406605721474,0.666852176189,-9.64974308014,0.529559075832,acc,,,
397,1644542406607129335,,,,gyr,0.00174532923847,0.0296705961227,-0.00174532923847
398,1644542406607735395,0.627625584602,-9.64974308014,0.57859236002,acc,,,
399,1644542406609749317,0.696272134781,-9.66935634613,0.509945809841,acc,,,
400,1644542406611765146,0.558979034424,-9.62032318115,0.57859236002,acc,,,
401,1644542406612141132,,,,gyr,0.00174532923847,0.0349065847695,0.0
402,1644542406613779068,0.637432217598,-9.61051654816,0.637432217598,acc,,,
403,1644542406615792990,0.666852176189,-9.62032318115,0.686465501785,acc,,,
404,1644542406617152929,,,,gyr,0.00174532923847,0.0750491544604,0.00349065847695
405,1644542406617806673,0.637432217598,-9.71838951111,0.774725317955,acc,,,
406,1644542406619820595,0.637432217598,-9.61051654816,0.696272134781,acc,,,
407,1644542406621834517,0.666852176189,-9.67916297913,0.57859236002,acc,,,
408,1644542406622164488,,,,gyr,0.00872664619237,0.153588980436,0.00523598771542
409,1644542406623850346,0.725692093372,-9.66935634613,0.274586200714,acc,,,
410,1644542406625864267,0.735498726368,-9.64974308014,0.12748645246,acc,,,
411,1644542406627176046,,,,gyr,0.0226892791688,0.23212878406,0.0139626339078
412,1644542406627878189,0.764918684959,-9.66935634613,0.196132987738,acc,,,
413,1644542406629891872,0.686465501785,-9.64974308014,0.176519691944,acc,,,
414,1644542406631905794,0.637432217598,-9.58109664917,0.274586200714,acc,,,
415,1644542406632187843,,,,gyr,0.0767944902182,0.261799395084,0.0209439508617
416,1644542406633919716,0.637432217598,-9.58109664917,0.38245934248,acc,,,
417,1644542406635933638,0.637432217598,-9.61051654816,0.509945809841,acc,,,
418,1644542406637199402,,,,gyr,0.11344639957,0.240855440497,0.0226892791688
419,1644542406637949467,0.637432217598,-9.61051654816,0.529559075832,acc,,,
420,1644542406639963388,0.725692093372,-9.64974308014,0.558979034424,acc,,,
421,1644542406641977072,0.686465501785,-9.62032318115,0.490332484245,acc,,,
422,1644542406642211199,,,,gyr,0.0767944902182,0.197222203016,0.0174532923847
423,1644542406643990993,0.696272134781,-9.62032318115,0.421685934067,acc,,,
424,1644542406646006823,0.598205626011,-9.61051654816,0.402072638273,acc,,,
425,1644542406647222996,,,,gyr,0.0139626339078,0.101229093969,0.00349065847695
426,1644542406648020744,0.598205626011,-9.58109664917,0.558979034424,acc,,,
427,1644542406650034666,0.598205626011,-9.61051654816,0.666852176189,acc,,,
428,1644542406652048588,0.558979034424,-9.64974308014,0.529559075832,acc,,,
429,1644542406652234316,,,,gyr,-0.0296705961227,0.00872664619237,-0.0069813169539
430,1644542406654064417,0.57859236002,-9.61051654816,0.558979034424,acc,,,
431,1644542406656078100,0.509945809841,-9.64974308014,0.558979034424,acc,,,
432,1644542406657246113,,,,gyr,-0.0855211317539,-0.0261799395084,-0.0104719754308
433,1644542406658092022,0.637432217598,-9.67916297913,0.598205626011,acc,,,
434,1644542406660105944,0.490332484245,-9.62032318115,0.686465501785,acc,,,
435,1644542406662119865,1.08853816986,-10.0420093536,-0.245166242123,acc,,,
436,1644542406662257910,,,,gyr,-0.162315621972,-0.0418879017234,-0.0139626339078
437,1644542406664131641,0.00980664975941,-9.06134414673,-1.47099745274,acc,,,
438,1644542406666149616,1.05911815166,-9.81645679474,0.686465501785,acc,,,
439,1644542406667269468,,,,gyr,-0.150098308921,-0.0558505356312,0.0
440,1644542406668163300,0.264779537916,-9.56148338318,0.529559075832,acc,,,
441,1644542406670177221,0.666852176189,-9.53206348419,-0.0294199492782,acc,,,
442,1644542406672193050,0.38245934248,-9.61051654816,0.274586200714,acc,,,
443,1644542406672279119,,,,gyr,-0.0139626339078,-0.00523598771542,0.0104719754308
444,1644542406674206972,0.509945809841,-9.58109664917,0.313812792301,acc,,,
445,1644542406676220894,0.637432217598,-9.62032318115,0.137293100357,acc,,,
446,1644542406677290678,,,,gyr,-0.0104719754308,-0.00523598771542,0.0104719754308
447,1644542406678236723,0.549172401428,-9.53206348419,0.294199496508,acc,,,
448,1644542406680250645,0.490332484245,-9.66935634613,0.137293100357,acc,,,
449,1644542406682264328,0.549172401428,-9.62032318115,0.225552946329,acc,,,
450,1644542406682302475,,,,gyr,-0.00872664619237,0.0,0.00174532923847
451,1644542406684280157,0.598205626011,-9.61051654816,0.245166242123,acc,,,
452,1644542406686294079,0.549172401428,-9.62032318115,0.166713044047,acc,,,
453,1644542406687314272,,,,gyr,-0.00523598771542,-0.00872664619237,0.0
454,1644542406688308001,0.549172401428,-9.64974308014,0.0980664938688,acc,,,
455,1644542406690324068,0.627625584602,-9.58109664917,0.196132987738,acc,,,
456,1644542406692325830,,,,gyr,-0.00174532923847,-0.00349065847695,0.0
457,1644542406692337990,0.598205626011,-9.58109664917,0.196132987738,acc,,,
458,1644542406694351912,0.558979034424,-9.66935634613,0.12748645246,acc,,,
459,1644542406696365595,0.627625584602,-9.57129001617,0.225552946329,acc,,,
460,1644542406697337389,,,,gyr,0.00174532923847,0.0,-0.00523598771542
461,1644542406698381424,0.686465501785,-9.62032318115,0.225552946329,acc,,,
462,1644542406700395346,0.598205626011,-9.64974308014,0.12748645246,acc,,,
463,1644542406702349186,,,,gyr,0.0139626339078,0.00349065847695,-0.0104719754308
464,1644542406702409267,0.57859236002,-9.61051654816,0.12748645246,acc,,,
465,1644542406704423189,0.637432217598,-9.62032318115,0.176519691944,acc,,,
466,1644542406706439018,0.666852176189,-9.67916297913,0.245166242123,acc,,,
467,1644542406707360744,,,,gyr,0.0104719754308,0.00174532923847,-0.0069813169539
468,1644542406708452940,0.637432217598,-9.67916297913,0.12748645246,acc,,,
469,1644542406710466623,0.637432217598,-9.58109664917,0.176519691944,acc,,,
470,1644542406712372541,,,,gyr,0.0104719754308,0.0069813169539,-0.00523598771542
471,1644542406712482452,0.696272134781,-9.64974308014,0.176519691944,acc,,,
472,1644542406714496374,0.598205626011,-9.64974308014,0.166713044047,acc,,,
473,1644542406716510296,0.627625584602,-9.64974308014,0.196132987738,acc,,,
474,1644542406717384338,,,,gyr,0.00872664619237,0.00349065847695,0.0
475,1644542406718524218,0.696272134781,-9.61051654816,0.176519691944,acc,,,
476,1644542406720540047,0.637432217598,-9.64974308014,0.166713044047,acc,,,
477,1644542406722395897,,,,gyr,0.0,0.0,-0.00174532923847
478,1644542406722553968,0.598205626011,-9.62032318115,0.166713044047,acc,,,
479,1644542406724567652,0.598205626011,-9.58109664917,0.245166242123,acc,,,
480,1644542406726583481,0.57859236002,-9.62032318115,0.196132987738,acc,,,
481,1644542406727407455,,,,gyr,0.0,-0.00174532923847,0.0
482,1644542406728597403,0.627625584602,-9.64974308014,0.196132987738,acc,,,
483,1644542406730611324,0.57859236002,-9.61051654816,0.274586200714,acc,,,
484,1644542406732419252,,,,gyr,-0.0069813169539,0.0,0.00174532923847
485,1644542406732627153,0.57859236002,-9.64974308014,0.274586200714,acc,,,
486,1644542406734641075,0.637432217598,-9.67916297913,0.274586200714,acc,,,
487,1644542406736656904,0.558979034424,-9.66935634613,0.313812792301,acc,,,
488,1644542406737428904,,,,gyr,-0.0069813169539,-0.00174532923847,0.0
489,1644542406738670826,0.558979034424,-9.58109664917,0.313812792301,acc,,,
490,1644542406740684509,0.57859236002,-9.62032318115,0.264779537916,acc,,,
491,1644542406742440701,,,,gyr,-0.00872664619237,-0.00523598771542,0.00174532923847
492,1644542406742700338,0.558979034424,-9.61051654816,0.294199496508,acc,,,
493,1644542406744714260,0.549172401428,-9.67916297913,0.343232750893,acc,,,
494,1644542406746728182,0.57859236002,-9.64974308014,0.313812792301,acc,,,
495,1644542406747452259,,,,gyr,-0.0069813169539,-0.00523598771542,0.0
496,1644542406748742104,0.598205626011,-9.61051654816,0.274586200714,acc,,,
497,1644542406750758171,0.558979034424,-9.62032318115,0.264779537916,acc,,,
498,1644542406752463818,,,,gyr,-0.0069813169539,-0.00174532923847,0.0069813169539
499,1644542406752771854,0.549172401428,-9.66935634613,0.264779537916,acc,,,
500,1644542406754785776,0.549172401428,-9.61051654816,0.274586200714,acc,,,
501,1644542406756801844,0.57859236002,-9.64974308014,0.274586200714,acc,,,
502,1644542406757475615,,,,gyr,-0.0104719754308,-0.00349065847695,0.00349065847695
503,1644542406758815527,0.598205626011,-9.66935634613,0.294199496508,acc,,,
504,1644542406760829449,0.57859236002,-9.61051654816,0.225552946329,acc,,,
505,1644542406762487411,,,,gyr,-0.00872664619237,-0.00174532923847,0.00523598771542
506,1644542406762843370,0.627625584602,-9.62032318115,0.225552946329,acc,,,
507,1644542406764859200,0.627625584602,-9.61051654816,0.225552946329,acc,,,
508,1644542406766873121,0.598205626011,-9.70858287811,0.137293100357,acc,,,
509,1644542406767498970,,,,gyr,-0.00523598771542,-0.0069813169539,0.00349065847695
510,1644542406768887043,0.598205626011,-9.66935634613,0.12748645246,acc,,,
511,1644542406770900726,0.558979034424,-9.61051654816,0.0,acc,,,
512,1644542406772510767,,,,gyr,-0.0104719754308,-0.0209439508617,0.00872664619237
513,1644542406772914648,0.558979034424,-9.61051654816,-0.0294199492782,acc,,,
514,1644542406774928570,0.549172401428,-9.62032318115,-0.0392265990376,acc,,,
515,1644542406776942492,0.57859236002,-9.58109664917,-0.0294199492782,acc,,,
516,1644542406777522326,,,,gyr,-0.00523598771542,-0.069813169539,0.0069813169539
517,1644542406778958321,0.598205626011,-9.58109664917,0.00980664975941,acc,,,
518,1644542406780974150,0.598205626011,-9.62032318115,0.0392265990376,acc,,,
519,1644542406782533884,,,,gyr,0.0,-0.150098308921,0.00174532923847
520,1644542406782988071,0.627625584602,-9.58109664917,0.137293100357,acc,,,
521,1644542406785001993,0.627625584602,-9.64974308014,0.176519691944,acc,,,
522,1644542406787017822,0.558979034424,-9.61051654816,0.12748645246,acc,,,
523,1644542406787545681,,,,gyr,-0.00174532923847,-0.223402142525,0.0
524,1644542406789031506,0.666852176189,-9.66935634613,0.196132987738,acc,,,
525,1644542406791045427,0.558979034424,-9.62032318115,0.12748645246,acc,,,
526,1644542406792557478,,,,gyr,-0.0069813169539,-0.246091425419,0.00523598771542
527,1644542406793061256,0.627625584602,-9.62032318115,0.176519691944,acc,,,
528,1644542406795075178,0.666852176189,-9.62032318115,0.313812792301,acc,,,
529,1644542406797089100,0.666852176189,-9.64974308014,0.402072638273,acc,,,
530,1644542406797569036,,,,gyr,-0.00523598771542,-0.237364768982,0.00523598771542
531,1644542406799103022,0.627625584602,-9.62032318115,0.451105892658,acc,,,
532,1644542406801118851,0.598205626011,-9.61051654816,0.362846046686,acc,,,
533,1644542406802580833,,,,gyr,-0.0069813169539,-0.197222203016,0.0
534,1644542406803132534,0.57859236002,-9.58109664917,0.343232750893,acc,,,
535,1644542406805146456,0.627625584602,-9.62032318115,0.294199496508,acc,,,
536,1644542406807160378,0.57859236002,-9.64974308014,0.343232750893,acc,,,
537,1644542406807590246,,,,gyr,-0.00523598771542,-0.141371667385,0.0
538,1644542406809176207,0.558979034424,-9.61051654816,0.264779537916,acc,,,
539,1644542406811190128,0.598205626011,-9.64974308014,0.313812792301,acc,,,
540,1644542406812602043,,,,gyr,-0.00349065847695,-0.102974422276,0.00349065847695
541,1644542406813204050,0.598205626011,-9.62032318115,0.294199496508,acc,,,
542,1644542406815219879,0.627625584602,-9.61051654816,0.264779537916,acc,,,
543,1644542406817233801,0.598205626011,-9.61051654816,0.264779537916,acc,,,
544,1644542406817613840,,,,gyr,-0.00523598771542,-0.0837758034468,0.00523598771542
545,1644542406819247484,0.598205626011,-9.58109664917,0.225552946329,acc,,,
546,1644542406821261406,0.627625584602,-9.58109664917,0.264779537916,acc,,,
547,1644542406822625399,,,,gyr,-0.0069813169539,-0.0645771846175,0.0139626339078
548,1644542406823275328,0.637432217598,-9.62032318115,0.264779537916,acc,,,
549,1644542406825289249,0.57859236002,-9.58109664917,0.245166242123,acc,,,
550,1644542406827303171,0.598205626011,-9.62032318115,0.196132987738,acc,,,
551,1644542406827637196,,,,gyr,-0.00349065847695,-0.0610865242779,0.0314159244299
552,1644542406829316854,0.558979034424,-9.62032318115,0.225552946329,acc,,,
553,1644542406831332684,0.598205626011,-9.61051654816,0.225552946329,acc,,,
554,1644542406832648754,,,,gyr,0.0,-0.0558505356312,0.0383972451091
555,1644542406833346605,0.558979034424,-9.64974308014,0.274586200714,acc,,,
556,1644542406835360527,0.549172401428,-9.61051654816,0.245166242123,acc,,,
557,1644542406837376356,0.627625584602,-9.61051654816,0.264779537916,acc,,,
558,1644542406837660313,,,,gyr,0.0,-0.0610865242779,0.0436332300305
559,1644542406839390278,0.627625584602,-9.66935634613,0.274586200714,acc,,,
560,1644542406841404200,0.598205626011,-9.64974308014,0.176519691944,acc,,,
561,1644542406842672110,,,,gyr,0.00174532923847,-0.0610865242779,0.0471238903701
562,1644542406843418121,0.558979034424,-9.62032318115,0.176519691944,acc,,,
563,1644542406845431805,0.627625584602,-9.62032318115,0.176519691944,acc,,,
564,1644542406847447872,0.598205626011,-9.66935634613,0.137293100357,acc,,,
565,1644542406847683907,,,,gyr,-0.00174532923847,-0.069813169539,0.0558505356312
566,1644542406849461555,0.57859236002,-9.64974308014,0.166713044047,acc,,,
567,1644542406851475477,0.598205626011,-9.67916297913,0.0980664938688,acc,,,
568,1644542406852695465,,,,gyr,-0.00174532923847,-0.0802851468325,0.0593411922455
569,1644542406853489399,0.558979034424,-9.62032318115,0.176519691944,acc,,,
570,1644542406855503321,0.598205626011,-9.64974308014,0.12748645246,acc,,,
571,1644542406857519388,0.627625584602,-9.61051654816,0.176519691944,acc,,,
572,1644542406857707262,,,,gyr,-0.00174532923847,-0.0977384373546,0.0610865242779
573,1644542406859533072,0.637432217598,-9.64974308014,0.166713044047,acc,,,
574,1644542406861546993,0.637432217598,-9.66935634613,0.225552946329,acc,,,
575,1644542406862718821,,,,gyr,-0.00174532923847,-0.104719758034,0.0610865242779
576,1644542406863560677,0.598205626011,-9.62032318115,0.176519691944,acc,,,
577,1644542406865574598,0.57859236002,-9.62032318115,0.225552946329,acc,,,
578,1644542406867590666,0.549172401428,-9.62032318115,0.196132987738,acc,,,
579,1644542406867730379,,,,gyr,-0.00174532923847,-0.0977384373546,0.0610865242779
580,1644542406869604588,0.598205626011,-9.64974308014,0.166713044047,acc,,,
581,1644542406871618509,0.529559075832,-9.62032318115,0.176519691944,acc,,,
582,1644542406872740269,,,,gyr,-0.00349065847695,-0.0785398185253,0.0471238903701
583,1644542406873632193,0.529559075832,-9.64974308014,0.245166242123,acc,,,
584,1644542406875646114,0.490332484245,-9.61051654816,0.245166242123,acc,,,
585,1644542406877661943,0.509945809841,-9.58109664917,0.196132987738,acc,,,
586,1644542406877752066,,,,gyr,0.0,-0.0610865242779,0.0383972451091
587,1644542406879675865,0.490332484245,-9.62032318115,0.225552946329,acc,,,
588,1644542406881689787,0.529559075832,-9.62032318115,0.176519691944,acc,,,
589,1644542406882763624,,,,gyr,0.0,-0.0418879017234,0.0174532923847
590,1644542406883703709,0.509945809841,-9.61051654816,0.225552946329,acc,,,
591,1644542406885719538,0.490332484245,-9.61051654816,0.264779537916,acc,,,
592,1644542406887733459,0.470719188452,-9.62032318115,0.294199496508,acc,,,
593,1644542406887775421,,,,gyr,-0.00174532923847,-0.0296705961227,-0.0069813169539
594,1644542406889747143,0.451105892658,-9.61051654816,0.245166242123,acc,,,
595,1644542406891762972,0.421685934067,-9.58109664917,0.225552946329,acc,,,
596,1644542406892786980,,,,gyr,0.0,-0.0139626339078,-0.0209439508617
597,1644542406893776894,0.402072638273,-9.61051654816,0.264779537916,acc,,,
598,1644542406895790815,0.451105892658,-9.61051654816,0.264779537916,acc,,,
599,1644542406897798538,,,,gyr,0.0,-0.00523598771542,-0.0523598790169
600,1644542406897804737,0.490332484245,-9.66935634613,0.264779537916,acc,,,
601,1644542406899820566,0.421685934067,-9.61051654816,0.245166242123,acc,,,
602,1644542406901834488,0.421685934067,-9.61051654816,0.245166242123,acc,,,
603,1644542406902810335,,,,gyr,-0.00174532923847,-0.00349065847695,-0.0715584978461
604,1644542406903848410,0.490332484245,-9.57129001617,0.225552946329,acc,,,
605,1644542406905864239,0.490332484245,-9.58109664917,0.274586200714,acc,,,
606,1644542406907822132,,,,gyr,0.0,0.0,-0.102974422276
607,1644542406907877922,0.490332484245,-9.62032318115,0.264779537916,acc,,,
608,1644542406909891844,0.558979034424,-9.61051654816,0.245166242123,acc,,,
609,1644542406911905766,0.558979034424,-9.61051654816,0.245166242123,acc,,,
610,1644542406912833691,,,,gyr,-0.00523598771542,-0.0104719754308,-0.111701071262
611,1644542406913921595,0.558979034424,-9.62032318115,0.264779537916,acc,,,
612,1644542406915935516,0.558979034424,-9.61051654816,0.245166242123,acc,,,
613,1644542406917845488,,,,gyr,-0.00174532923847,-0.0261799395084,-0.11344639957
614,1644542406917949438,0.598205626011,-9.5222568512,0.176519691944,acc,,,
615,1644542406919963121,1.54945063591,-9.70858287811,-0.196132987738,acc,,,
616,1644542406921978951,0.558979034424,-9.66935634613,1.20621788502,acc,,,
617,1644542406922857285,,,,gyr,0.00174532923847,-0.0418879017234,-0.0890117883682
618,1644542406923992872,0.57859236002,-9.57129001617,0.0686465501785,acc,,,
619,1644542406926006794,0.686465501785,-9.66935634613,0.313812792301,acc,,,
620,1644542406927868605,,,,gyr,0.00174532923847,-0.0069813169539,-0.0139626339078
621,1644542406928022623,0.470719188452,-9.56148338318,0.245166242123,acc,,,
622,1644542406930036545,0.666852176189,-9.58109664917,0.274586200714,acc,,,
623,1644542406932050467,0.57859236002,-9.61051654816,0.176519691944,acc,,,
624,1644542406932880402,,,,gyr,0.0,0.0,-0.00349065847695
625,1644542406934066296,0.598205626011,-9.61051654816,0.225552946329,acc,,,
626,1644542406936080217,0.627625584602,-9.61051654816,0.264779537916,acc,,,
627,1644542406937892199,,,,gyr,-0.00523598771542,-0.00523598771542,-0.00174532923847
628,1644542406938093901,0.666852176189,-9.66935634613,0.225552946329,acc,,,
629,1644542406940110207,0.627625584602,-9.62032318115,0.176519691944,acc,,,
630,1644542406942123890,0.666852176189,-9.64974308014,0.264779537916,acc,,,
631,1644542406942901850,,,,gyr,-0.00523598771542,-0.0104719754308,0.00174532923847
632,1644542406944137812,0.666852176189,-9.62032318115,0.245166242123,acc,,,
633,1644542406946153641,0.57859236002,-9.61051654816,0.176519691944,acc,,,
634,1644542406947913647,,,,gyr,-0.00523598771542,-0.0104719754308,0.00174532923847
635,1644542406948167562,0.637432217598,-9.66935634613,0.12748645246,acc,,,
636,1644542406950181484,0.627625584602,-9.58109664917,0.245166242123,acc,,,
637,1644542406952195406,0.637432217598,-9.67916297913,0.225552946329,acc,,,
638,1644542406952925205,,,,gyr,0.0,-0.0104719754308,0.0
639,1644542406954211235,0.598205626011,-9.64974308014,0.196132987738,acc,,,
640,1644542406956225157,0.637432217598,-9.67916297913,0.225552946329,acc,,,
641,1644542406957936764,,,,gyr,0.0,-0.0069813169539,-0.00523598771542
642,1644542406958238840,0.598205626011,-9.64974308014,0.264779537916,acc,,,
643,1644542406960254669,0.637432217598,-9.64974308014,0.137293100357,acc,,,
644,1644542406962268591,0.637432217598,-9.62032318115,0.225552946329,acc,,,
645,1644542406962948561,,,,gyr,0.0069813169539,0.00174532923847,-0.0069813169539
646,1644542406964282513,0.637432217598,-9.61051654816,0.225552946329,acc,,,
647,1644542406966298342,0.598205626011,-9.62032318115,0.196132987738,acc,,,
648,1644542406967960119,,,,gyr,0.00523598771542,0.0,-0.00174532923847
649,1644542406968312263,0.558979034424,-9.64974308014,0.166713044047,acc,,,
650,1644542406970326185,0.57859236002,-9.61051654816,0.264779537916,acc,,,
651,1644542406972342014,0.598205626011,-9.66935634613,0.264779537916,acc,,,
652,1644542406972971916,,,,gyr,0.00523598771542,0.00523598771542,-0.00349065847695
653,1644542406974355936,0.57859236002,-9.67916297913,0.196132987738,acc,,,
654,1644542406976369619,0.57859236002,-9.62032318115,0.264779537916,acc,,,
655,1644542406977983713,,,,gyr,0.00523598771542,0.0,-0.00523598771542
656,1644542406978385448,0.57859236002,-9.67916297913,0.245166242123,acc,,,
657,1644542406980399370,0.558979034424,-9.62032318115,0.294199496508,acc,,,
658,1644542406982413292,0.549172401428,-9.64974308014,0.245166242123,acc,,,
659,1644542406982995272,,,,gyr,0.00349065847695,0.0,-0.00174532923847
660,1644542406984427214,0.558979034424,-9.58109664917,0.225552946329,acc,,,
661,1644542406986443043,0.558979034424,-9.62032318115,0.264779537916,acc,,,
662,1644542406988007069,,,,gyr,0.00174532923847,0.0,0.0
663,1644542406988456964,0.57859236002,-9.62032318115,0.225552946329,acc,,,
664,1644542406990470886,0.598205626011,-9.64974308014,0.245166242123,acc,,,
665,1644542406992486715,0.598205626011,-9.66935634613,0.274586200714,acc,,,
666,1644542406993018866,,,,gyr,0.00349065847695,0.0,0.0
667,1644542406994500399,0.57859236002,-9.62032318115,0.225552946329,acc,,,
668,1644542406996514320,0.549172401428,-9.61051654816,0.264779537916,acc,,,
669,1644542406998030186,,,,gyr,0.0,0.0,-0.00523598771542
670,1644542406998530388,0.57859236002,-9.62032318115,0.274586200714,acc,,,
671,1644542407000544071,0.549172401428,-9.62032318115,0.225552946329,acc,,,
672,1644542407002557993,0.57859236002,-9.62032318115,0.225552946329,acc,,,
673,1644542407003041983,,,,gyr,0.00174532923847,0.0,0.0
674,1644542407004574060,0.57859236002,-9.61051654816,0.166713044047,acc,,,
675,1644542407006587982,0.57859236002,-9.61051654816,0.196132987738,acc,,,
676,1644542407008053780,,,,gyr,-0.00174532923847,0.0,0.0
677,1644542407008601904,0.598205626011,-9.66935634613,0.196132987738,acc,,,
678,1644542407010617733,0.598205626011,-9.62032318115,0.166713044047,acc,,,
679,1644542407012631416,0.598205626011,-9.62032318115,0.196132987738,acc,,,
680,1644542407013063431,,,,gyr,-0.00174532923847,0.0,-0.00174532923847
681,1644542407014645338,0.598205626011,-9.62032318115,0.225552946329,acc,,,
682,1644542407016661167,0.627625584602,-9.62032318115,0.225552946329,acc,,,
683,1644542407018075228,,,,gyr,0.0,0.00174532923847,0.0
684,1644542407018675089,0.637432217598,-9.64974308014,0.225552946329,acc,,,
685,1644542407020689011,0.598205626011,-9.66935634613,0.245166242123,acc,,,
686,1644542407022702932,0.598205626011,-9.67916297913,0.196132987738,acc,,,
687,1644542407023087025,,,,gyr,0.0,0.0,-0.00174532923847
688,1644542407024718761,0.627625584602,-9.62032318115,0.225552946329,acc,,,
689,1644542407026732683,0.637432217598,-9.64974308014,0.225552946329,acc,,,
690,1644542407028098583,,,,gyr,0.0,0.0,0.0
691,1644542407028748512,0.598205626011,-9.66935634613,0.176519691944,acc,,,
692,1644542407030762434,0.627625584602,-9.61051654816,0.176519691944,acc,,,
693,1644542407032776117,0.637432217598,-9.62032318115,0.176519691944,acc,,,
694,1644542407033110142,,,,gyr,0.0,0.00174532923847,-0.00174532923847
695,1644542407034790039,0.637432217598,-9.62032318115,0.137293100357,acc,,,
696,1644542407036805868,0.627625584602,-9.64974308014,0.176519691944,acc,,,
697,1644542407038121939,,,,gyr,0.0,0.0,0.00349065847695
698,1644542407038819790,0.666852176189,-9.64974308014,0.245166242123,acc,,,
699,1644542407040833712,0.57859236002,-9.62032318115,0.166713044047,acc,,,
700,1644542407042849541,0.627625584602,-9.61051654816,0.225552946329,acc,,,
701,1644542407043133497,,,,gyr,-0.00174532923847,0.0,0.0
702,1644542407044863462,0.598205626011,-9.64974308014,0.264779537916,acc,,,
703,1644542407046877384,0.666852176189,-9.58109664917,0.245166242123,acc,,,
704,1644542407048145294,,,,gyr,0.0,-0.00174532923847,0.00523598771542
705,1644542407048891068,0.627625584602,-9.64974308014,0.196132987738,acc,,,
706,1644542407050904989,0.627625584602,-9.64974308014,0.245166242123,acc,,,
707,1644542407052920818,0.57859236002,-9.62032318115,0.274586200714,acc,,,
708,1644542407053157091,,,,gyr,0.0,0.0,0.00349065847695
709,1644542407054934740,0.598205626011,-9.64974308014,0.274586200714,acc,,,
710,1644542407056948662,0.57859236002,-9.62032318115,0.274586200714,acc,,,
711,1644542407058168650,,,,gyr,0.0,-0.00349065847695,0.0
712,1644542407058962584,0.598205626011,-9.58109664917,0.245166242123,acc,,,
713,1644542407060976505,0.558979034424,-9.62032318115,0.264779537916,acc,,,
714,1644542407062990427,0.57859236002,-9.62032318115,0.264779537916,acc,,,
715,1644542407063180447,,,,gyr,0.0,0.0,0.00349065847695
716,1644542407065006256,0.558979034424,-9.64974308014,0.274586200714,acc,,,
717,1644542407067019939,0.558979034424,-9.61051654816,0.274586200714,acc,,,
718,1644542407068192244,,,,gyr,0.0,-0.00174532923847,0.00349065847695
719,1644542407069033861,0.598205626011,-9.61051654816,0.313812792301,acc,,,
720,1644542407071047783,0.57859236002,-9.61051654816,0.225552946329,acc,,,
721,1644542407073061705,0.598205626011,-9.61051654816,0.274586200714,acc,,,
722,1644542407073201656,,,,gyr,-0.00349065847695,0.0,-0.00174532923847
723,1644542407075075626,0.558979034424,-9.58109664917,0.264779537916,acc,,,
724,1644542407077091455,0.549172401428,-9.62032318115,0.274586200714,acc,,,
725,1644542407078213453,,,,gyr,-0.00174532923847,-0.00174532923847,0.00349065847695
726,1644542407079105377,0.57859236002,-9.62032318115,0.264779537916,acc,,,
727,1644542407081119061,0.627625584602,-9.62032318115,0.245166242123,acc,,,
728,1644542407083132982,0.598205626011,-9.62032318115,0.294199496508,acc,,,
729,1644542407083227158,,,,gyr,-0.0104719754308,-0.00349065847695,0.00349065847695
730,1644542407085146904,0.627625584602,-9.58109664917,0.264779537916,acc,,,
731,1644542407087162733,0.57859236002,-9.58109664917,0.245166242123,acc,,,
732,1644542407088236809,,,,gyr,-0.00174532923847,-0.00174532923847,0.0
733,1644542407089176655,0.57859236002,-9.62032318115,0.225552946329,acc,,,
734,1644542407091190577,0.558979034424,-9.64974308014,0.166713044047,acc,,,
735,1644542407093204498,0.57859236002,-9.62032318115,0.245166242123,acc,,,
736,1644542407093248606,,,,gyr,-0.0069813169539,-0.00174532923847,0.00174532923847
737,1644542407095220566,0.598205626011,-9.64974308014,0.245166242123,acc,,,
738,1644542407097234488,0.627625584602,-9.66935634613,0.225552946329,acc,,,
739,1644542407098260164,,,,gyr,-0.00174532923847,0.0,-0.00174532923847
740,1644542407099247932,0.627625584602,-9.61051654816,0.196132987738,acc,,,
741,1644542407101261854,0.558979034424,-9.64974308014,0.196132987738,acc,,,
742,1644542407103271961,,,,gyr,-0.00349065847695,0.0,0.0
743,1644542407103277922,0.598205626011,-9.64974308014,0.225552946329,acc,,,
744,1644542407105291843,0.666852176189,-9.66935634613,0.176519691944,acc,,,
745,1644542407107305765,0.637432217598,-9.61051654816,0.245166242123,acc,,,
746,1644542407108283758,,,,gyr,-0.00349065847695,0.0,0.0
747,1644542407109319687,0.627625584602,-9.61051654816,0.176519691944,acc,,,
748,1644542407111333609,0.598205626011,-9.64974308014,0.225552946329,acc,,,
749,1644542407113295078,,,,gyr,-0.00174532923847,0.00174532923847,0.00174532923847
750,1644542407113349438,0.598205626011,-9.62032318115,0.225552946329,acc,,,
751,1644542407115363359,0.637432217598,-9.64974308014,0.196132987738,acc,,,
752,1644542407117377043,0.598205626011,-9.61051654816,0.225552946329,acc,,,
753,1644542407118306875,,,,gyr,-0.00523598771542,-0.00174532923847,0.0
754,1644542407119390965,0.57859236002,-9.66935634613,0.166713044047,acc,,,
755,1644542407121406794,0.627625584602,-9.62032318115,0.196132987738,acc,,,
756,1644542407123318672,,,,gyr,-0.00523598771542,0.0,0.00349065847695
757,1644542407123420715,0.627625584602,-9.62032318115,0.176519691944,acc,,,
758,1644542407125436544,0.598205626011,-9.62032318115,0.176519691944,acc,,,
759,1644542407127450466,0.57859236002,-9.61051654816,0.166713044047,acc,,,
760,1644542407128330231,,,,gyr,-0.00349065847695,0.0,0.00174532923847
761,1644542407129464388,0.558979034424,-9.58109664917,0.245166242123,acc,,,
762,1644542407131478310,0.598205626011,-9.62032318115,0.225552946329,acc,,,
763,1644542407133342028,,,,gyr,-0.00349065847695,-0.00174532923847,0.00349065847695
764,1644542407133494139,0.558979034424,-9.58109664917,0.196132987738,acc,,,
765,1644542407135508060,0.57859236002,-9.62032318115,0.245166242123,acc,,,
766,1644542407137521744,0.529559075832,-9.61051654816,0.225552946329,acc,,,
767,1644542407138353825,,,,gyr,-0.00349065847695,-0.00174532923847,0.0
768,1644542407139535666,0.57859236002,-9.62032318115,0.245166242123,acc,,,
769,1644542407141551495,0.57859236002,-9.62032318115,0.225552946329,acc,,,
770,1644542407143365383,,,,gyr,-0.00523598771542,-0.00349065847695,0.0
771,1644542407143565416,0.558979034424,-9.61051654816,0.225552946329,acc,,,
772,1644542407145579338,0.598205626011,-9.62032318115,0.245166242123,acc,,,
773,1644542407147593260,0.558979034424,-9.61051654816,0.274586200714,acc,,,
774,1644542407148375273,,,,gyr,-0.00174532923847,-0.00174532923847,0.00174532923847
775,1644542407149609089,0.549172401428,-9.62032318115,0.264779537916,acc,,,
776,1644542407151623011,0.598205626011,-9.62032318115,0.245166242123,acc,,,
777,1644542407153387070,,,,gyr,-0.00872664619237,-0.00349065847695,0.00349065847695
778,1644542407153636694,0.57859236002,-9.66935634613,0.225552946329,acc,,,
779,1644542407155652761,0.549172401428,-9.62032318115,0.245166242123,acc,,,
780,1644542407157666445,0.558979034424,-9.62032318115,0.264779537916,acc,,,
781,1644542407158398390,,,,gyr,-0.00872664619237,-0.00174532923847,0.00523598771542
782,1644542407159680367,0.598205626011,-9.61051654816,0.274586200714,acc,,,
783,1644542407161694288,0.57859236002,-9.58109664917,0.196132987738,acc,,,
784,1644542407163410187,,,,gyr,-0.0139626339078,-0.00523598771542,0.00523598771542
785,1644542407163710117,0.57859236002,-9.66935634613,0.196132987738,acc,,,
786,1644542407165724039,0.598205626011,-9.62032318115,0.264779537916,acc,,,
787,1644542407167737961,0.598205626011,-9.62032318115,0.225552946329,acc,,,
788,1644542407168421984,,,,gyr,-0.0069813169539,-0.00349065847695,0.0104719754308
789,1644542407169751883,0.627625584602,-9.61051654816,0.176519691944,acc,,,
790,1644542407171765566,0.57859236002,-9.61051654816,0.166713044047,acc,,,
