,field.header.stamp,field.linear_acceleration.x,field.linear_acceleration.y,field.linear_acceleration.z,type,delta_x,delta_z,field.angular_velocity.x,field.angular_velocity.y,field.angular_velocity.z,delta_angle,x,z
0,1.64454093642317e+18,0.343232750893,-9.67916297913,0.774725317955,acc,0.0,0.0,,,,,0,0
1,1.644540936424736e+18,,,,gyr,0.0,0.0,-0.00349065847695,0.0,0.00349065847695,,0,0
2,1.64454093642518e+18,0.313812792301,-9.62032318115,0.735498726368,acc,1.2676534087332848e-06,-2.971062654147938e-06,,,,,0.0,0.0
3,1.64454093642719e+18,0.343232750893,-9.58109664917,0.764918684959,acc,1.386849178302083e-06,-3.0906923856867118e-06,,,,,1.2676534087332848e-06,-2.971062654147938e-06
4,1.64454093642921e+18,0.313812792301,-9.57129001617,0.725692093372,acc,1.2806034297504652e-06,-2.9613954769045806e-06,,,,,2.6545025870353678e-06,-6.06175503983465e-06
5,1.644540936429748e+18,,,,gyr,1.2806034297504652e-06,-2.9613954769045806e-06,0.0,0.0,0.00174532923847,-0.0,2.6545025870353678e-06,-6.06175503983465e-06
6,1.64454093643122e+18,0.343232750893,-9.61051654816,0.637432217598,acc,1.3864959534252466e-06,-2.574920918773351e-06,,,,,3.935106016785833e-06,-9.023150516739231e-06
7,1.64454093643324e+18,0.38245934248,-9.61051654816,0.686465501785,acc,1.5607354376115246e-06,-2.801320078590192e-06,,,,,5.321601970211079e-06,-1.1598071435512582e-05
8,1.6445409364347604e+18,,,,gyr,1.5607354376115246e-06,-2.801320078590192e-06,0.0,0.0,-0.00349065847695,-0.0,5.321601970211079e-06,-1.1598071435512582e-05
9,1.64454093643525e+18,0.421685934067,-9.53206348419,0.696272134781,acc,1.7034092454146536e-06,-2.812606008153235e-06,,,,,6.882337407822604e-06,-1.4399391514102773e-05
10,1.64454093643727e+18,0.402072638273,-9.58109664917,0.725692093372,acc,1.640773136766678e-06,-2.9613954769045806e-06,,,,,8.585746653237258e-06,-1.7211997522256008e-05
11,1.64454093643928e+18,0.402072638273,-9.71838951111,0.804145276546,acc,1.6245947001150026e-06,-3.2491894002300053e-06,,,,,1.0226519790003936e-05,-2.017339299916059e-05
12,1.6445409364397722e+18,,,,gyr,1.624623121478827e-06,-3.2491751893927123e-06,0.00174532923847,0.00174532923847,0.0,-8.74723584137623e-06,1.0226519790003936e-05,-2.017339299916059e-05
13,1.6445409364413e+18,0.421685934067,-9.70858287811,0.774725317955,acc,1.720374718374366e-06,-3.1606884247710245e-06,,,,,1.1851142911482763e-05,-2.3422568188553302e-05
14,1.64454093644331e+18,0.38245934248,-9.61051654816,0.735498726368,acc,1.5453461928453765e-06,-2.971819564572013e-06,,,,,1.3571517629857129e-05,-2.6583256613324326e-05
15,1.644540936444784e+18,,,,gyr,1.5453721892273187e-06,-2.971806046308785e-06,0.0,0.00174532923847,0.0,-8.747651229734985e-06,1.3571517629857129e-05,-2.6583256613324326e-05
16,1.64454093644533e+18,0.38245934248,-9.56148338318,0.637432217598,acc,1.5603398891273724e-06,-2.6005664008196893e-06,,,,,1.5116889819084447e-05,-2.9555062659633112e-05
17,1.64454093644734e+18,0.402072638273,-9.53206348419,0.666852176189,acc,1.6245947001150026e-06,-2.69444972890998e-06,,,,,1.667722970821182e-05,-3.21556290604528e-05
18,1.644540936449796e+18,,,,gyr,1.6245947001150026e-06,-2.69444972890998e-06,-0.00174532923847,0.0,0.00349065847695,-0.0,1.667722970821182e-05,-3.21556290604528e-05
19,1.64454093645339e+18,0.343232750893,-9.64974308014,0.735498726368,acc,1.2563376114933558e-05,-2.692151931123958e-05,,,,,1.8301824408326822e-05,-3.4850078789362784e-05
20,1.644540936454808e+18,,,,gyr,1.2562905135253782e-05,-2.69217390967475e-05,0.0,-0.00349065847695,0.0,1.749447168280258e-05,1.8301824408326822e-05,-3.4850078789362784e-05
21,1.6445409364554e+18,0.402072638273,-9.67916297913,0.735498726368,acc,1.624180922415282e-06,-2.971062654147938e-06,,,,,3.0864729543580604e-05,-6.177181788611028e-05
22,1.64454093645742e+18,0.402072638273,-9.70858287811,0.764918684959,acc,1.640773136766678e-06,-3.1214708752189678e-06,,,,,3.248891046599589e-05,-6.474288054025822e-05
23,1.64454093645982e+18,,,,gyr,1.6408004422424407e-06,-3.1214565221883904e-06,0.0,0.00174532923847,0.0,-8.747651229734985e-06,3.248891046599589e-05,-6.474288054025822e-05
24,1.644540936464832e+18,,,,gyr,1.6407731367666779e-06,-3.1214708752189673e-06,-0.00174532923847,-0.00174532923847,-0.00174532923847,8.747651229734985e-06,3.248891046599589e-05,-6.474288054025822e-05
25,1.644540936469842e+18,,,,gyr,1.6407458428513626e-06,-3.1214852218681738e-06,-0.00174532923847,-0.00174532923847,0.0,8.743907498518468e-06,3.248891046599589e-05,-6.474288054025822e-05
26,1.644540936474854e+18,,,,gyr,1.6407185371245471e-06,-3.121499574421133e-06,-0.00349065847695,-0.00174532923847,0.0,8.747651229734985e-06,3.248891046599589e-05,-6.474288054025822e-05
27,1.6445409364798664e+18,,,,gyr,1.6407458441534393e-06,-3.121485221183763e-06,-0.00349065847695,0.00174532923847,0.00174532923847,-8.74806836342298e-06,3.248891046599589e-05,-6.474288054025822e-05
28,1.644540936484878e+18,,,,gyr,1.6406912351675513e-06,-3.1215139246877956e-06,-0.00174532923847,-0.00349065847695,-0.00174532923847,1.749447168280258e-05,3.248891046599589e-05,-6.474288054025822e-05
29,1.64454093648989e+18,,,,gyr,1.6406912351675513e-06,-3.1215139246877956e-06,0.0,0.0,0.00349065847695,-0.0,3.248891046599589e-05,-6.474288054025822e-05
30,1.644540936494902e+18,,,,gyr,1.6406912351675513e-06,-3.1215139246877956e-06,-0.00523598771542,0.0,0.00174532923847,-0.0,3.248891046599589e-05,-6.474288054025822e-05
31,1.6445409364999142e+18,,,,gyr,1.6407458467466965e-06,-3.12148521982067e-06,-0.00174532923847,0.00349065847695,-0.00349065847695,-1.7495302459520094e-05,3.248891046599589e-05,-6.474288054025822e-05
32,1.64454093718673e+18,0.362846046686,-9.61051654816,0.764918684959,acc,0.19299527451832557,-0.4068548987543778,,,,,3.412965631274258e-05,-6.78643657600789e-05
33,1.64454093718875e+18,0.38245934248,-9.58109664917,0.735498726368,acc,1.5607354376115246e-06,-3.0014142656763776e-06,,,,,0.19302940417463832,-0.40692276312013786
34,1.64454093719076e+18,0.362846046686,-9.57129001617,0.725692093372,acc,1.4657242764205787e-06,-2.9314485528411574e-06,,,,,0.19303096491007593,-0.40692576453440354
35,1.644540937191549e+18,,,,gyr,1.4586427316266115e-06,-2.9349786462453186e-06,-0.00523598771542,-0.00349065847695,0.0,0.002414260371428139,0.19303096491007593,-0.40692576453440354
36,1.64454093719278e+18,0.38245934248,-9.61051654816,0.696272134781,acc,1.5607354376115246e-06,-2.8413388673619896e-06,,,,,0.19303242355280756,-0.4069286995130498
37,1.6445409371948e+18,0.402072638273,-9.61051654816,0.686465501785,acc,1.640773136766678e-06,-2.801320078590192e-06,,,,,0.19303398428824517,-0.40693154085191713
38,1.6445409371965588e+18,,,,gyr,1.640773136766678e-06,-2.801320078590192e-06,-0.00523598771542,0.0,0.0,-0.0,0.19303398428824517,-0.40693154085191713
39,1.64454093719681e+18,0.402072638273,-9.62032318115,0.686465501785,acc,1.624180922415282e-06,-2.7729919068464536e-06,,,,,0.19303562506138194,-0.4069343421719957
40,1.64454093719882e+18,0.421685934067,-9.62032318115,0.686465501785,acc,1.7038432073886696e-06,-2.773698356600126e-06,,,,,0.19303724924230437,-0.4069371151639026
41,1.64454093720084e+18,0.402072638273,-9.62032318115,0.666852176189,acc,1.6403573037488294e-06,-2.720592583546323e-06,,,,,0.19303895308551175,-0.4069398888622592
42,1.644540937201571e+18,,,,gyr,1.6403573037488294e-06,-2.720592583546323e-06,-0.00174532923847,0.0,0.0,-0.0,0.19303895308551175,-0.4069398888622592
43,1.64454093720285e+18,0.402072638273,-9.61051654816,0.637432217598,acc,1.6245947001150026e-06,-2.575576907795281e-06,,,,,0.1930405934428155,-0.40694260945484273
44,1.64454093720487e+18,0.402072638273,-9.62032318115,0.686465501785,acc,1.6403573037488294e-06,-2.8006101197566777e-06,,,,,0.19304221803751562,-0.40694518503175053
45,1.644540937206583e+18,,,,gyr,1.6404063010188985e-06,-2.800581420780895e-06,-0.00349065847695,0.00349065847695,0.0,-1.7495302459520094e-05,0.19304221803751562,-0.40694518503175053
46,1.64454093720688e+18,0.362846046686,-9.61051654816,0.627625584602,acc,1.4660976855717095e-06,-2.535952714366687e-06,,,,,0.19304385844381663,-0.4069479856131713
47,1.6445409372089e+18,0.343232750893,-9.61051654816,0.637432217598,acc,1.4006600392971364e-06,-2.6012256482727273e-06,,,,,0.1930453245415022,-0.4069505215658857
48,1.64454093721091e+18,0.362846046686,-9.62032318115,0.627625584602,acc,1.4657242764205787e-06,-2.5353068174665696e-06,,,,,0.19304672520154148,-0.40695312279153395
49,1.6445409372115953e+18,,,,gyr,1.4657242764205787e-06,-2.5353068174665696e-06,-0.00349065847695,0.0,0.00523598771542,-0.0,0.19304672520154148,-0.40695312279153395
50,1.64454093721293e+18,0.38245934248,-9.64974308014,0.57859236002,acc,1.5607354376115246e-06,-2.361112672418825e-06,,,,,0.1930481909258179,-0.40695565809835144
51,1.64454093721494e+18,0.38245934248,-9.70858287811,0.57859236002,acc,1.54495259941995e-06,-2.3372360701691245e-06,,,,,0.19304975166125551,-0.40695801921102387
52,1.644540937216607e+18,,,,gyr,1.5449321550057222e-06,-2.3372495841444595e-06,-0.00523598771542,-0.00174532923847,0.0,8.74723584137623e-06,0.19304975166125551,-0.40695801921102387
53,1.64454093721696e+18,0.38245934248,-9.61051654816,0.627625584602,acc,1.5607354376115246e-06,-2.5612068595009303e-06,,,,,0.19305129659341053,-0.406960356460608
54,1.64454093721897e+18,0.402072638273,-9.62032318115,0.666852176189,acc,1.6245947001150026e-06,-2.69444972890998e-06,,,,,0.19305285732884814,-0.4069629176674675
55,1.64454093722099e+18,0.402072638273,-9.64974308014,0.627625584602,acc,1.6403573037488294e-06,-2.5605577542993295e-06,,,,,0.19305448192354827,-0.4069656121171964
56,1.6445409372216192e+18,,,,gyr,1.6403573037488294e-06,-2.5605577542993295e-06,-0.00523598771542,0.0,0.0,-0.0,0.19305448192354827,-0.4069656121171964
57,1.644540937223e+18,0.38245934248,-9.61051654816,0.598205626011,acc,1.5453461928453765e-06,-2.4170798932519884e-06,,,,,0.193056122280852,-0.40696817267495067
58,1.64454093722501e+18,0.38245934248,-9.62032318115,0.627625584602,acc,1.54495259941995e-06,-2.5353068174665696e-06,,,,,0.19305766762704485,-0.4069705897548439
59,1.6445409372266314e+18,,,,gyr,1.54495259941995e-06,-2.5353068174665696e-06,0.0,0.0,0.00174532923847,-0.0,0.19305766762704485,-0.4069705897548439
60,1.64454093722703e+18,0.402072638273,-9.62032318115,0.666852176189,acc,1.640773136766678e-06,-2.7212822578153175e-06,,,,,0.19305921257964426,-0.4069731250616614
61,1.64454093722904e+18,0.402072638273,-9.62032318115,0.637432217598,acc,1.6245947001150026e-06,-2.575576907795281e-06,,,,,0.19306085335278103,-0.4069758463439192
62,1.64454093723106e+18,0.343232750893,-9.62032318115,0.627625584602,acc,1.4003050598803785e-06,-2.5605577542993295e-06,,,,,0.19306247794748116,-0.406978421920827
63,1.6445409372316431e+18,,,,gyr,1.4003050598803785e-06,-2.5605577542993295e-06,0.0,0.0,0.00174532923847,-0.0,0.19306247794748116,-0.406978421920827
64,1.64454093723307e+18,0.402072638273,-9.61051654816,0.598205626011,acc,1.6245947001150026e-06,-2.4170798932519884e-06,,,,,0.19306387825254104,-0.4069809824785813
65,1.64454093723509e+18,0.362846046686,-9.62032318115,0.627625584602,acc,1.4803224745018357e-06,-2.5605577542993295e-06,,,,,0.19306550284724117,-0.4069833995584745
66,1.6445409372366554e+18,,,,gyr,1.4803224745018357e-06,-2.5605577542993295e-06,-0.00523598771542,0.0,0.0,-0.0,0.19306550284724117,-0.4069833995584745
67,1.6445409372371e+18,0.38245934248,-9.62032318115,0.666852176189,acc,1.5453461928453765e-06,-2.69444972890998e-06,,,,,0.19306698316971566,-0.4069859601162288
68,1.64454093723912e+18,0.362846046686,-9.62032318115,0.598205626011,acc,1.4803224745018357e-06,-2.4405315715726955e-06,,,,,0.1930685285159085,-0.4069886545659577
69,1.64454093724113e+18,0.402072638273,-9.66935634613,0.637432217598,acc,1.6245947001150026e-06,-2.575576907795281e-06,,,,,0.193070008838383,-0.40699109509752923
70,1.6445409372416676e+18,,,,gyr,1.6245947001150026e-06,-2.575576907795281e-06,0.0,0.0,0.00349065847695,-0.0,0.193070008838383,-0.40699109509752923
71,1.64454093724315e+18,0.38245934248,-9.61051654816,0.666852176189,acc,1.5607354376115246e-06,-2.7212822578153175e-06,,,,,0.19307163343308312,-0.40699367067443704
72,1.64454093724516e+18,0.362846046686,-9.61051654816,0.686465501785,acc,1.4657242764205787e-06,-2.7729919068464536e-06,,,,,0.19307319416852073,-0.40699639195669485
73,1.6445409372466775e+18,,,,gyr,1.4657242764205787e-06,-2.7729919068464536e-06,0.0,0.0,0.0,-0.0,0.19307319416852073,-0.40699639195669485
74,1.64454093724718e+18,0.38245934248,-9.64974308014,0.637432217598,acc,1.5607354376115246e-06,-2.6012256482727273e-06,,,,,0.19307465989279715,-0.4069991649486017
75,1.64454093724919e+18,0.38245934248,-9.62032318115,0.696272134781,acc,1.54495259941995e-06,-2.812606008153235e-06,,,,,0.19307622062823476,-0.40700176617425
76,1.64454093725121e+18,0.343232750893,-9.64974308014,0.666852176189,acc,1.4006600392971364e-06,-2.7212822578153175e-06,,,,,0.19307776558083417,-0.40700457878025814
77,1.6445409372516915e+18,,,,gyr,1.4006362242229125e-06,-2.7212945154427642e-06,0.0,-0.00174532923847,0.00349065847695,8.751396706280743e-06,0.19307776558083417,-0.40700457878025814
78,1.64454093725322e+18,0.402072638273,-9.66935634613,0.764918684959,acc,1.6245947001150026e-06,-3.0906923856867118e-06,,,,,0.1930791662170584,-0.4070073000747736
79,1.64454093725523e+18,0.362846046686,-9.64974308014,0.725692093372,acc,1.4657242764205787e-06,-2.9314485528411574e-06,,,,,0.19308079081175852,-0.4070103907671593
80,1.6445409372567017e+18,,,,gyr,1.4657242764205787e-06,-2.9314485528411574e-06,0.0,0.0,0.0,-0.0,0.19308079081175852,-0.4070103907671593
81,1.64454093725725e+18,0.38245934248,-9.62032318115,0.725692093372,acc,1.5607354376115246e-06,-2.9613954769045806e-06,,,,,0.19308225653603495,-0.4070133222157121
82,1.64454093725926e+18,0.362846046686,-9.58109664917,0.696272134781,acc,1.4657242764205787e-06,-2.812606008153235e-06,,,,,0.19308381727147256,-0.407016283611189
83,1.64454093726128e+18,0.38245934248,-9.61051654816,0.725692093372,acc,1.5607354376115246e-06,-2.9613954769045806e-06,,,,,0.19308528299574898,-0.4070190962171972
84,1.644540937261714e+18,,,,gyr,1.5606836243924787e-06,-2.9614227832919264e-06,-0.00174532923847,-0.00349065847695,0.00349065847695,1.7496136726896084e-05,0.19308528299574898,-0.4070190962171972
85,1.64454093726329e+18,0.38245934248,-9.61051654816,0.725692093372,acc,1.5453461928453765e-06,-2.932195371143419e-06,,,,,0.19308684367937337,-0.40702205763998045
86,1.64454093726531e+18,0.362846046686,-9.62032318115,0.725692093372,acc,1.4803224745018357e-06,-2.9606449490036714e-06,,,,,0.19308838902556621,-0.40702498983535157
87,1.644540937266726e+18,,,,gyr,1.4803224745018357e-06,-2.9606449490036714e-06,0.0,0.0,0.0,-0.0,0.19308838902556621,-0.40702498983535157
88,1.64454093726732e+18,0.38245934248,-9.62032318115,0.725692093372,acc,1.5453461928453765e-06,-2.932195371143419e-06,,,,,0.1930898693480407,-0.40702795048030055
89,1.64454093726934e+18,0.402072638273,-9.58109664917,0.735498726368,acc,1.6403573037488294e-06,-3.0006535955240307e-06,,,,,0.19309141469423355,-0.40703088267567167
90,1.64454093727135e+18,0.362846046686,-9.58109664917,0.735498726368,acc,1.4660976855717095e-06,-2.971819564572013e-06,,,,,0.1930930550515373,-0.4070338833292672
91,1.644540937271738e+18,,,,gyr,1.4660976855717095e-06,-2.971819564572013e-06,0.0,0.0,0.0,-0.0,0.1930930550515373,-0.4070338833292672
92,1.64454093727336e+18,0.362846046686,-9.58109664917,0.735498726368,acc,1.4657242764205787e-06,-2.971062654147938e-06,,,,,0.19309452114922285,-0.40703685514883176
93,1.64454093727538e+18,0.343232750893,-9.58109664917,0.764918684959,acc,1.4006600392971364e-06,-3.1214708752189678e-06,,,,,0.19309598687349927,-0.4070398262114859
94,1.64454093727675e+18,,,,gyr,1.4006600392971364e-06,-3.1214708752189678e-06,0.0,0.0,0.00523598771542,-0.0,0.19309598687349927,-0.4070398262114859
95,1.64454093727739e+18,0.362846046686,-9.64974308014,0.813951909542,acc,1.4660976855717095e-06,-3.2888135936585997e-06,,,,,0.19309738753353856,-0.4070429476823611
96,1.64454093727941e+18,0.402072638273,-9.62032318115,0.725692093372,acc,1.6403573037488294e-06,-2.9606449490036714e-06,,,,,0.19309885363122412,-0.4070462364959548
97,1.64454093728142e+18,0.38245934248,-9.62032318115,0.735498726368,acc,1.5453461928453765e-06,-2.971819564572013e-06,,,,,0.19310049398852785,-0.40704919714090376
98,1.644540937281762e+18,,,,gyr,1.5452941997267378e-06,-2.9718466004162444e-06,-0.00174532923847,-0.00349065847695,0.0,1.7495302459520094e-05,0.19310049398852785,-0.40704919714090376
99,1.64454093728344e+18,0.343232750893,-9.61051654816,0.725692093372,acc,1.4006600392971364e-06,-2.9613954769045806e-06,,,,,0.1931020392827276,-0.4070521689875042
100,1.64454093728545e+18,0.362846046686,-9.61051654816,0.735498726368,acc,1.4657242764205787e-06,-2.971062654147938e-06,,,,,0.19310343994276688,-0.4070551303829811
101,1.6445409372867743e+18,,,,gyr,1.4657242764205787e-06,-2.971062654147938e-06,-0.00174532923847,0.0,0.0,-0.0,0.19310343994276688,-0.4070551303829811
102,1.64454093728747e+18,0.362846046686,-9.62032318115,0.735498726368,acc,1.4806977384522903e-06,-3.0014142656763776e-06,,,,,0.1931049056670433,-0.4070581014456352
103,1.64454093728948e+18,0.402072638273,-9.66935634613,0.725692093372,acc,1.624180922415282e-06,-2.9314485528411574e-06,,,,,0.19310638636478175,-0.4070611028599009
104,1.6445409372915e+18,0.362846046686,-9.62032318115,0.725692093372,acc,1.4806977384522903e-06,-2.9613954769045806e-06,,,,,0.19310801054570417,-0.4070640343084537
105,1.6445409372917865e+18,,,,gyr,1.4806977384522903e-06,-2.9613954769045806e-06,0.0,0.0,0.0,-0.0,0.19310801054570417,-0.4070640343084537
106,1.64454093729351e+18,0.421685934067,-9.57129001617,0.725692093372,acc,1.7034092454146536e-06,-2.9314485528411574e-06,,,,,0.19310949124344262,-0.4070669957039306
107,1.64454093729552e+18,0.343232750893,-9.61051654816,0.696272134781,acc,1.386849178302083e-06,-2.81332255002872e-06,,,,,0.19311119465268803,-0.40706992715248347
108,1.6445409372967982e+18,,,,gyr,1.386849178302083e-06,-2.81332255002872e-06,-0.00174532923847,0.0,0.00523598771542,-0.0,0.19311119465268803,-0.40706992715248347
109,1.64454093729754e+18,0.362846046686,-9.62032318115,0.725692093372,acc,1.4806977384522903e-06,-2.9613954769045806e-06,,,,,0.19311258150186633,-0.4070727404750335
110,1.64454093729955e+18,0.402072638273,-9.61051654816,0.764918684959,acc,1.624180922415282e-06,-3.0899051988358604e-06,,,,,0.19311406219960478,-0.4070757018705104
111,1.64454093730157e+18,0.38245934248,-9.62032318115,0.696272134781,acc,1.5607354376115246e-06,-2.8413388673619896e-06,,,,,0.1931156863805272,-0.4070787917757092
112,1.6445409373018084e+18,,,,gyr,1.5607105919673683e-06,-2.841352514827968e-06,-0.00349065847695,-0.00174532923847,0.0,8.744322886877223e-06,0.1931156863805272,-0.4070787917757092
113,1.64454093730358e+18,0.362846046686,-9.64974308014,0.686465501785,acc,1.4657242764205787e-06,-2.7729919068464536e-06,,,,,0.19311724709111916,-0.40708163312822404
114,1.6445409373056e+18,0.402072638273,-9.62032318115,0.735498726368,acc,1.640773136766678e-06,-3.0014142656763776e-06,,,,,0.19311871281539558,-0.4070844061201309
115,1.6445409373068206e+18,,,,gyr,1.6407468801267121e-06,-3.0014286191570995e-06,-0.00349065847695,-0.00174532923847,0.0,8.74806836342298e-06,0.19311871281539558,-0.4070844061201309
116,1.64454093730761e+18,0.38245934248,-9.62032318115,0.696272134781,acc,1.5453461928453765e-06,-2.81332255002872e-06,,,,,0.19312035356227572,-0.40708740754875006
117,1.64454093730963e+18,0.38245934248,-9.62032318115,0.666852176189,acc,1.5603398891273724e-06,-2.720592583546323e-06,,,,,0.19312189890846856,-0.4070902208713001
118,1.64454093731164e+18,0.402072638273,-9.58109664917,0.627625584602,acc,1.6245947001150026e-06,-2.535952714366687e-06,,,,,0.1931234592483577,-0.40709294146388364
119,1.6445409373118323e+18,,,,gyr,1.6245947001150026e-06,-2.535952714366687e-06,-0.0069813169539,0.0,0.0,-0.0,0.1931234592483577,-0.40709294146388364
120,1.64454093731366e+18,0.362846046686,-9.62032318115,0.637432217598,acc,1.4803224745018357e-06,-2.6005664008196893e-06,,,,,0.19312508384305782,-0.407095477416598
121,1.64454093731567e+18,0.402072638273,-9.62032318115,0.666852176189,acc,1.6245947001150026e-06,-2.69444972890998e-06,,,,,0.1931265641655323,-0.40709807798299885
122,1.6445409373168448e+18,,,,gyr,1.6245947001150026e-06,-2.69444972890998e-06,-0.00174532923847,0.0,-0.00174532923847,-0.0,0.1931265641655323,-0.40709807798299885
123,1.64454093731768e+18,0.402072638273,-9.62032318115,0.696272134781,acc,1.6245947001150026e-06,-2.81332255002872e-06,,,,,0.19312818876023244,-0.40710077243272774
124,1.6445409373197e+18,0.38245934248,-9.61051654816,0.598205626011,acc,1.5603398891273724e-06,-2.4405315715726955e-06,,,,,0.19312981335493257,-0.4071035857552778
125,1.64454093732172e+18,0.402072638273,-9.64974308014,0.686465501785,acc,1.640773136766678e-06,-2.801320078590192e-06,,,,,0.1931313736948217,-0.40710602628684933
126,1.6445409373218568e+18,,,,gyr,1.640797641674931e-06,-2.8013057255718642e-06,-0.00349065847695,0.00174532923847,0.0,-8.747651229734985e-06,0.1931313736948217,-0.40710602628684933
127,1.64454093732373e+18,0.402072638273,-9.62032318115,0.627625584602,acc,1.624180922415282e-06,-2.5353068174665696e-06,,,,,0.19313301449246337,-0.4071088275925749
128,1.64454093732574e+18,0.402072638273,-9.62032318115,0.686465501785,acc,1.6245947001150026e-06,-2.773698356600126e-06,,,,,0.1931346386733858,-0.40711136289939237
129,1.644540937326869e+18,,,,gyr,1.6245704355499957e-06,-2.773712568559491e-06,-0.00174532923847,-0.00174532923847,0.0,8.74806836342298e-06,0.1931346386733858,-0.40711136289939237
130,1.64454093732776e+18,0.38245934248,-9.61051654816,0.637432217598,acc,1.5603398891273724e-06,-2.6005664008196893e-06,,,,,0.19313626324382133,-0.40711413661196094
131,1.64454093732977e+18,0.38245934248,-9.62032318115,0.637432217598,acc,1.5453461928453765e-06,-2.575576907795281e-06,,,,,0.19313782358371046,-0.4071167371783618
132,1.64454093733179e+18,0.343232750893,-9.62032318115,0.686465501785,acc,1.4006600392971364e-06,-2.801320078590192e-06,,,,,0.1931393689299033,-0.4071193127552696
133,1.6445409373318807e+18,,,,gyr,1.4006600392971364e-06,-2.801320078590192e-06,-0.00174532923847,0.0,0.00523598771542,-0.0,0.1931393689299033,-0.4071193127552696
134,1.6445409373338e+18,0.402072638273,-9.66935634613,0.696272134781,acc,1.624180922415282e-06,-2.812606008153235e-06,,,,,0.19314076958994258,-0.40712211407534815
135,1.64454093733582e+18,0.402072638273,-9.64974308014,0.637432217598,acc,1.640773136766678e-06,-2.6012256482727273e-06,,,,,0.193142393770865,-0.4071249266813563
136,1.6445409373368932e+18,,,,gyr,1.640773136766678e-06,-2.6012256482727273e-06,0.0,0.0,0.00174532923847,-0.0,0.193142393770865,-0.4071249266813563
137,1.64454093733783e+18,0.38245934248,-9.66935634613,0.666852176189,acc,1.54495259941995e-06,-2.693763463461273e-06,,,,,0.19314403454400178,-0.40712752790700457
138,1.64454093733985e+18,0.402072638273,-9.66935634613,0.627625584602,acc,1.640773136766678e-06,-2.5612068595009303e-06,,,,,0.1931455794966012,-0.40713022167046803
139,1.64454093734186e+18,0.402072638273,-9.62032318115,0.686465501785,acc,1.6245947001150026e-06,-2.773698356600126e-06,,,,,0.19314722026973796,-0.4071327828773275
140,1.6445409373419052e+18,,,,gyr,1.6245704367070046e-06,-2.7737125678818284e-06,-0.00174532923847,-0.00174532923847,-0.00174532923847,8.747651229734985e-06,0.19314722026973796,-0.4071327828773275
141,1.64454093734387e+18,0.38245934248,-9.66935634613,0.666852176189,acc,1.54495259941995e-06,-2.693763463461273e-06,,,,,0.19314884484017467,-0.4071355565898954
142,1.64454093734589e+18,0.402072638273,-9.64974308014,0.696272134781,acc,1.640773136766678e-06,-2.8413388673619896e-06,,,,,0.19315038979277407,-0.4071382503533589
143,1.644540937346917e+18,,,,gyr,1.640773136766678e-06,-2.8413388673619896e-06,-0.00174532923847,0.0,0.0,-0.0,0.19315038979277407,-0.4071382503533589
144,1.6445409373479e+18,0.402072638273,-9.66935634613,0.598205626011,acc,1.624180922415282e-06,-2.416464272778648e-06,,,,,0.19315203056591085,-0.40714109169222623
145,1.64454093734992e+18,0.402072638273,-9.64974308014,0.637432217598,acc,1.640773136766678e-06,-2.6012256482727273e-06,,,,,0.19315365474683327,-0.407143508156499
146,1.644540937351929e+18,,,,gyr,1.6407503820846203e-06,-2.601240001087214e-06,0.0,-0.00174532923847,0.0,8.747652975064225e-06,0.19315365474683327,-0.407143508156499
147,1.64454093735194e+18,0.402072638273,-9.64974308014,0.637432217598,acc,1.640773136766678e-06,-2.6012256482727273e-06,,,,,0.19315529549721536,-0.4071461093965001
148,1.64454093735395e+18,0.402072638273,-9.58109664917,0.686465501785,acc,1.624180922415282e-06,-2.7729919068464536e-06,,,,,0.19315693627035213,-0.40714871062214836
149,1.64454093735596e+18,0.362846046686,-9.62032318115,0.637432217598,acc,1.4660976855717095e-06,-2.575576907795281e-06,,,,,0.19315856045127455,-0.40715148361405523
150,1.6445409373569393e+18,,,,gyr,1.4660976855717095e-06,-2.575576907795281e-06,0.0,0.0,0.0,-0.0,0.19315856045127455,-0.40715148361405523
151,1.64454093735798e+18,0.421685934067,-9.66935634613,0.686465501785,acc,1.720374718374366e-06,-2.8006101197566777e-06,,,,,0.1931600265489601,-0.40715405919096304
152,1.64454093735999e+18,0.38245934248,-9.62032318115,0.686465501785,acc,1.5453461928453765e-06,-2.773698356600126e-06,,,,,0.1931617469236785,-0.4071568598010828
153,1.6445409373619512e+18,,,,gyr,1.5453461928453765e-06,-2.773698356600126e-06,0.0,0.0,0.0,-0.0,0.1931617469236785,-0.4071568598010828
154,1.64454093736201e+18,0.362846046686,-9.61051654816,0.725692093372,acc,1.4806977384522903e-06,-2.9613954769045806e-06,,,,,0.19316329226987133,-0.4071596334994394
155,1.64454093736402e+18,0.362846046686,-9.64974308014,0.686465501785,acc,1.4657242764205787e-06,-2.7729919068464536e-06,,,,,0.19316477296760978,-0.4071625948949163
156,1.64454093736604e+18,0.362846046686,-9.61051654816,0.735498726368,acc,1.4806977384522903e-06,-3.0014142656763776e-06,,,,,0.1931662386918862,-0.40716536788682317
157,1.6445409373669635e+18,,,,gyr,1.4806977384522903e-06,-3.0014142656763776e-06,0.0,0.0,0.0,-0.0,0.1931662386918862,-0.40716536788682317
158,1.64454093736805e+18,0.402072638273,-9.62032318115,0.696272134781,acc,1.624180922415282e-06,-2.812606008153235e-06,,,,,0.19316771938962465,-0.40716836930108885
159,1.64454093737007e+18,0.38245934248,-9.64974308014,0.686465501785,acc,1.5607354376115246e-06,-2.801320078590192e-06,,,,,0.19316934357054708,-0.407171181907097
160,1.6445409373719757e+18,,,,gyr,1.5607354376115246e-06,-2.801320078590192e-06,-0.00174532923847,0.0,0.00523598771542,-0.0,0.19316934357054708,-0.407171181907097
161,1.64454093737208e+18,0.38245934248,-9.66935634613,0.696272134781,acc,1.5453461928453765e-06,-2.81332255002872e-06,,,,,0.1931709043059847,-0.4071739832271756
162,1.64454093737409e+18,0.343232750893,-9.58109664917,0.686465501785,acc,1.3864959534252466e-06,-2.7729919068464536e-06,,,,,0.19317244965217753,-0.4071767965497256
163,1.64454093737611e+18,0.402072638273,-9.61051654816,0.735498726368,acc,1.640773136766678e-06,-3.0014142656763776e-06,,,,,0.19317383614813097,-0.4071795695416325
164,1.6445409373769874e+18,,,,gyr,1.6407206283587169e-06,-3.0014429696762543e-06,0.0,-0.00349065847695,0.0,1.749447168280258e-05,0.19317383614813097,-0.4071795695416325
165,1.64454093737812e+18,0.38245934248,-9.61051654816,0.725692093372,acc,1.54495259941995e-06,-2.9314485528411574e-06,,,,,0.19317547686875933,-0.40718257098460214
166,1.64454093738014e+18,0.402072638273,-9.62032318115,0.735498726368,acc,1.640773136766678e-06,-3.0014142656763776e-06,,,,,0.19317702182135874,-0.407185502433155
167,1.6445409373819996e+18,,,,gyr,1.6407993932810778e-06,-3.0013999119659614e-06,-0.00174532923847,0.00174532923847,-0.00174532923847,-8.74806836342298e-06,0.19317702182135874,-0.407185502433155
168,1.64454093738215e+18,0.362846046686,-9.64974308014,0.735498726368,acc,1.4657242764205787e-06,-2.971062654147938e-06,,,,,0.193178662620752,-0.40718850383306693
169,1.64454093738417e+18,0.38245934248,-9.57129001617,0.725692093372,acc,1.5607354376115246e-06,-2.9613954769045806e-06,,,,,0.19318012834502843,-0.40719147489572105
170,1.64454093738618e+18,0.362846046686,-9.61051654816,0.725692093372,acc,1.4660976855717095e-06,-2.932195371143419e-06,,,,,0.19318168908046604,-0.40719443629119795
171,1.6445409373870118e+18,,,,gyr,1.466046385702448e-06,-2.9322210205171107e-06,-0.00174532923847,-0.00349065847695,-0.00174532923847,1.7495302459520094e-05,0.19318168908046604,-0.40719443629119795
172,1.6445409373882e+18,0.343232750893,-9.64974308014,0.696272134781,acc,1.4003050598803785e-06,-2.8406187662770374e-06,,,,,0.19318315512685175,-0.40719736851221844
173,1.64454093739021e+18,0.362846046686,-9.64974308014,0.725692093372,acc,1.4660976855717095e-06,-2.932195371143419e-06,,,,,0.19318455543191163,-0.4072002091309847
174,1.644540937392024e+18,,,,gyr,1.465995080491895e-06,-2.9322466714393556e-06,0.0,-0.0069813169539,0.00349065847695,3.499227345379217e-05,0.19318455543191163,-0.4072002091309847
175,1.64454093739223e+18,0.38245934248,-9.61051654816,0.725692093372,acc,1.5603398891273724e-06,-2.9606449490036714e-06,,,,,0.19318602142699212,-0.4072031413776561
176,1.64454093739424e+18,0.362846046686,-9.61051654816,0.696272134781,acc,1.4660976855717095e-06,-2.81332255002872e-06,,,,,0.19318758176688125,-0.4072061020226051
177,1.64454093739626e+18,0.362846046686,-9.64974308014,0.764918684959,acc,1.4806977384522903e-06,-3.1214708752189678e-06,,,,,0.1931890478645668,-0.40720891534515513
178,1.6445409373970358e+18,,,,gyr,1.4806977384522903e-06,-3.1214708752189678e-06,0.0,0.0,0.0,-0.0,0.1931890478645668,-0.40720891534515513
179,1.64454093739827e+18,0.38245934248,-9.61051654816,0.696272134781,acc,1.54495259941995e-06,-2.812606008153235e-06,,,,,0.19319052856230526,-0.40721203681603035
180,1.64454093740029e+18,0.38245934248,-9.64974308014,0.696272134781,acc,1.5607354376115246e-06,-2.8413388673619896e-06,,,,,0.19319207351490467,-0.4072148494220385
181,1.6445409374020477e+18,,,,gyr,1.5607354376115246e-06,-2.8413388673619896e-06,-0.00349065847695,0.0,0.00349065847695,-0.0,0.19319207351490467,-0.4072148494220385
182,1.6445409374023e+18,0.362846046686,-9.61051654816,0.735498726368,acc,1.4657242764205787e-06,-2.971062654147938e-06,,,,,0.19319363425034228,-0.40721769076090586
183,1.64454093740431e+18,0.421685934067,-9.58109664917,0.725692093372,acc,1.7038432073886696e-06,-2.932195371143419e-06,,,,,0.1931950999746187,-0.40722066182356
184,1.64454093740633e+18,0.38245934248,-9.64974308014,0.696272134781,acc,1.5607354376115246e-06,-2.8413388673619896e-06,,,,,0.19319680381782608,-0.4072235940189311
185,1.6445409374070574e+18,,,,gyr,1.5607354376115246e-06,-2.8413388673619896e-06,-0.00174532923847,0.0,0.0,-0.0,0.19319680381782608,-0.4072235940189311
186,1.64454093740834e+18,0.38245934248,-9.62032318115,0.686465501785,acc,1.54495259941995e-06,-2.7729919068464536e-06,,,,,0.1931983645532637,-0.40722643535779846
187,1.64454093741036e+18,0.402072638273,-9.61051654816,0.735498726368,acc,1.640773136766678e-06,-3.0014142656763776e-06,,,,,0.1931999095058631,-0.40722920834970533
188,1.644540937412069e+18,,,,gyr,1.640773136766678e-06,-3.0014142656763776e-06,-0.00174532923847,0.0,0.0,-0.0,0.1931999095058631,-0.40722920834970533
189,1.64454093741237e+18,0.38245934248,-9.62032318115,0.725692093372,acc,1.54495259941995e-06,-2.9314485528411574e-06,,,,,0.19320155027899988,-0.407232209763971
190,1.64454093741439e+18,0.38245934248,-9.58109664917,0.686465501785,acc,1.5607354376115246e-06,-2.801320078590192e-06,,,,,0.1932030952315993,-0.40723514121252385
191,1.6445409374164e+18,0.38245934248,-9.58109664917,0.725692093372,acc,1.54495259941995e-06,-2.9314485528411574e-06,,,,,0.1932046559670369,-0.4072379425326024
192,1.6445409374170808e+18,,,,gyr,1.54495259941995e-06,-2.9314485528411574e-06,-0.00174532923847,0.0,-0.00523598771542,-0.0,0.1932046559670369,-0.4072379425326024
193,1.64454093741841e+18,0.362846046686,-9.58109664917,0.696272134781,acc,1.4660976855717095e-06,-2.81332255002872e-06,,,,,0.1932062009196363,-0.40724087398115527
194,1.64454093742043e+18,0.38245934248,-9.57129001617,0.637432217598,acc,1.5607354376115246e-06,-2.6012256482727273e-06,,,,,0.19320766701732187,-0.4072436873037053
195,1.6445409374220925e+18,,,,gyr,1.5607354376115246e-06,-2.6012256482727273e-06,-0.00174532923847,0.0,0.0,-0.0,0.19320766701732187,-0.4072436873037053
196,1.64454093742244e+18,0.38245934248,-9.61051654816,0.696272134781,acc,1.54495259941995e-06,-2.812606008153235e-06,,,,,0.19320922775275948,-0.4072462885293536
197,1.64454093742446e+18,0.38245934248,-9.67916297913,0.725692093372,acc,1.5607354376115246e-06,-2.9613954769045806e-06,,,,,0.19321077270535889,-0.4072491011353617
198,1.64454093742647e+18,0.38245934248,-9.62032318115,0.686465501785,acc,1.54495259941995e-06,-2.7729919068464536e-06,,,,,0.1932123334407965,-0.4072520625308386
199,1.6445409374271043e+18,,,,gyr,1.5449768553750398e-06,-2.7729783926756163e-06,0.0,0.00174532923847,0.0,-8.74723584137623e-06,0.1932123334407965,-0.4072520625308386
200,1.64454093742849e+18,0.362846046686,-9.61051654816,0.666852176189,acc,1.4806977384522903e-06,-2.7212822578153175e-06,,,,,0.19321387841765186,-0.4072548355092313
201,1.6445409374305e+18,0.38245934248,-9.58109664917,0.696272134781,acc,1.5453461928453765e-06,-2.81332255002872e-06,,,,,0.1932153591153903,-0.4072575567914891
202,1.644540937432116e+18,,,,gyr,1.5453215839904135e-06,-2.8133360674286955e-06,-0.00174532923847,-0.00174532923847,0.0,8.74723584137623e-06,0.1932153591153903,-0.4072575567914891
203,1.64454093743252e+18,0.38245934248,-9.62032318115,0.598205626011,acc,1.5603398891273724e-06,-2.4405315715726955e-06,,,,,0.1932169044369743,-0.40726037012755656
204,1.64454093743453e+18,0.402072638273,-9.62032318115,0.666852176189,acc,1.6245947001150026e-06,-2.69444972890998e-06,,,,,0.19321846477686344,-0.4072628106591281
205,1.64454093743655e+18,0.362846046686,-9.64974308014,0.686465501785,acc,1.4803224745018357e-06,-2.8006101197566777e-06,,,,,0.19322008937156357,-0.407265505108857
206,1.6445409374371277e+18,,,,gyr,1.4803469708741964e-06,-2.800597171537232e-06,-0.00523598771542,0.00174532923847,0.0,-8.746818707688236e-06,0.19322008937156357,-0.407265505108857
207,1.64454093743856e+18,0.362846046686,-9.61051654816,0.666852176189,acc,1.4660976855717095e-06,-2.69444972890998e-06,,,,,0.19322156971853444,-0.40726830570602857
208,1.64454093744057e+18,0.402072638273,-9.62032318115,0.735498726368,acc,1.6245947001150026e-06,-2.971819564572013e-06,,,,,0.19322303581622,-0.40727100015575746
209,1.6445409374421394e+18,,,,gyr,1.6245947001150026e-06,-2.971819564572013e-06,0.0,0.0,0.00174532923847,-0.0,0.19322303581622,-0.40727100015575746
210,1.64454093744259e+18,0.402072638273,-9.61051654816,0.637432217598,acc,1.6403573037488294e-06,-2.6005664008196893e-06,,,,,0.19322466041092012,-0.407273971975322
211,1.6445409374446e+18,0.362846046686,-9.57129001617,0.637432217598,acc,1.4660976855717095e-06,-2.575576907795281e-06,,,,,0.19322630076822386,-0.40727657254172284
212,1.64454093744662e+18,0.402072638273,-9.64974308014,0.686465501785,acc,1.6403573037488294e-06,-2.8006101197566777e-06,,,,,0.19322776686590942,-0.40727914811863064
213,1.644540937447151e+18,,,,gyr,1.6403818012832912e-06,-2.8005957710573347e-06,-0.00174532923847,0.00174532923847,0.0,-8.74723584137623e-06,0.19322776686590942,-0.40727914811863064
214,1.64454093744863e+18,0.402072638273,-9.64974308014,0.686465501785,acc,1.6245947001150026e-06,-2.773698356600126e-06,,,,,0.1932294072477107,-0.4072819487144017
215,1.64454093745065e+18,0.402072638273,-9.64974308014,0.666852176189,acc,1.640773136766678e-06,-2.7212822578153175e-06,,,,,0.19323103184241083,-0.4072847224127583
216,1.6445409374521608e+18,,,,gyr,1.640773136766678e-06,-2.7212822578153175e-06,0.0,0.0,0.0,-0.0,0.19323103184241083,-0.4072847224127583
217,1.64454093745266e+18,0.402072638273,-9.64974308014,0.686465501785,acc,1.624180922415282e-06,-2.7729919068464536e-06,,,,,0.1932326726155476,-0.4072874436950161
218,1.64454093745468e+18,0.402072638273,-9.62032318115,0.57859236002,acc,1.640773136766678e-06,-2.361112672418825e-06,,,,,0.19323429679647003,-0.407290216686923
219,1.64454093745669e+18,0.38245934248,-9.66935634613,0.666852176189,acc,1.54495259941995e-06,-2.693763463461273e-06,,,,,0.1932359375696068,-0.40729257779959543
220,1.644540937457173e+18,,,,gyr,1.54495259941995e-06,-2.693763463461273e-06,0.0,0.0,0.0,-0.0,0.1932359375696068,-0.40729257779959543
221,1.64454093745871e+18,0.362846046686,-9.64974308014,0.686465501785,acc,1.4806977384522903e-06,-2.801320078590192e-06,,,,,0.1932374825222062,-0.4072952715630589
222,1.64454093746072e+18,0.402072638273,-9.64974308014,0.637432217598,acc,1.6245947001150026e-06,-2.575576907795281e-06,,,,,0.19323896321994466,-0.40729807288313746
223,1.644540937462185e+18,,,,gyr,1.62457216980434e-06,-2.575591119084564e-06,-0.00349065847695,-0.00174532923847,0.00523598771542,8.747651229734985e-06,0.19323896321994466,-0.40729807288313746
224,1.64454093746274e+18,0.402072638273,-9.64974308014,0.686465501785,acc,1.6403573037488294e-06,-2.8006101197566777e-06,,,,,0.19324058779211448,-0.40730064847425657
225,1.64454093746475e+18,0.402072638273,-9.66935634613,0.686465501785,acc,1.6245947001150026e-06,-2.773698356600126e-06,,,,,0.19324222814941822,-0.4073034490843763
226,1.64454093746677e+18,0.402072638273,-9.64974308014,0.666852176189,acc,1.6403573037488294e-06,-2.720592583546323e-06,,,,,0.19324385274411834,-0.40730622278273293
227,1.6445409374671967e+18,,,,gyr,1.6403573037488294e-06,-2.720592583546323e-06,-0.00349065847695,0.0,0.00174532923847,-0.0,0.19324385274411834,-0.40730622278273293
228,1.64454093746878e+18,0.421685934067,-9.58109664917,0.686465501785,acc,1.7038432073886696e-06,-2.773698356600126e-06,,,,,0.19324549310142208,-0.4073089433753165
229,1.64454093747079e+18,0.402072638273,-9.62032318115,0.627625584602,acc,1.624180922415282e-06,-2.5353068174665696e-06,,,,,0.19324719694462947,-0.4073117170736731
230,1.6445409374722084e+18,,,,gyr,1.6241587454264832e-06,-2.5353210244631535e-06,0.0,-0.00174532923847,0.0,8.74723584137623e-06,0.19324719694462947,-0.4073117170736731
231,1.64454093747281e+18,0.421685934067,-9.66935634613,0.666852176189,acc,1.7208108359259126e-06,-2.7212822578153175e-06,,,,,0.1932488211033749,-0.40731425239469754
232,1.64454093747482e+18,0.402072638273,-9.62032318115,0.696272134781,acc,1.6245947001150026e-06,-2.81332255002872e-06,,,,,0.19325054191421084,-0.40731697367695535
233,1.64454093747684e+18,0.402072638273,-9.62032318115,0.696272134781,acc,1.6403573037488294e-06,-2.8406187662770374e-06,,,,,0.19325216650891097,-0.4073197869995054
234,1.6445409374772206e+18,,,,gyr,1.6403573037488294e-06,-2.8406187662770374e-06,-0.00523598771542,0.0,0.0,-0.0,0.19325216650891097,-0.4073197869995054
235,1.64454093747885e+18,0.38245934248,-9.62032318115,0.686465501785,acc,1.5453461928453765e-06,-2.773698356600126e-06,,,,,0.1932538068662147,-0.40732262761827165
236,1.64454093748087e+18,0.402072638273,-9.66935634613,0.696272134781,acc,1.6403573037488294e-06,-2.8406187662770374e-06,,,,,0.19325535221240756,-0.40732540131662825
237,1.6445409374822323e+18,,,,gyr,1.6403573037488294e-06,-2.8406187662770374e-06,0.0,0.0,0.00349065847695,-0.0,0.19325535221240756,-0.40732540131662825
238,1.64454093748288e+18,0.362846046686,-9.66935634613,0.725692093372,acc,1.4660976855717095e-06,-2.932195371143419e-06,,,,,0.1932569925697113,-0.4073282419353945
239,1.6445409374849e+18,0.362846046686,-9.62032318115,0.686465501785,acc,1.4806977384522903e-06,-2.801320078590192e-06,,,,,0.19325845866739685,-0.40733117413076564
240,1.64454093748691e+18,0.402072638273,-9.61051654816,0.735498726368,acc,1.624180922415282e-06,-2.971062654147938e-06,,,,,0.1932599393651353,-0.4073339754508442
241,1.6445409374872443e+18,,,,gyr,1.6242069121782049e-06,-2.971048446263185e-06,0.0,0.00174532923847,0.0,-8.747652975064225e-06,0.1932599393651353,-0.4073339754508442
242,1.64454093748893e+18,0.402072638273,-9.64974308014,0.696272134781,acc,1.640773136766678e-06,-2.8413388673619896e-06,,,,,0.1932615635720475,-0.4073369464992905
243,1.64454093749094e+18,0.362846046686,-9.64974308014,0.696272134781,acc,1.4657242764205787e-06,-2.812606008153235e-06,,,,,0.19326320434518426,-0.40733978783815783
244,1.6445409374922565e+18,,,,gyr,1.4657242764205787e-06,-2.812606008153235e-06,0.0,0.0,0.00523598771542,-0.0,0.19326320434518426,-0.40733978783815783
245,1.64454093749296e+18,0.402072638273,-9.62032318115,0.725692093372,acc,1.640773136766678e-06,-2.9613954769045806e-06,,,,,0.1932646700694607,-0.407342600444166
246,1.64454093749497e+18,0.402072638273,-9.61051654816,0.725692093372,acc,1.6245947001150026e-06,-2.932195371143419e-06,,,,,0.19326631084259746,-0.4073455618396429
247,1.64454093749698e+18,0.38245934248,-9.64974308014,0.735498726368,acc,1.54495259941995e-06,-2.971062654147938e-06,,,,,0.1932679354372976,-0.407348494035014
248,1.6445409374972682e+18,,,,gyr,1.54495259941995e-06,-2.971062654147938e-06,-0.00349065847695,0.0,0.0,-0.0,0.1932679354372976,-0.407348494035014
249,1.644540937499e+18,0.402072638273,-9.62032318115,0.686465501785,acc,1.640773136766678e-06,-2.801320078590192e-06,,,,,0.193269480389897,-0.4073514650976681
250,1.64454093750101e+18,0.38245934248,-9.62032318115,0.725692093372,acc,1.54495259941995e-06,-2.9314485528411574e-06,,,,,0.19327112116303377,-0.4073542664177467
251,1.64454093750228e+18,,,,gyr,1.54495259941995e-06,-2.9314485528411574e-06,0.0,0.0,0.00174532923847,-0.0,0.19327112116303377,-0.4073542664177467
252,1.64454093750303e+18,0.362846046686,-9.64974308014,0.686465501785,acc,1.4806977384522903e-06,-2.801320078590192e-06,,,,,0.19327266611563318,-0.40735719786629954
253,1.64454093750504e+18,0.38245934248,-9.61051654816,0.764918684959,acc,1.54495259941995e-06,-3.0899051988358604e-06,,,,,0.19327414681337163,-0.4073599991863781
254,1.64454093750706e+18,0.402072638273,-9.62032318115,0.725692093372,acc,1.640773136766678e-06,-2.9613954769045806e-06,,,,,0.19327569176597104,-0.4073630890915769
255,1.64454093750729e+18,,,,gyr,1.6407472413057033e-06,-2.9614098242414533e-06,-0.00174532923847,-0.00174532923847,0.0,8.744322886877223e-06,0.19327569176597104,-0.4073630890915769
256,1.64454093750907e+18,0.38245934248,-9.62032318115,0.696272134781,acc,1.5453461928453765e-06,-2.81332255002872e-06,,,,,0.19327733251321233,-0.4073660505014012
257,1.64454093751109e+18,0.402072638273,-9.58109664917,0.666852176189,acc,1.6403573037488294e-06,-2.720592583546323e-06,,,,,0.19327887785940517,-0.4073688638239512
258,1.6445409375123018e+18,,,,gyr,1.6403811013510305e-06,-2.7205782348500415e-06,0.00174532923847,0.00174532923847,0.0,-8.74723584137623e-06,0.19327887785940517,-0.4073688638239512
259,1.6445409375131e+18,0.402072638273,-9.62032318115,0.696272134781,acc,1.6245947001150026e-06,-2.81332255002872e-06,,,,,0.19328051824050652,-0.40737158440218607
260,1.64454093751512e+18,0.38245934248,-9.64974308014,0.764918684959,acc,1.5607354376115246e-06,-3.1214708752189678e-06,,,,,0.19328214283520664,-0.4073743977247361
261,1.64454093751713e+18,0.402072638273,-9.62032318115,0.735498726368,acc,1.624180922415282e-06,-2.971062654147938e-06,,,,,0.19328370357064426,-0.4073775191956113
262,1.644540937517314e+18,,,,gyr,1.6241549325332598e-06,-2.971076861802506e-06,-0.00523598771542,-0.00174532923847,0.00523598771542,8.747651229734985e-06,0.19328370357064426,-0.4073775191956113
263,1.64454093751915e+18,0.362846046686,-9.58109664917,0.764918684959,acc,1.4806977384522903e-06,-3.1214708752189678e-06,,,,,0.1932853277255768,-0.40738049027247314
264,1.64454093752116e+18,0.402072638273,-9.58109664917,0.666852176189,acc,1.624180922415282e-06,-2.693763463461273e-06,,,,,0.19328680842331525,-0.40738361174334836
265,1.644540937522326e+18,,,,gyr,1.6241573582451645e-06,-2.6937776711292855e-06,-0.00174532923847,-0.00174532923847,0.00174532923847,8.747652975064225e-06,0.19328680842331525,-0.40738361174334836
266,1.64454093752318e+18,0.38245934248,-9.62032318115,0.725692093372,acc,1.5607354376115246e-06,-2.9613954769045806e-06,,,,,0.1932884325806735,-0.4073863055210195
267,1.64454093752519e+18,0.343232750893,-9.62032318115,0.725692093372,acc,1.3864959534252466e-06,-2.9314485528411574e-06,,,,,0.1932899933161111,-0.4073892669164964
268,1.6445409375272e+18,0.362846046686,-9.62032318115,0.686465501785,acc,1.4660976855717095e-06,-2.773698356600126e-06,,,,,0.19329137981206454,-0.40739219836504925
269,1.6445409375273375e+18,,,,gyr,1.4660976855717095e-06,-2.773698356600126e-06,-0.00349065847695,0.0,0.0,-0.0,0.19329137981206454,-0.40739219836504925
270,1.64454093752922e+18,0.38245934248,-9.58109664917,0.666852176189,acc,1.5607354376115246e-06,-2.7212822578153175e-06,,,,,0.1932928459097501,-0.40739497206340586
271,1.64454093753123e+18,0.38245934248,-9.61051654816,0.686465501785,acc,1.54495259941995e-06,-2.7729919068464536e-06,,,,,0.1932944066451877,-0.40739769334566367
272,1.6445409375323497e+18,,,,gyr,1.5449768565269025e-06,-2.7729783920338508e-06,0.0,0.00174532923847,0.0,-8.747651229734985e-06,0.1932944066451877,-0.40739769334566367
273,1.64454093753325e+18,0.343232750893,-9.66935634613,0.696272134781,acc,1.4006600392971364e-06,-2.8413388673619896e-06,,,,,0.19329595162204424,-0.4074004663240557
274,1.64454093753526e+18,0.313812792301,-9.62032318115,0.764918684959,acc,1.2676534087332848e-06,-3.0899051988358604e-06,,,,,0.19329735228208353,-0.40740330766292304
275,1.64454093753728e+18,0.38245934248,-9.64974308014,0.666852176189,acc,1.5607354376115246e-06,-2.7212822578153175e-06,,,,,0.19329861993549227,-0.40740639756812186
276,1.6445409375373617e+18,,,,gyr,1.5607354376115246e-06,-2.7212822578153175e-06,-0.00174532923847,0.0,0.00174532923847,-0.0,0.19329861993549227,-0.40740639756812186
277,1.64454093753929e+18,0.38245934248,-9.64974308014,0.666852176189,acc,1.5453461928453765e-06,-2.69444972890998e-06,,,,,0.19330018067092988,-0.40740911885037967
278,1.64454093754131e+18,0.38245934248,-9.61051654816,0.696272134781,acc,1.5603398891273724e-06,-2.8406187662770374e-06,,,,,0.19330172601712273,-0.40741181330010856
279,1.6445409375423734e+18,,,,gyr,1.5603150415053946e-06,-2.8406324148293664e-06,-0.00174532923847,-0.00174532923847,-0.00174532923847,8.74723584137623e-06,0.19330172601712273,-0.40741181330010856
280,1.64454093754332e+18,0.362846046686,-9.64974308014,0.686465501785,acc,1.4660976855717095e-06,-2.773698356600126e-06,,,,,0.19330328633216423,-0.4074146539325234
281,1.64454093754534e+18,0.402072638273,-9.61051654816,0.696272134781,acc,1.6403573037488294e-06,-2.8406187662770374e-06,,,,,0.1933047524298498,-0.40741742763088
282,1.64454093754735e+18,0.38245934248,-9.62032318115,0.735498726368,acc,1.5453461928453765e-06,-2.971819564572013e-06,,,,,0.19330639278715353,-0.4074202682496463
283,1.6445409375473853e+18,,,,gyr,1.5453461928453765e-06,-2.971819564572013e-06,-0.00349065847695,0.0,0.0,-0.0,0.19330639278715353,-0.4074202682496463
284,1.64454093754937e+18,0.362846046686,-9.61051654816,0.686465501785,acc,1.4806977384522903e-06,-2.801320078590192e-06,,,,,0.19330793813334637,-0.4074232400692108
285,1.64454093755138e+18,0.38245934248,-9.58109664917,0.686465501785,acc,1.54495259941995e-06,-2.7729919068464536e-06,,,,,0.19330941883108482,-0.4074260413892894
286,1.6445409375523976e+18,,,,gyr,1.54495259941995e-06,-2.7729919068464536e-06,0.0,0.0,0.00174532923847,-0.0,0.19330941883108482,-0.4074260413892894
287,1.6445409375534e+18,0.38245934248,-9.61051654816,0.637432217598,acc,1.5607354376115246e-06,-2.6012256482727273e-06,,,,,0.19331096378368423,-0.40742881438119627
288,1.64454093755541e+18,0.38245934248,-9.64974308014,0.666852176189,acc,1.54495259941995e-06,-2.693763463461273e-06,,,,,0.19331252451912184,-0.40743141560684454
289,1.6445409375574072e+18,,,,gyr,1.54495259941995e-06,-2.693763463461273e-06,0.0,0.0,0.0,-0.0,0.19331252451912184,-0.40743141560684454
290,1.64454093755742e+18,0.402072638273,-9.64974308014,0.637432217598,acc,1.6245947001150026e-06,-2.575576907795281e-06,,,,,0.19331406947172125,-0.407434109370308
291,1.64454093755944e+18,0.38245934248,-9.57129001617,0.666852176189,acc,1.5603398891273724e-06,-2.720592583546323e-06,,,,,0.19331569406642138,-0.4074366849472158
292,1.64454093756145e+18,0.362846046686,-9.62032318115,0.666852176189,acc,1.4660976855717095e-06,-2.69444972890998e-06,,,,,0.1933172544063105,-0.40743940553979935
293,1.6445409375624192e+18,,,,gyr,1.4661212556221e-06,-2.6944369038956667e-06,0.00174532923847,0.00174532923847,0.0,-8.747651229734985e-06,0.1933172544063105,-0.40743940553979935
294,1.64454093756347e+18,0.402072638273,-9.62032318115,0.696272134781,acc,1.640773136766678e-06,-2.8413388673619896e-06,,,,,0.19331872052756613,-0.4074420999767032
295,1.64454093756548e+18,0.343232750893,-9.62032318115,0.696272134781,acc,1.3864959534252466e-06,-2.812606008153235e-06,,,,,0.1933203613007029,-0.4074449413155706
296,1.6445409375674312e+18,,,,gyr,1.3864959534252466e-06,-2.812606008153235e-06,-0.00174532923847,0.0,-0.00174532923847,-0.0,0.1933203613007029,-0.4074449413155706
297,1.6445409375675e+18,0.343232750893,-9.61051654816,0.686465501785,acc,1.4006600392971364e-06,-2.801320078590192e-06,,,,,0.19332174779665634,-0.4074477539215787
298,1.64454093756951e+18,0.38245934248,-9.61051654816,0.725692093372,acc,1.54495259941995e-06,-2.9314485528411574e-06,,,,,0.19332314845669563,-0.4074505552416573
299,1.64454093757153e+18,0.38245934248,-9.62032318115,0.696272134781,acc,1.5607354376115246e-06,-2.8413388673619896e-06,,,,,0.19332469340929503,-0.40745348669021014
300,1.6445409375724431e+18,,,,gyr,1.5607354376115246e-06,-2.8413388673619896e-06,-0.00174532923847,0.0,0.0,-0.0,0.19332469340929503,-0.40745348669021014
301,1.64454093757354e+18,0.362846046686,-9.61051654816,0.666852176189,acc,1.4660976855717095e-06,-2.69444972890998e-06,,,,,0.19332625414473265,-0.4074563280290775
302,1.64454093757556e+18,0.38245934248,-9.62032318115,0.735498726368,acc,1.5603398891273724e-06,-3.0006535955240307e-06,,,,,0.1933277202424182,-0.4074590224788064
303,1.644540937577455e+18,,,,gyr,1.5602611425610278e-06,-3.0006945424263814e-06,-0.00349065847695,-0.00523598771542,0.00174532923847,2.6242958925242797e-05,0.1933277202424182,-0.4074590224788064
304,1.64454093757757e+18,0.38245934248,-9.62032318115,0.686465501785,acc,1.5453461928453765e-06,-2.773698356600126e-06,,,,,0.19332928050356077,-0.4074620231733488
305,1.64454093757959e+18,0.402072638273,-9.58109664917,0.735498726368,acc,1.6403573037488294e-06,-3.0006535955240307e-06,,,,,0.1933308258497536,-0.4074647968717054
306,1.6445409375816e+18,0.362846046686,-9.64974308014,0.735498726368,acc,1.4660976855717095e-06,-2.971819564572013e-06,,,,,0.19333246620705735,-0.40746779752530093
307,1.644540937582467e+18,,,,gyr,1.4660976855717095e-06,-2.971819564572013e-06,0.0,0.0,0.0,-0.0,0.19333246620705735,-0.40746779752530093
308,1.64454093758362e+18,0.402072638273,-9.62032318115,0.725692093372,acc,1.640773136766678e-06,-2.9613954769045806e-06,,,,,0.1933339323047429,-0.4074707693448655
309,1.64454093758563e+18,0.38245934248,-9.61051654816,0.725692093372,acc,1.54495259941995e-06,-2.9314485528411574e-06,,,,,0.19333557307787969,-0.4074737307403424
310,1.6445409375874788e+18,,,,gyr,1.5448500301868906e-06,-2.931502607305772e-06,-0.00174532923847,-0.0069813169539,0.0,3.498894336560516e-05,0.19333557307787969,-0.4074737307403424
311,1.64454093758765e+18,0.38245934248,-9.58109664917,0.696272134781,acc,1.5607354376115246e-06,-2.8413388673619896e-06,,,,,0.19333711792790986,-0.4074766622429497
312,1.64454093758966e+18,0.38245934248,-9.64974308014,0.686465501785,acc,1.54495259941995e-06,-2.7729919068464536e-06,,,,,0.19333867866334747,-0.40747950358181706
313,1.64454093759168e+18,0.402072638273,-9.58109664917,0.637432217598,acc,1.640773136766678e-06,-2.6012256482727273e-06,,,,,0.19334022361594688,-0.40748227657372393
314,1.6445409375924908e+18,,,,gyr,1.6407503831696852e-06,-2.6012400004028015e-06,-0.00523598771542,-0.00174532923847,0.0,8.74723584137623e-06,0.19334022361594688,-0.40748227657372393
315,1.64454093759369e+18,0.402072638273,-9.61051654816,0.696272134781,acc,1.6245947001150026e-06,-2.81332255002872e-06,,,,,0.19334186436633005,-0.40748487781372433
316,1.6445409375957e+18,0.421685934067,-9.61051654816,0.696272134781,acc,1.7034092454146536e-06,-2.812606008153235e-06,,,,,0.19334348896103018,-0.40748769113627437
317,1.6445409375975027e+18,,,,gyr,1.7033846416530742e-06,-2.8126209088756034e-06,-0.00174532923847,-0.00174532923847,0.0,8.747651229734985e-06,0.19334348896103018,-0.40748769113627437
318,1.64454093759772e+18,0.38245934248,-9.62032318115,0.725692093372,acc,1.5607354376115246e-06,-2.9613954769045806e-06,,,,,0.19334519234567182,-0.40749050375718326
319,1.64454093759973e+18,0.362846046686,-9.64974308014,0.696272134781,acc,1.4657242764205787e-06,-2.812606008153235e-06,,,,,0.19334675308110943,-0.40749346515266016
320,1.64454093760175e+18,0.402072638273,-9.57129001617,0.666852176189,acc,1.640773136766678e-06,-2.7212822578153175e-06,,,,,0.19334821880538586,-0.4074962777586683
321,1.6445409376025147e+18,,,,gyr,1.640773136766678e-06,-2.7212822578153175e-06,-0.00174532923847,0.0,0.00349065847695,-0.0,0.19334821880538586,-0.4074962777586683
322,1.64454093760376e+18,0.402072638273,-9.58109664917,0.686465501785,acc,1.6245947001150026e-06,-2.773698356600126e-06,,,,,0.19334985957852263,-0.4074989990409261
323,1.64454093760578e+18,0.402072638273,-9.62032318115,0.686465501785,acc,1.6403573037488294e-06,-2.8006101197566777e-06,,,,,0.19335148417322276,-0.40750177273928273
324,1.6445409376075267e+18,,,,gyr,1.6403573037488294e-06,-2.8006101197566777e-06,0.0,0.0,0.0,-0.0,0.19335148417322276,-0.40750177273928273
325,1.64454093760779e+18,0.402072638273,-9.64974308014,0.696272134781,acc,1.6245947001150026e-06,-2.81332255002872e-06,,,,,0.1933531245305265,-0.4075045733494025
326,1.64454093760981e+18,0.38245934248,-9.61051654816,0.735498726368,acc,1.5603398891273724e-06,-3.0006535955240307e-06,,,,,0.19335474912522663,-0.4075073866719525
327,1.64454093761182e+18,0.402072638273,-9.62032318115,0.735498726368,acc,1.6245947001150026e-06,-2.971819564572013e-06,,,,,0.19335630946511576,-0.40751038732554806
328,1.6445409376125386e+18,,,,gyr,1.624568703611776e-06,-2.9718337758461354e-06,-0.00174532923847,-0.00174532923847,0.00349065847695,8.747651229734985e-06,0.19335630946511576,-0.40751038732554806
329,1.64454093761384e+18,0.38245934248,-9.64974308014,0.666852176189,acc,1.5603398891273724e-06,-2.720592583546323e-06,,,,,0.19335793403381937,-0.4075133591593239
330,1.64454093761585e+18,0.362846046686,-9.64974308014,0.637432217598,acc,1.4660976855717095e-06,-2.575576907795281e-06,,,,,0.1933594943737085,-0.40751607975190746
331,1.6445409376175483e+18,,,,gyr,1.4660976855717095e-06,-2.575576907795281e-06,0.0,0.0,-0.00174532923847,-0.0,0.1933594943737085,-0.40751607975190746
332,1.64454093761787e+18,0.402072638273,-9.61051654816,0.666852176189,acc,1.640773136766678e-06,-2.7212822578153175e-06,,,,,0.19336096047139406,-0.40751865532881526
333,1.64454093761988e+18,0.402072638273,-9.62032318115,0.696272134781,acc,1.624180922415282e-06,-2.812606008153235e-06,,,,,0.19336260124453084,-0.40752137661107307
334,1.6445409376219e+18,0.38245934248,-9.62032318115,0.686465501785,acc,1.5607354376115246e-06,-2.801320078590192e-06,,,,,0.19336422542545326,-0.4075241892170812
335,1.6445409376225603e+18,,,,gyr,1.5607354376115246e-06,-2.801320078590192e-06,0.0,0.0,0.0,-0.0,0.19336422542545326,-0.4075241892170812
336,1.64454093762391e+18,0.402072638273,-9.64974308014,0.725692093372,acc,1.624180922415282e-06,-2.9314485528411574e-06,,,,,0.19336578616089087,-0.4075269905371598
337,1.64454093762593e+18,0.421685934067,-9.62032318115,0.696272134781,acc,1.7208108359259126e-06,-2.8413388673619896e-06,,,,,0.1933674103418133,-0.40752992198571264
338,1.6445409376275722e+18,,,,gyr,1.7208108359259126e-06,-2.8413388673619896e-06,-0.00349065847695,0.0,0.00174532923847,-0.0,0.1933674103418133,-0.40752992198571264
339,1.64454093762794e+18,0.402072638273,-9.62032318115,0.686465501785,acc,1.6245947001150026e-06,-2.773698356600126e-06,,,,,0.19336913115264923,-0.40753276332458
340,1.64454093762995e+18,0.402072638273,-9.66935634613,0.696272134781,acc,1.624180922415282e-06,-2.812606008153235e-06,,,,,0.19337075574734935,-0.4075355370229366
341,1.64454093763197e+18,0.38245934248,-9.64974308014,0.666852176189,acc,1.5607354376115246e-06,-2.7212822578153175e-06,,,,,0.19337237992827178,-0.40753834962894475
342,1.6445409376325844e+18,,,,gyr,1.5607116327237208e-06,-2.721295910480469e-06,-0.00174532923847,-0.00174532923847,0.0,8.747651229734985e-06,0.19337237992827178,-0.40753834962894475
343,1.64454093763398e+18,0.38245934248,-9.62032318115,0.637432217598,acc,1.54495259941995e-06,-2.574920918773351e-06,,,,,0.1933739406399045,-0.40754107092485525
344,1.644540937636e+18,0.38245934248,-9.61051654816,0.686465501785,acc,1.5607354376115246e-06,-2.801320078590192e-06,,,,,0.19337548559250392,-0.407543645845774
345,1.6445409376375962e+18,,,,gyr,1.5607599413592097e-06,-2.801306426362063e-06,-0.00349065847695,0.00174532923847,0.00349065847695,-8.74723584137623e-06,0.19337548559250392,-0.407543645845774
346,1.64454093763801e+18,0.362846046686,-9.61051654816,0.686465501785,acc,1.4660976855717095e-06,-2.773698356600126e-06,,,,,0.1933770463524453,-0.4075464471522004
347,1.64454093764003e+18,0.402072638273,-9.62032318115,0.686465501785,acc,1.6403573037488294e-06,-2.8006101197566777e-06,,,,,0.19337851245013085,-0.407549220850557
348,1.64454093764204e+18,0.38245934248,-9.61051654816,0.637432217598,acc,1.5453461928453765e-06,-2.575576907795281e-06,,,,,0.1933801528074346,-0.40755202146067676
349,1.644540937642608e+18,,,,gyr,1.54536872303925e-06,-2.5755633895445164e-06,-0.00349065847695,0.00174532923847,0.0,-8.747652975064225e-06,0.1933801528074346,-0.40755202146067676
350,1.64454093764406e+18,0.402072638273,-9.66935634613,0.735498726368,acc,1.6403573037488294e-06,-3.0006535955240307e-06,,,,,0.19338169817615763,-0.4075545970240663
351,1.64454093764607e+18,0.38245934248,-9.61051654816,0.696272134781,acc,1.5453461928453765e-06,-2.81332255002872e-06,,,,,0.19338333853346137,-0.40755759767766186
352,1.64454093764762e+18,,,,gyr,1.5453461928453765e-06,-2.81332255002872e-06,0.0,0.0,0.00174532923847,-0.0,0.19338333853346137,-0.40755759767766186
353,1.64454093764809e+18,0.38245934248,-9.56148338318,0.686465501785,acc,1.5607354376115246e-06,-2.801320078590192e-06,,,,,0.19338488387965422,-0.4075604110002119
354,1.6445409376501e+18,0.402072638273,-9.62032318115,0.735498726368,acc,1.624180922415282e-06,-2.971062654147938e-06,,,,,0.19338644461509183,-0.40756321232029047
355,1.64454093765212e+18,0.38245934248,-9.57129001617,0.725692093372,acc,1.5607354376115246e-06,-2.9613954769045806e-06,,,,,0.19338806879601425,-0.4075661833829446
356,1.644540937652632e+18,,,,gyr,1.5607095335271595e-06,-2.961409128912245e-06,-0.00349065847695,-0.00174532923847,0.0,8.74723584137623e-06,0.19338806879601425,-0.4075661833829446
357,1.64454093765413e+18,0.402072638273,-9.61051654816,0.696272134781,acc,1.624180922415282e-06,-2.812606008153235e-06,,,,,0.19338962950554778,-0.4075691447920735
358,1.64454093765615e+18,0.402072638273,-9.64974308014,0.666852176189,acc,1.640773136766678e-06,-2.7212822578153175e-06,,,,,0.1933912536864702,-0.40757195739808166
359,1.6445409376576438e+18,,,,gyr,1.640773136766678e-06,-2.7212822578153175e-06,-0.00349065847695,0.0,0.0,-0.0,0.1933912536864702,-0.40757195739808166
360,1.64454093765816e+18,0.38245934248,-9.64974308014,0.666852176189,acc,1.5453461928453765e-06,-2.69444972890998e-06,,,,,0.19339289445960697,-0.4075746786803395
361,1.64454093766018e+18,0.402072638273,-9.57129001617,0.686465501785,acc,1.6403573037488294e-06,-2.8006101197566777e-06,,,,,0.19339443980579982,-0.40757737313006837
362,1.64454093766219e+18,0.38245934248,-9.61051654816,0.686465501785,acc,1.5453461928453765e-06,-2.773698356600126e-06,,,,,0.19339608016310356,-0.4075801737401881
363,1.6445409376626557e+18,,,,gyr,1.5452734022757303e-06,-2.7737389100935816e-06,-0.00523598771542,-0.00523598771542,0.0,2.624295368925508e-05,0.19339608016310356,-0.4075801737401881
364,1.64454093766421e+18,0.402072638273,-9.64974308014,0.666852176189,acc,1.6403573037488294e-06,-2.720592583546323e-06,,,,,0.19339762543650582,-0.40758294747909823
